timestamp_ms,dt_ms,pos_x,pos_y,pos_z,vel_x,vel_y,vel_z,roll_deg,pitch_deg,yaw_deg,gyro_bias_x,gyro_bias_y,gyro_bias_z,accel_bias_x,accel_bias_y,accel_bias_z,raw_accel_x,raw_accel_y,raw_accel_z,raw_gyro_x,raw_gyro_y,raw_gyro_z,raw_mag_x,raw_mag_y,raw_mag_z,raw_baro_alt,raw_tof,raw_flow_squal,raw_flow_dx,raw_flow_dy,dev_pos_x,dev_pos_y,dev_pos_z,dev_vel_x,dev_vel_y,dev_vel_z,dev_roll_deg,dev_pitch_deg,dev_yaw_deg
14214,10.0,0.000011,-0.000007,-0.028000,-0.000006,-0.000085,-0.000532,-0.0007,0.0002,-0.0003,0.00000000,0.00000000,0.00423561,-0.00000087,0.00000056,0.00000000,-0.2173,0.1314,-9.8562,-0.001852,-0.000539,0.003704,-22.8794,39.7201,1.7585,-33.9004,0.0280,73,0,0,-0.000001,0.000000,-0.000000,-0.000722,0.000437,-0.000110,-0.2519,-0.4162,0.0008
14216,2.0,0.000031,-0.000019,-0.028001,-0.000328,0.000110,-0.000543,-0.5477,-0.9477,0.0041,0.00000117,0.00000203,0.00423561,-0.00024571,0.00013684,0.00000000,-0.2133,0.1231,-9.8443,-0.001371,-0.001510,0.002741,-22.8794,39.7201,1.7585,-33.9004,0.0280,64,0,0,-0.000003,0.000002,-0.000001,-0.001260,0.000740,-0.000196,-0.3718,-0.6293,0.0018
14219,3.0,0.000030,-0.000019,-0.028003,-0.000214,0.000085,-0.000628,-0.5313,-0.9061,0.0042,0.00000114,0.00000196,0.00423561,-0.00059418,0.00027131,0.00000554,-0.2175,0.1216,-9.8345,0.000767,-0.003839,0.002367,-22.8794,39.7201,1.7585,-33.9004,0.0280,64,0,0,-0.000007,0.000004,-0.000001,-0.001700,0.000972,-0.000259,-0.4397,-0.7583,0.0024
14221,2.0,0.000034,-0.000021,-0.027996,-0.000245,0.000059,0.000030,-0.5964,-1.0554,0.0051,0.00000165,0.00000306,0.00423561,-0.00106036,0.00055245,0.00001379,-0.2261,0.1240,-9.8469,-0.001652,-0.003444,0.001571,-22.8794,39.7201,1.7585,-33.9004,0.0280,64,0,0,0.000009,-0.000005,-0.000002,0.000004,0.000010,-0.000356,-0.4849,-0.8478,0.0028
14224,3.0,0.000033,-0.000021,-0.027996,-0.000181,-0.000028,-0.000109,-0.5783,-1.0327,0.0032,0.00000157,0.00000296,0.00423562,-0.00140419,0.00082591,0.00002232,-0.2257,0.1253,-9.8528,-0.003244,-0.003941,0.000611,-22.8794,39.7201,1.7585,-33.9004,0.0280,64,0,0,0.000009,-0.000005,-0.000003,-0.000224,0.000130,-0.000468,-0.5189,-0.9125,0.0028
14226,2.0,0.000034,-0.000022,-0.027997,-0.000161,0.000012,-0.000186,-0.6196,-1.0900,0.0043,0.00000224,0.00000397,0.00423561,-0.00186421,0.00102125,0.00003170,-0.2223,0.1281,-9.8466,0.000039,-0.004784,0.002188,-22.8794,39.7201,1.7585,-33.9004,0.0280,58,0,0,0.000009,-0.000005,-0.000004,-0.000428,0.000251,-0.000565,-0.5466,-0.9597,0.0030
14229,3.0,0.000034,-0.000021,-0.027994,-0.000113,0.000053,-0.000112,-0.6182,-1.0774,0.0060,0.00000223,0.00000383,0.00423561,-0.00214465,0.00104478,0.00003698,-0.2225,0.1255,-9.8558,0.001966,-0.003812,0.004753,-22.8794,39.7201,1.7585,-33.9004,0.0280,58,0,0,0.000008,-0.000004,-0.000006,-0.000619,0.000356,-0.000686,-0.5665,-0.9969,0.0034
14232,3.0,0.000034,-0.000022,-0.027995,-0.000087,0.000042,-0.000285,-0.6272,-1.0974,0.0068,0.00000257,0.00000456,0.00423560,-0.00248885,0.00120249,0.00004479,-0.2100,0.1177,-9.8651,0.000765,-0.004084,0.005100,-22.8794,39.7201,1.7585,-33.9004,0.0280,58,0,0,0.000011,-0.000005,-0.000008,-0.000164,0.000183,-0.000833,-0.5472,-0.9446,0.0043
14235,3.0,0.000034,-0.000022,-0.027996,-0.000063,0.000028,-0.000448,-0.6211,-1.0918,0.0059,0.00000244,0.00000442,0.00423561,-0.00266559,0.00137234,0.00005008,-0.2145,0.1344,-9.8609,-0.000353,-0.004190,0.003935,-22.8794,39.7201,1.7585,-33.9004,0.0280,58,0,0,0.000011,-0.000005,-0.027994,-0.000314,0.000299,-0.001124,-0.5651,-0.9681,0.0044
14237,2.0,0.000035,-0.000022,-0.027994,-0.000069,-0.000019,-0.000398,-0.6312,-1.1140,0.0050,0.00000302,0.00000554,0.00423561,-0.00296123,0.00164103,0.00005797,-0.2171,0.1237,-9.8554,-0.002088,-0.003580,0.004782,-22.8794,39.7201,1.7585,-33.9004,0.0280,69,0,0,0.000010,-0.000004,-0.027997,-0.000467,0.000380,-0.001244,-0.5765,-0.9898,0.0047
14239,2.0,0.000034,-0.000022,-0.027995,-0.000064,-0.000074,-0.000504,-0.6280,-1.1111,0.0040,0.00000289,0.00000543,0.00423562,-0.00307190,0.00175935,0.00006146,-0.2217,0.1136,-9.8596,-0.002763,-0.003344,0.001860,-22.8794,39.7201,1.7585,-33.9004,0.0280,69,0,0,0.000009,-0.000003,-0.028001,-0.000630,0.000426,-0.001374,-0.5824,-1.0104,0.0047
14241,2.0,0.000035,-0.000022,-0.027996,-0.000062,-0.000051,-0.000624,-0.6388,-1.1247,0.0041,0.00000359,0.00000635,0.00423562,-0.00330152,0.00187347,0.00006686,-0.2137,0.1237,-9.8673,-0.001075,-0.001951,0.002024,-22.8794,39.7201,1.7585,-33.9004,0.0280,69,0,0,0.000011,-0.000004,-0.028004,-0.000197,0.000166,-0.001528,-0.5535,-0.9623,0.0036
14244,3.0,0.000035,-0.000022,-0.027995,-0.000040,0.000021,-0.000637,-0.6386,-1.1226,0.0049,0.00000359,0.00000622,0.00423561,-0.00339526,0.00187297,0.00006813,-0.2061,0.1356,-9.8568,0.000882,-0.001409,0.004689,-22.8794,39.7201,1.7585,-33.9004,0.0280,69,0,0,0.000010,-0.000004,-0.028008,-0.000307,0.000278,-0.001652,-0.5650,-0.9741,0.0035
14246,2.0,0.000035,-0.000023,-0.027997,-0.000037,0.000024,-0.000717,-0.6522,-1.1329,0.0034,0.00000487,0.00000716,0.00423562,-0.00360090,0.00213660,0.00007479,-0.2134,0.1350,-9.8468,-0.000307,-0.003149,0.005075,-22.8794,39.7201,1.7585,-33.9004,0.0280,67,0,0,0.000009,-0.000003,-0.028013,-0.000437,0.000386,-0.001750,-0.5750,-0.9865,0.0035
14249,3.0,0.000035,-0.000023,-0.027999,-0.000015,0.000021,-0.000842,-0.6492,-1.1318,0.0026,0.00000463,0.00000700,0.00423563,-0.00369419,0.00227852,0.00007831,-0.2080,0.1388,-9.8485,-0.000119,-0.005127,0.005225,-22.8794,39.7201,1.7585,-33.9004,0.0280,67,0,0,0.000008,-0.000002,-0.028017,-0.000548,0.000504,-0.001853,-0.5852,-0.9969,0.0035
14251,2.0,0.000035,-0.000023,-0.027997,0.000007,0.000014,-0.000789,-0.6584,-1.1322,0.0004,0.00000578,0.00000701,0.00423564,-0.00374566,0.00250850,0.00008054,-0.1987,0.1325,-9.8537,-0.000046,-0.004595,0.005284,-22.8794,39.7201,1.7585,-33.9004,0.0280,67,0,0,0.000010,-0.000003,-0.028022,-0.000152,0.000208,-0.001972,-0.5596,-0.9634,0.0017
14254,3.0,0.000035,-0.000023,-0.027999,0.000002,0.000009,-0.000916,-0.6553,-1.1323,-0.0015,0.00000541,0.00000694,0.00423566,-0.00377994,0.00268782,0.00008333,-0.2061,0.1469,-9.8492,-0.001319,-0.003738,0.003356,-22.8794,39.7201,1.7585,-33.9004,0.0280,67,0,0,0.000010,-0.000003,-0.028027,-0.000256,0.000343,-0.002077,-0.5697,-0.9717,0.0011
14256,2.0,0.000035,-0.000023,-0.028001,0.000001,0.000014,-0.001012,-0.6662,-1.1359,-0.0040,0.00000712,0.00000746,0.00423567,-0.00385825,0.00295556,0.00008774,-0.2050,0.1392,-9.8551,-0.000513,-0.002755,0.004557,-22.8794,39.7201,1.7585,-33.9004,0.0280,62,0,0,0.000009,-0.000002,-0.028032,-0.000356,0.000454,-0.002197,-0.5779,-0.9793,0.0008
14259,3.0,0.000035,-0.000023,-0.027999,0.000014,0.000054,-0.000977,-0.6657,-1.1360,-0.0038,0.00000710,0.00000740,0.00423567,-0.00388162,0.00296648,0.00008548,-0.1991,0.1327,-9.8511,0.001751,-0.002372,0.005024,-22.8794,39.7201,1.7585,-33.9004,0.0280,62,0,0,0.000008,-0.000001,-0.028038,-0.000439,0.000547,-0.002306,-0.5843,-0.9857,0.0007
14261,2.0,0.000035,-0.000023,-0.028001,0.000015,0.000083,-0.001059,-0.6690,-1.1404,-0.0029,0.00000777,0.00000818,0.00423567,-0.00399618,0.00299265,0.00008793,-0.2084,0.1239,-9.8478,0.003282,-0.003524,0.007156,-22.8794,39.7201,1.7585,-33.9004,0.0280,62,0,0,0.000010,-0.000001,-0.028044,-0.000129,0.000328,-0.002409,-0.5689,-0.9650,0.0009
14264,3.0,0.000035,-0.000023,-0.028004,-0.000009,0.000026,-0.001214,-0.6671,-1.1401,-0.0034,0.00000741,0.00000797,0.00423568,-0.00407033,0.00312122,0.00009097,-0.2221,0.1231,-9.8585,-0.000024,-0.004622,0.007335,-22.8794,39.7201,1.7585,-33.9004,0.0280,62,0,0,0.000009,-0.000000,-0.028050,-0.000271,0.000390,-0.002537,-0.5726,-0.9739,0.0017
14268,4.0,0.000035,-0.000023,-0.028002,-0.000025,-0.000061,-0.001238,-0.6690,-1.1456,-0.0050,0.00000782,0.00000916,0.00423571,-0.00424193,0.00343272,0.00009181,-0.2129,0.1280,-9.8614,-0.003261,-0.003749,0.007405,-22.8794,39.7201,1.7585,-33.9321,0.0280,57,0,0,0.000009,0.000001,-0.027996,-0.000387,0.000465,-0.000854,-0.5774,-0.9812,0.0022
14269,1.0,0.000035,-0.000023,-0.028003,-0.000018,-0.000114,-0.001283,-0.6679,-1.1455,-0.0059,0.00000752,0.00000909,0.00423572,-0.00426578,0.00353163,0.00009348,-0.2077,0.1212,-9.8514,-0.003869,-0.002759,0.006132,-22.8794,39.7201,1.7585,-33.9321,0.0280,57,0,0,0.000007,0.000002,-0.027998,-0.000488,0.000521,-0.000965,-0.5813,-0.9875,0.0025
14271,2.0,0.000035,-0.000024,-0.028006,-0.000036,-0.000140,-0.001375,-0.6700,-1.1546,-0.0054,0.00000801,0.00001146,0.00423572,-0.00451095,0.00365448,0.00009962,-0.2249,0.1248,-9.8532,-0.003456,-0.004324,0.005636,-22.8794,39.7201,1.7585,-33.9321,0.0280,57,0,0,0.000009,0.000000,-0.028001,-0.000179,0.000111,-0.001081,-0.5587,-0.9702,-0.0004
14274,3.0,0.000035,-0.000024,-0.028004,-0.000052,-0.000099,-0.001305,-0.6704,-1.1538,-0.0046,0.00000805,0.00001109,0.00423571,-0.00461641,0.00364323,0.00009432,-0.2281,0.1299,-9.8353,-0.001344,-0.002983,0.003493,-22.8794,39.7201,1.7585,-33.9321,0.0280,57,0,0,0.000078,-0.000124,-0.028002,-0.004931,0.008386,-0.000966,-7.9053,-5.0949,0.0491
14276,2.0,0.000035,-0.000024,-0.028006,-0.000048,-0.000071,-0.001391,-0.6766,-1.1608,-0.0046,0.00001000,0.00001324,0.00423570,-0.00486548,0.00379254,0.00010084,-0.2237,0.1360,-9.8494,-0.001173,-0.003111,0.003960,-22.8794,39.7201,1.7585,-33.9321,0.0280,59,0,0,0.000021,-0.000023,-0.028006,0.001849,-0.003898,-0.000519,-1.9520,-1.7642,-0.0596
14279,3.0,0.000035,-0.000025,-0.028011,-0.000054,-0.000076,-0.001505,-0.6764,-1.1601,-0.0042,0.00000983,0.00001285,0.00423570,-0.00496594,0.00383600,0.00010344,-0.2254,0.1267,-9.8447,-0.001757,-0.002511,0.005442,-22.8794,39.7201,1.7585,-33.9321,0.0280,59,0,0,0.000023,-0.000028,-0.028007,0.002626,-0.005466,-0.000578,-1.4329,-1.4773,-0.0526
14282,3.0,0.000035,-0.000025,-0.028007,-0.000060,-0.000094,-0.001423,-0.6770,-1.1669,-0.0028,0.00000991,0.00001527,0.00423569,-0.00525155,0.00389071,0.00009706,-0.2263,0.1216,-9.8358,-0.001984,-0.002927,0.004718,-22.8794,39.7201,1.7585,-33.9321,0.0280,59,0,0,0.000028,-0.000034,-0.028009,0.000338,-0.000889,-0.000724,-2.7398,-2.1982,-0.0648
14284,2.0,0.000035,-0.000025,-0.028010,-0.000046,-0.000121,-0.001479,-0.6765,-1.1664,-0.0029,0.00000961,0.00001486,0.00423569,-0.00534935,0.00396247,0.00009996,-0.2268,0.1271,-9.8350,-0.002722,-0.005040,0.005086,-22.8794,39.7201,1.7585,-33.9321,0.0280,59,0,0,0.000027,-0.000033,-0.028011,0.000904,-0.002081,-0.000753,-2.5118,-2.0748,-0.0637
14286,2.0,0.000035,-0.000026,-0.028013,-0.000057,-0.000154,-0.001567,-0.6793,-1.1745,-0.0032,0.00001057,0.00001813,0.00423570,-0.00563686,0.00413570,0.00010763,-0.2324,0.1302,-9.8503,-0.004310,-0.003911,0.001979,-22.8794,39.7201,1.7585,-33.9321,0.0280,56,0,0,0.000029,-0.000037,-0.028013,0.001397,-0.003160,-0.000829,-2.3417,-1.9837,-0.0630
14289,3.0,0.000035,-0.000026,-0.028010,-0.000067,-0.000162,-0.001543,-0.6793,-1.1740,-0.0036,0.00001029,0.00001756,0.00423570,-0.00575901,0.00419601,0.00009370,-0.2345,0.1298,-9.8516,-0.003627,-0.004122,0.001420,-22.8794,39.7201,1.7585,-33.9321,0.0280,56,0,0,0.000032,-0.000045,-0.028015,0.001842,-0.004163,-0.000912,-2.2046,-1.9112,-0.0624
14291,2.0,0.000035,-0.000026,-0.028013,-0.000057,-0.000119,-0.001602,-0.6825,-1.1815,-0.0015,0.00001178,0.00002094,0.00423567,-0.00608646,0.00422362,0.00010048,-0.2346,0.1296,-9.8364,-0.000761,-0.004855,0.004454,-22.8794,39.7201,1.7585,-33.9321,0.0280,56,0,0,0.000030,-0.000037,-0.028017,0.000504,-0.001175,-0.001028,-2.6681,-2.1581,-0.0651
14294,3.0,0.000035,-0.000027,-0.028018,-0.000054,-0.000127,-0.001752,-0.6829,-1.1811,-0.0007,0.00001183,0.00002031,0.00423565,-0.00620979,0.00421301,0.00010295,-0.2325,0.1168,-9.8564,-0.001596,-0.004490,0.003683,-22.8794,39.7201,1.7585,-33.9321,0.0280,56,0,0,0.000030,-0.000039,-0.028020,0.000962,-0.002222,-0.001114,-2.5519,-2.0980,-0.0646
14296,2.0,0.000035,-0.000027,-0.028013,-0.000054,-0.000124,-0.001728,-0.6820,-1.1864,0.0018,0.00001120,0.00002308,0.00423562,-0.00644005,0.00414837,0.00008324,-0.2293,0.1160,-9.8729,-0.001922,-0.001746,0.004034,-22.8794,39.7201,1.7585,-33.9321,0.0280,57,0,0,0.000032,-0.000045,-0.028023,0.001414,-0.003244,-0.001243,-2.4463,-2.0431,-0.0641
14300,4.0,0.000035,-0.000028,-0.028021,-0.000049,-0.000154,-0.002029,-0.6821,-1.1863,0.0009,0.00001080,0.00002247,0.00423563,-0.00655088,0.00422076,0.00008649,-0.2264,0.1250,-9.8821,-0.003348,-0.003931,0.001569,-22.8794,39.7201,1.7585,-33.9321,0.0290,57,0,0,0.000036,-0.000053,-0.028797,0.001855,-0.004205,-0.015629,-2.3558,-1.9960,-0.0640
14302,2.0,0.000035,-0.000028,-0.028025,-0.000043,-0.000149,-0.002150,-0.6863,-1.1909,0.0000,0.00001321,0.00002505,0.00423564,-0.00676147,0.00439391,0.00009271,-0.2279,0.1375,-9.8672,-0.003253,-0.003480,0.001261,-22.8794,39.7201,1.7585,-33.9321,0.0290,57,0,0,0.000032,-0.000042,-0.028837,0.000573,-0.001387,-0.015812,-2.6518,-2.1519,-0.0659
14304,2.0,0.000035,-0.000028,-0.028296,-0.000045,-0.000074,-0.006725,-0.6867,-1.1905,0.0011,0.00001347,0.00002452,0.00423561,-0.00683257,0.00433867,0.00103318,-0.2394,0.1465,-9.8621,0.000035,-0.003304,0.003091,-22.8794,39.7201,1.7585,-33.9321,0.0290,57,0,0,0.000033,-0.000046,-0.028876,0.000974,-0.002278,-0.015923,-2.5885,-2.1196,-0.0658
14306,2.0,0.000035,-0.000062,-0.028309,-0.000031,-0.013793,-0.006799,-0.4971,-1.1963,-0.2893,-0.00012213,0.00002659,0.00424157,-0.00711193,0.02745241,0.00132325,-0.2257,0.1284,-9.8413,0.000014,-0.003886,0.004454,-22.8794,39.7201,1.7585,-33.9321,0.0290,60,0,-1,0.000035,-0.000052,-0.028916,0.001409,-0.003216,-0.015977,-2.5169,-2.0828,-0.0654
14309,3.0,0.000035,-0.000113,-0.028330,-0.000091,-0.017514,-0.006933,-0.4456,-1.1969,-0.3671,-0.00016138,0.00002660,0.00424322,-0.00713184,0.03366571,0.00138430,-0.2286,0.1193,-9.8507,-0.000645,-0.000861,0.004984,-22.8794,39.7201,1.7585,-33.9321,0.0290,60,0,-1,0.000039,-0.000060,-0.028956,0.001829,-0.004162,-0.016055,-2.4484,-2.0479,-0.0650
14312,3.0,0.000035,-0.000171,-0.028521,-0.000145,-0.019618,-0.009750,-0.4216,-1.2009,-0.4122,-0.00018155,0.00002933,0.00424420,-0.00724361,0.03733702,0.00216701,-0.2271,0.1248,-9.8581,-0.004152,-0.000985,0.003239,-22.8794,39.7201,1.7585,-33.9321,0.0290,60,0,-1,0.000032,-0.000079,-0.028996,0.000645,-0.006160,-0.016150,-2.3458,-2.0625,-0.0654
14314,2.0,0.000034,-0.000225,-0.028540,-0.000186,-0.025393,-0.009846,-0.3462,-1.2018,-0.5270,-0.00024598,0.00002942,0.00424679,-0.00726557,0.04692277,0.00223392,-0.2136,0.1278,-9.8538,-0.004216,-0.002334,0.000610,-22.8773,40.7835,1.3456,-33.9321,0.0290,60,0,-1,0.000034,-0.000095,-0.029037,0.001054,-0.006940,-0.016239,-2.2923,-2.0334,-0.0655
14316,2.0,0.000034,-0.000248,-0.028560,-0.000104,-0.014680,-0.009948,-0.4824,-1.2021,-0.3200,-0.00012473,0.00003012,0.00424198,-0.00725285,0.02931082,0.00213695,-0.2176,0.1169,-9.8545,-0.002290,-0.003509,0.002838,-22.8773,40.7835,1.3456,-33.9321,0.0290,54,0,0,0.000036,-0.000112,-0.029077,0.001446,-0.007737,-0.016330,-2.2399,-2.0059,-0.0653
14319,3.0,0.000034,-0.000276,-0.028689,-0.000057,-0.007903,-0.011515,-0.5665,-1.2015,-0.1907,-0.00004561,0.00002989,0.00423887,-0.00723154,0.01820417,0.00259665,-0.2188,0.1129,-9.8318,-0.002191,-0.003316,0.003705,-22.8773,40.7835,1.3456,-33.9321,0.0290,54,0,0,0.000040,-0.000132,-0.029118,0.001826,-0.008531,-0.016364,-2.1898,-1.9799,-0.0650
14322,3.0,0.000034,-0.000290,-0.028724,-0.000040,-0.004152,-0.011584,-0.6111,-1.2028,-0.1183,-0.00000121,0.00003132,0.00423710,-0.00730978,0.01206969,0.00255057,-0.2216,0.1159,-9.8275,-0.000852,-0.001290,0.003392,-22.8773,40.7835,1.3456,-33.9321,0.0290,54,0,0,0.000035,-0.000108,-0.029160,0.000580,-0.002622,-0.016487,-2.5225,-2.1090,-0.0666
14324,2.0,0.000034,-0.000293,-0.028747,-0.000038,-0.002369,-0.011651,-0.6321,-1.2024,-0.0837,0.00002051,0.00003103,0.00423622,-0.00733640,0.00918836,0.00252571,-0.2284,0.1229,-9.8377,-0.001632,-0.001152,0.003920,-22.8773,40.7835,1.3456,-33.9321,0.0290,54,0,0,0.000037,-0.000115,-0.029201,0.000959,-0.003460,-0.016533,-2.4779,-2.0864,-0.0664
14326,2.0,0.000034,-0.000296,-0.028822,-0.000031,-0.001358,-0.012472,-0.6467,-1.2052,-0.0646,0.00003599,0.00003364,0.00423573,-0.00748846,0.00771600,0.00284142,-0.2280,0.1341,-9.8455,0.000015,-0.002399,0.006077,-22.8773,40.7835,1.3456,-33.9321,0.0290,58,0,0,0.000039,-0.000124,-0.029242,0.001333,-0.004257,-0.016602,-2.4380,-2.0662,-0.0660
14329,3.0,0.000034,-0.000298,-0.028860,-0.000037,-0.000723,-0.012582,-0.6535,-1.2050,-0.0516,0.00004369,0.00003297,0.00423540,-0.00756779,0.00674973,0.00283283,-0.2341,0.1310,-9.8404,0.000006,-0.002884,0.006916,-22.8773,40.7835,1.3456,-33.9321,0.0290,58,0,0,0.000043,-0.000135,-0.029284,0.001685,-0.005050,-0.016660,-2.4006,-2.0479,-0.0654
14333,4.0,0.000034,-0.000300,-0.028910,-0.000069,-0.000380,-0.012742,-0.6575,-1.2091,-0.0427,0.00004820,0.00003739,0.00423518,-0.00784081,0.00619625,0.00283221,-0.2375,0.1187,-9.8439,-0.001298,0.000179,0.003991,-22.8773,40.7835,1.3456,-33.9321,0.0280,58,0,0,0.000037,-0.000119,-0.029327,0.000559,-0.001668,-0.016788,-2.5668,-2.1215,-0.0661
14334,1.0,0.000034,-0.000300,-0.028713,-0.000054,-0.000285,-0.009895,-0.6588,-1.2088,-0.0405,0.00004954,0.00003706,0.00423512,-0.00791205,0.00605355,0.00123629,-0.2258,0.1139,-9.8648,-0.003106,0.000070,0.002853,-22.8773,40.7835,1.3456,-33.9321,0.0280,58,0,0,0.000039,-0.000123,-0.028358,0.000945,-0.002532,-0.003692,-2.5248,-2.1003,-0.0661
14336,2.0,0.000034,-0.000268,-0.028733,-0.000040,0.012708,-0.009976,-0.7954,-1.2096,0.2236,0.00022643,0.00004055,0.00422779,-0.00800090,-0.01474276,0.00099695,-0.2329,0.1259,-9.8470,-0.003159,-0.003224,0.003711,-22.8773,40.7835,1.3456,-33.9321,0.0280,51,0,1,0.000042,-0.000130,-0.028367,0.001303,-0.003347,-0.003762,-2.4896,-2.0832,-0.0660
14339,3.0,0.000034,-0.000221,-0.028763,-0.000081,0.016521,-0.010039,-0.8345,-1.2091,0.2994,0.00027916,0.00004029,0.00422562,-0.00800082,-0.02072024,0.00091506,-0.2337,0.1411,-9.8265,-0.001879,-0.003205,0.003394,-22.8773,40.7835,1.3456,-33.9321,0.0280,51,0,1,0.000045,-0.000139,-0.028377,0.001651,-0.004107,-0.003785,-2.4589,-2.0681,-0.0660
14342,3.0,0.000033,-0.000166,-0.028617,-0.000113,0.018621,-0.007760,-0.8576,-1.2120,0.3406,0.00031118,0.00004370,0.00422441,-0.00816909,-0.02390364,-0.00069550,-0.2310,0.1338,-9.8330,-0.002031,-0.003197,0.003271,-22.8773,40.7835,1.3456,-33.9321,0.0280,51,0,1,0.000040,-0.000093,-0.028387,0.000566,0.002990,-0.003909,-2.7435,-2.1608,-0.0667
14344,2.0,0.000033,-0.000114,-0.028633,-0.000155,0.024170,-0.007831,-0.9129,-1.2109,0.4504,0.00039227,0.00004352,0.00422113,-0.00814469,-0.03266679,-0.00083627,-0.2316,0.1276,-9.8439,-0.003391,-0.004495,0.003873,-22.8773,40.7835,1.3456,-33.9004,0.0280,51,0,1,0.000042,-0.000086,-0.028397,0.000945,0.002116,-0.003967,-2.7086,-2.1443,-0.0667
14346,2.0,0.000066,-0.000092,-0.028649,0.012289,0.013976,-0.007947,-0.8192,-1.0989,0.4354,0.00024259,-0.00013625,0.00422183,-0.02807968,-0.01619703,-0.00012066,-0.2277,0.1305,-9.8596,-0.003270,-0.003049,0.003457,-22.8773,40.7835,1.3456,-33.9004,0.0280,38,1,0,0.000044,-0.000081,-0.028407,0.001332,0.001255,-0.004064,-2.6747,-2.1278,-0.0667
14349,3.0,0.000111,-0.000067,-0.028531,0.015676,0.007533,-0.006253,-0.7587,-1.0694,0.3763,0.00014344,-0.00018705,0.00422386,-0.03340916,-0.00592657,-0.00128108,-0.2118,0.1352,-9.8651,-0.000622,-0.003137,0.003946,-22.8773,40.7835,1.3456,-33.9004,0.0280,38,1,0,0.000048,-0.000079,-0.028417,0.001758,0.000410,-0.004174,-2.6391,-2.1097,-0.0666
14352,3.0,0.000163,-0.000054,-0.028550,0.017529,0.003998,-0.006431,-0.7280,-1.0548,0.3454,0.00009065,-0.00021432,0.00422496,-0.03636558,-0.00023216,-0.00113624,-0.2208,0.1326,-9.8672,0.000408,-0.004471,0.004136,-22.8773,40.7835,1.3456,-33.9004,0.0280,38,1,0,0.000073,-0.000076,-0.028427,0.004754,-0.000093,-0.004282,-2.5996,-2.0300,-0.0660
14354,2.0,0.000212,-0.000050,-0.028563,0.022663,0.002323,-0.006518,-0.7133,-1.0091,0.3859,0.00006332,-0.00029569,0.00422375,-0.04443742,0.00251531,-0.00094686,-0.2238,0.1333,-9.8515,-0.000491,-0.001739,0.004210,-22.8773,40.7835,1.3456,-33.9004,0.0280,38,1,0,0.000085,-0.000076,-0.028438,0.005094,-0.000870,-0.004362,-2.5704,-2.0162,-0.0659
14356,2.0,0.000232,-0.000048,-0.028459,0.013071,0.001308,-0.005094,-0.7034,-1.0958,0.2594,0.00004810,-0.00013901,0.00422794,-0.02955651,0.00392808,-0.00251898,-0.2349,0.1242,-9.8533,-0.000841,-0.003278,0.004239,-22.8773,40.7835,1.3456,-33.9004,0.0280,60,0,0,0.000098,-0.000079,-0.028448,0.005402,-0.001662,-0.004447,-2.5425,-2.0041,-0.0658
14359,3.0,0.000256,-0.000046,-0.028475,0.006990,0.000666,-0.005247,-0.6973,-1.1486,0.1859,0.00003823,-0.00003939,0.00423047,-0.02009926,0.00481124,-0.00267784,-0.2253,0.1222,-9.8606,-0.000978,-0.001925,0.004900,-22.8773,40.7835,1.3456,-33.9004,0.0280,60,0,0,0.000112,-0.000084,-0.028459,0.005733,-0.002457,-0.004549,-2.5133,-1.9909,-0.0656
14362,3.0,0.000268,-0.000045,-0.028491,0.003643,0.000281,-0.005392,-0.6949,-1.1775,0.1444,0.00003328,0.00001728,0.00423193,-0.01494140,0.00541803,-0.00276821,-0.2221,0.1296,-9.8583,-0.003632,-0.000099,0.003857,-22.8773,40.7835,1.3456,-33.9004,0.0280,60,0,0,0.000094,-0.000074,-0.028472,0.001813,-0.000988,-0.004692,-2.5776,-2.0893,-0.0664
14365,3.0,0.000274,-0.000045,-0.028403,0.001890,0.000075,-0.004165,-0.6934,-1.1924,0.1222,0.00002967,0.00004719,0.00423270,-0.01226234,0.00574397,-0.00416968,-0.2182,0.1284,-9.8445,-0.003363,-0.001339,0.000200,-22.8773,40.7835,1.3456,-33.9004,0.0280,60,0,0,0.000099,-0.000077,-0.028483,0.002178,-0.001753,-0.004752,-2.5500,-2.0754,-0.0669
14367,2.0,0.000275,-0.000045,-0.028411,0.001068,-0.000018,-0.004239,-0.6923,-1.2002,0.1131,0.00002740,0.00006247,0.00423304,-0.01103540,0.00584445,-0.00419352,-0.2212,0.1214,-9.8483,-0.001959,-0.003772,0.002028,-22.8773,40.7835,1.3456,-33.9004,0.0280,51,0,0,0.000104,-0.000082,-0.028167,0.002533,-0.002531,-0.001325,-2.5219,-2.0621,-0.0671
14369,2.0,0.000276,-0.000045,-0.028420,0.000620,-0.000094,-0.004319,-0.6922,-1.2042,0.1083,0.00002652,0.00007024,0.00423322,-0.01035539,0.00591775,-0.00420682,-0.2208,0.1123,-9.8514,-0.002713,-0.004068,0.004040,-22.8773,40.7835,1.3456,-33.9004,0.0280,51,0,0,0.000111,-0.000089,-0.028170,0.002885,-0.003326,-0.001402,-2.4936,-2.0488,-0.0670
14372,3.0,0.000277,-0.000045,-0.028347,0.000323,-0.000085,-0.003327,-0.6921,-1.2079,0.1066,0.00002611,0.00007748,0.00423330,-0.01001692,0.00588420,-0.00543691,-0.2248,0.1219,-9.8448,-0.001055,-0.001583,0.003522,-22.8773,40.7835,1.3456,-33.9004,0.0280,51,0,0,0.000101,-0.000077,-0.028174,0.000969,-0.001197,-0.001499,-2.5567,-2.0983,-0.0674
14374,2.0,0.000278,-0.000045,-0.028354,0.000175,-0.000086,-0.003396,-0.6922,-1.2093,0.1055,0.00002605,0.00007954,0.00423334,-0.00984244,0.00588859,-0.00544060,-0.2344,0.1262,-9.8464,-0.001061,-0.003867,0.004621,-22.8773,40.7835,1.3456,-33.9004,0.0280,51,0,0,0.000144,-0.000150,-0.028222,-0.001391,0.002700,-0.003717,-7.6486,-5.0276,0.2077
14376,2.0,0.000278,-0.000046,-0.028361,0.000090,-0.000095,-0.003493,-0.6935,-1.2134,0.1050,0.00002807,0.00008642,0.00423337,-0.00992077,0.00598585,-0.00543796,-0.2377,0.1329,-9.8609,-0.001713,-0.004755,0.004399,-22.8773,40.7835,1.3456,-33.9004,0.0280,53,0,0,0.000139,-0.000140,-0.028225,0.000941,-0.001542,-0.003234,-6.9994,-4.6617,0.1667
14379,3.0,0.000278,-0.000046,-0.028300,0.000038,-0.000086,-0.002704,-0.6936,-1.2142,0.1047,0.00002770,0.00008657,0.00423339,-0.00993211,0.00602806,-0.00654689,-0.2332,0.1345,-9.8522,-0.001317,-0.004451,0.004962,-22.8773,40.7835,1.3456,-33.9004,0.0280,53,0,0,0.000141,-0.000143,-0.028227,0.003110,-0.005476,-0.002806,-6.4535,-4.3535,0.1355
14382,3.0,0.000278,-0.000046,-0.028308,0.000015,-0.000067,-0.002813,-0.6949,-1.2168,0.1050,0.00003019,0.00009018,0.00423339,-0.01004489,0.00609615,-0.00654378,-0.2307,0.1333,-9.8494,-0.000512,-0.004332,0.005832,-22.8773,40.7835,1.3456,-33.9004,0.0280,53,0,0,0.000128,-0.000121,-0.028238,0.001309,-0.002343,-0.002943,-6.9389,-4.6304,0.1641
14384,2.0,0.000278,-0.000046,-0.028314,-0.000000,-0.000120,-0.002876,-0.6948,-1.2172,0.1039,0.00002902,0.00008992,0.00423343,-0.01006533,0.00618737,-0.00654219,-0.2335,0.1294,-9.8447,-0.003451,-0.004286,0.003569,-22.8773,40.7835,1.3456,-33.9004,0.0280,53,0,0,0.000131,-0.000126,-0.028240,0.003163,-0.005733,-0.002542,-6.5572,-4.4155,0.1421
14386,2.0,0.000278,-0.000011,-0.028259,-0.000038,0.013172,-0.002175,-0.7939,-1.2169,0.3498,0.00028727,0.00009387,0.00422336,-0.01007047,-0.01376285,-0.00780066,-0.2319,0.1294,-9.8474,-0.003943,-0.002968,0.003339,-22.8773,40.7835,1.3456,-33.9004,0.0280,53,0,1,0.000139,-0.000140,-0.028241,0.004943,-0.008985,-0.002188,-6.2175,-4.2239,0.1236
14389,3.0,0.000278,0.000038,-0.028266,-0.000106,0.016711,-0.002290,-0.8208,-1.2166,0.4157,0.00035783,0.00009401,0.00422061,-0.01002584,-0.01907240,-0.00787584,-0.2353,0.1178,-9.8531,-0.004135,-0.002455,0.003900,-22.8773,40.7835,1.3456,-33.9004,0.0280,53,0,1,0.000151,-0.000163,-0.028241,0.006644,-0.012141,-0.001877,-5.9084,-4.0500,0.1079
14392,3.0,0.000277,0.000094,-0.028273,-0.000158,0.018647,-0.002399,-0.8359,-1.2179,0.4514,0.00039686,0.00009786,0.00421911,-0.01007367,-0.02194870,-0.00791819,-0.2298,0.1229,-9.8510,-0.005510,-0.000305,0.004768,-22.8773,40.7835,1.3456,-33.9004,0.0280,53,0,1,0.000133,-0.000097,-0.028260,0.002137,0.000230,-0.002530,-7.0296,-4.6464,0.1689
14394,2.0,0.000277,0.000146,-0.028225,-0.000220,0.024189,-0.001810,-0.8761,-1.2167,0.5524,0.00051014,0.00009787,0.00421475,-0.01003939,-0.03017855,-0.00899967,-0.2330,0.1183,-9.8582,-0.003444,-0.000119,0.004456,-22.8773,40.7835,1.3456,-33.9004,0.0280,53,0,1,0.000139,-0.000096,-0.028260,0.003929,-0.003089,-0.002155,-6.7467,-4.4877,0.1524
14397,3.0,0.000277,0.000188,-0.028231,-0.000135,0.012798,-0.001964,-0.7954,-1.2216,0.3476,0.00027283,0.00010211,0.00422378,-0.01031495,-0.01342161,-0.00871443,-0.2337,0.1084,-9.8644,-0.001340,-0.002647,0.005635,-22.8773,40.7835,1.3456,-33.9004,0.0280,56,0,0,0.000149,-0.000105,-0.028258,0.005669,-0.006344,-0.001815,-6.4800,-4.3387,0.1377
14399,2.0,0.000277,0.000198,-0.028235,-0.000079,0.007217,-0.002069,-0.7566,-1.2229,0.2474,0.00015584,0.00010125,0.00422825,-0.01042901,-0.00520119,-0.00857914,-0.2321,0.1176,-9.8668,-0.000521,-0.003631,0.005443,-22.8773,40.7835,1.3456,-33.9004,0.0280,56,0,0,0.000164,-0.000122,-0.027988,0.007355,-0.009473,0.001024,-6.2392,-4.2043,0.1251
14402,3.0,0.000277,0.000211,-0.028195,-0.000028,0.003796,-0.001611,-0.7329,-1.2253,0.1888,0.00008255,0.00010252,0.00423095,-0.01060278,-0.00018916,-0.00938307,-0.2269,0.1207,-9.8587,-0.000203,-0.006614,0.005369,-22.8773,40.7835,1.3456,-33.9004,0.0280,56,0,0,0.000139,-0.000088,-0.027989,0.002623,-0.003578,0.000784,-6.7032,-4.4905,0.1523
14404,2.0,0.000277,0.000214,-0.028199,-0.000014,0.002131,-0.001684,-0.7215,-1.2259,0.1597,0.00004653,0.00010186,0.00423229,-0.01066330,0.00226384,-0.00934621,-0.2324,0.1287,-9.8520,-0.000079,-0.004524,0.005340,-22.8773,40.7835,1.3456,-33.9004,0.0280,56,0,0,0.000146,-0.000098,-0.027983,0.004260,-0.006578,0.001093,-6.5037,-4.3792,0.1415
14406,2.0,0.000277,0.000215,-0.028202,-0.000009,0.001235,-0.001721,-0.7165,-1.2268,0.1435,0.00002940,0.00010318,0.00423304,-0.01071696,0.00365354,-0.00932583,-0.2250,0.1332,-9.8346,-0.000031,-0.001109,0.002727,-22.8773,40.7835,1.3456,-33.9004,0.0280,55,0,0,0.000157,-0.000116,-0.027977,0.005879,-0.009501,0.001433,-6.3122,-4.2716,0.1309
14409,3.0,0.000277,0.000218,-0.028168,-0.000008,0.000638,-0.001291,-0.7127,-1.2271,0.1337,0.00001680,0.00010280,0.00423350,-0.01076411,0.00449714,-0.01009705,-0.2272,0.1178,-9.8396,-0.000012,-0.001732,0.003012,-22.8773,40.7835,1.3456,-33.9004,0.0280,55,0,0,0.000173,-0.000141,-0.027969,0.007461,-0.012409,0.001756,-6.1242,-4.1665,0.1210
14412,3.0,0.000277,0.000219,-0.028172,0.000005,0.000306,-0.001363,-0.7097,-1.2277,0.1295,0.00000721,0.00010288,0.00423373,-0.01079508,0.00489223,-0.01009113,-0.2221,0.1187,-9.8413,-0.000005,-0.002625,0.004423,-22.8773,40.7835,1.3456,-33.9004,0.0280,55,0,0,0.000148,-0.000098,-0.027970,0.002637,-0.004440,0.001493,-6.5836,-4.4328,0.1467
14414,2.0,0.000277,0.000219,-0.028175,0.000014,0.000154,-0.001425,-0.7086,-1.2281,0.1270,0.00000317,0.00010260,0.00423387,-0.01081518,0.00515218,-0.01008731,-0.2234,0.1402,-9.8476,-0.000652,-0.004272,0.007573,-22.1999,40.7971,1.7585,-33.9004,0.0280,55,0,0,0.000155,-0.000111,-0.027962,0.004218,-0.007264,0.001800,-6.4233,-4.3429,0.1385
14416,2.0,0.000277,0.000219,-0.028145,0.000027,0.000094,-0.001076,-0.7101,-1.2283,0.1244,0.00000695,0.00010164,0.00423397,-0.01082572,0.00540438,-0.01077888,-0.2189,0.1428,-9.8563,0.000397,-0.004263,0.005547,-22.1999,40.7971,1.7585,-33.9004,0.0280,47,0,0,0.000166,-0.000130,-0.027952,0.005784,-0.010033,0.002075,-6.2693,-4.2564,0.1305
14419,3.0,0.000277,0.000219,-0.028148,0.000019,0.000056,-0.001201,-0.7096,-1.2289,0.1230,0.00000511,0.00010142,0.00423403,-0.01084028,0.00551898,-0.01077710,-0.2280,0.1411,-9.8591,0.000154,-0.003609,0.003458,-22.1999,40.7971,1.7585,-33.9004,0.0280,47,0,0,0.000182,-0.000158,-0.027942,0.007292,-0.012746,0.002318,-6.1298,-4.1785,0.1233
14422,3.0,0.000277,0.000219,-0.028152,-0.000002,0.000013,-0.001296,-0.7108,-1.2304,0.1214,0.00000744,0.00010485,0.00423410,-0.01091567,0.00570139,-0.01077325,-0.2309,0.1380,-9.8491,-0.001241,-0.001404,0.003946,-22.1999,40.7971,1.7585,-33.9004,0.0280,47,0,0,0.000156,-0.000113,-0.027945,0.002583,-0.004583,0.002020,-6.5311,-4.4079,0.1455
14424,2.0,0.000277,0.000219,-0.028125,-0.000012,-0.000051,-0.000972,-0.7106,-1.2305,0.1201,0.00000532,0.00010490,0.00423418,-0.01092709,0.00583759,-0.01140883,-0.2263,0.1405,-9.8456,-0.003734,-0.000546,0.006087,-22.1999,40.7971,1.7585,-33.8634,0.0280,47,0,0,0.000164,-0.000126,-0.027934,0.004103,-0.007307,0.002324,-6.3989,-4.3332,0.1386
14426,2.0,0.000242,0.000218,-0.028127,-0.012386,-0.000102,-0.001008,-0.7096,-1.3049,-0.0118,0.00000808,0.00040228,0.00424099,0.00689539,0.00583087,-0.01180371,-0.2321,0.1377,-9.8373,-0.002753,-0.001513,0.005619,-22.1999,40.7971,1.7585,-33.8634,0.0280,63,-1,0,0.000175,-0.000146,-0.027922,0.005580,-0.009988,0.002632,-6.2754,-4.2640,0.1323
14429,3.0,0.000196,0.000218,-0.028130,-0.015706,-0.000068,-0.001091,-0.7091,-1.3249,-0.0448,0.00000858,0.00048221,0.00424274,0.01164181,0.00576615,-0.01191490,-0.2248,0.1330,-9.8464,-0.000421,-0.002539,0.004136,-22.1999,40.7971,1.7585,-33.8634,0.0280,63,-1,0,0.000190,-0.000173,-0.027910,0.007059,-0.012653,0.002921,-6.1491,-4.1934,0.1258
14432,3.0,0.000143,0.000218,-0.028289,-0.017851,-0.000064,-0.003202,-0.7085,-1.3386,-0.0635,0.00000773,0.00053620,0.00424380,0.01474134,0.00566072,-0.00852366,-0.2207,0.1240,-9.8525,-0.000164,-0.004239,0.005511,-22.1999,40.7971,1.7585,-33.8634,0.0290,63,-1,0,0.000132,-0.000129,-0.028317,-0.001649,-0.004574,-0.001052,-6.5273,-4.4628,0.1493
14434,2.0,0.000092,0.000218,-0.028295,-0.023286,-0.000068,-0.003287,-0.7077,-1.3704,-0.1128,0.00000766,0.00067088,0.00424656,0.02252061,0.00561169,-0.00871453,-0.2174,0.1263,-9.8591,-0.001364,-0.002949,0.004094,-22.1999,40.7971,1.7585,-33.8634,0.0290,63,-1,0,0.000129,-0.000142,-0.028315,-0.000118,-0.007286,-0.000790,-6.3980,-4.3901,0.1423
14436,2.0,0.000073,0.000218,-0.028302,-0.013456,-0.000010,-0.003362,-0.7127,-1.3157,-0.0121,0.00001794,0.00042892,0.00424100,0.00837935,0.00586485,-0.00835643,-0.2187,0.1519,-9.8491,0.000770,-0.002448,0.004194,-22.1999,40.7971,1.7585,-33.8634,0.0290,61,0,0,0.000130,-0.000162,-0.028314,0.001375,-0.009873,-0.000540,-6.2880,-4.3278,0.1365
14439,3.0,0.000050,0.000218,-0.028433,-0.007210,-0.000034,-0.005043,-0.7139,-1.2807,0.0534,0.00001632,0.00027064,0.00423741,-0.00046002,0.00599471,-0.00537301,-0.2184,0.1430,-9.8498,-0.001651,-0.002903,0.004883,-22.1999,40.7971,1.7585,-33.8634,0.0290,61,0,0,0.000134,-0.000189,-0.028311,0.002852,-0.012451,-0.000293,-6.1780,-4.2656,0.1309
14442,3.0,0.000038,0.000217,-0.028448,-0.003788,-0.000090,-0.005173,-0.7158,-1.2631,0.0876,0.00001809,0.00018621,0.00423549,-0.00540779,0.00621841,-0.00525103,-0.2277,0.1381,-9.8544,-0.003243,-0.003080,0.005151,-22.1999,40.7971,1.7585,-33.8634,0.0290,61,0,0,0.000121,-0.000144,-0.028316,0.001256,-0.004640,-0.000464,-6.4262,-4.3714,0.1435
14444,2.0,0.000035,0.000217,-0.028459,-0.002159,-0.000087,-0.005249,-0.7163,-1.2541,0.1041,0.00001803,0.00014289,0.00423454,-0.00778031,0.00623979,-0.00519459,-0.2455,0.1311,-9.8496,-0.001262,-0.002499,0.003954,-22.1999,40.7971,1.7585,-33.8634,0.0290,61,0,0,0.000125,-0.000157,-0.028313,0.002633,-0.007207,-0.000224,-6.3330,-4.3200,0.1386
14446,2.0,0.000069,0.000217,-0.028561,0.011547,-0.000081,-0.006513,-0.7181,-1.1810,0.2315,0.00001604,-0.00020707,0.00422703,-0.02730099,0.00632473,-0.00260361,-0.2365,0.1240,-9.8417,-0.001791,-0.002923,0.003489,-22.1999,40.7971,1.7585,-33.8634,0.0290,55,1,0,0.000133,-0.000178,-0.028309,0.004017,-0.009766,0.000044,-6.2352,-4.2659,0.1334
14449,3.0,0.000114,0.000217,-0.028581,0.015574,-0.000076,-0.006625,-0.7191,-1.1594,0.2677,0.00001590,-0.00031360,0.00422484,-0.03299419,0.00637291,-0.00247854,-0.2336,0.1295,-9.8467,-0.002648,-0.003088,0.003958,-22.1999,40.7971,1.7585,-33.8634,0.0290,55,1,0,0.000144,-0.000204,-0.028304,0.005392,-0.012279,0.000291,-6.1413,-4.2138,0.1286
14452,3.0,0.000167,0.000217,-0.028601,0.017804,-0.000008,-0.006734,-0.7194,-1.1477,0.2880,0.00001645,-0.00037316,0.00422358,-0.03611250,0.00627453,-0.00241456,-0.2299,0.1263,-9.8464,0.000271,-0.002502,0.002840,-22.1999,40.7971,1.7585,-33.8634,0.0290,55,1,0,0.000157,-0.000158,-0.028308,0.006242,-0.004486,0.000195,-6.3345,-4.2611,0.1368
14454,2.0,0.000219,0.000217,-0.028682,0.023263,0.000051,-0.007694,-0.7204,-1.1183,0.3331,0.00001804,-0.00052011,0.00422070,-0.04374411,0.00622348,-0.00067293,-0.2352,0.1181,-9.8493,0.000105,-0.000323,0.004356,-22.1999,40.7971,1.7585,-33.8634,0.0290,55,1,0,0.000173,-0.000171,-0.028302,0.007578,-0.006987,0.000450,-6.2421,-4.2103,0.1321
14456,2.0,0.000238,0.000178,-0.028698,0.013531,-0.013733,-0.007793,-0.6442,-1.1723,0.0665,-0.00035339,-0.00025455,0.00423797,-0.03015245,0.02523878,-0.00069547,-0.2392,0.1262,-9.8563,0.001341,-0.000776,0.003645,-22.1999,40.7971,1.7585,-33.8634,0.0290,55,0,-1,0.000193,-0.000191,-0.028295,0.008885,-0.009435,0.000669,-6.1573,-4.1638,0.1277
14459,3.0,0.000261,0.000127,-0.028721,0.007291,-0.017458,-0.007965,-0.6233,-1.2060,-0.0220,-0.00045374,-0.00008259,0.00424403,-0.02143562,0.03025720,-0.00081075,-0.2277,0.1192,-9.8654,0.001822,-0.002253,0.003369,-22.1999,40.7971,1.7585,-33.8634,0.0290,55,0,-1,0.000217,-0.000217,-0.028287,0.010212,-0.011883,0.000878,-6.0665,-4.1141,0.1231
14462,3.0,0.000274,0.000069,-0.028790,0.003843,-0.019553,-0.008702,-0.6099,-1.2243,-0.0661,-0.00051778,0.00001130,0.00424723,-0.01657370,0.03291525,0.00017371,-0.2245,0.1184,-9.8600,0.000059,-0.003477,0.002611,-22.1999,40.7971,1.7585,-33.8634,0.0290,55,0,-1,0.000181,-0.000208,-0.028289,0.003560,-0.008892,0.000781,-6.1723,-4.2322,0.1310
14465,3.0,0.000276,0.000015,-0.028816,0.002324,-0.020948,-0.008824,0.1330,-0.8082,0.8204,-0.00342067,-0.00156223,0.00421404,0.01019683,-0.00670405,-0.00087772,-0.2216,0.1137,-9.8464,-0.003879,-0.002653,0.003617,-22.1999,40.7971,1.7585,-33.8634,0.0290,55,0,-1,0.000191,-0.000232,-0.028280,0.004878,-0.011286,0.001052,-6.0821,-4.1820,0.1264
14467,2.0,0.000315,0.000000,-0.028834,0.013997,-0.011443,-0.008906,0.0947,-0.7448,0.8247,-0.00319176,-0.00190901,0.00420904,-0.00616884,-0.01990606,-0.00063731,-0.2137,0.1090,-9.8473,-0.001509,-0.001682,0.005308,-22.1999,40.7971,1.7585,-33.8634,0.0280,58,1,0,0.000204,-0.000262,-0.028030,0.006204,-0.013669,0.003454,-5.9854,-4.1280,0.1217
14469,2.0,0.000362,-0.000008,-0.028700,0.020370,-0.006229,-0.007010,0.0744,-0.7094,0.8273,-0.00306850,-0.00210558,0.00420624,-0.01525476,-0.02684508,-0.00412771,-0.2177,0.1095,-9.8562,-0.000587,-0.003255,0.005966,-22.1999,40.7971,1.7585,-33.8634,0.0280,58,1,0,0.000221,-0.000298,-0.028017,0.007498,-0.016012,0.003669,-5.8970,-4.0790,0.1177
14472,3.0,0.000422,-0.000018,-0.028722,0.019848,-0.002922,-0.007128,0.0695,-0.7061,0.8277,-0.00301739,-0.00211496,0.00420542,-0.01468053,-0.03134518,-0.00411990,-0.2252,0.1098,-9.8495,-0.000228,-0.002567,0.004922,-22.1999,40.7971,1.7585,-33.8634,0.0280,58,1,0,0.000226,-0.000242,-0.028014,0.006718,-0.005616,0.003513,-6.1145,-4.1469,0.1276
14474,2.0,0.000473,-0.000020,-0.028736,0.023825,-0.001261,-0.007198,0.0597,-0.6873,0.8290,-0.00296598,-0.00222830,0.00420409,-0.02057179,-0.03292385,-0.00404906,-0.2262,0.1131,-9.8490,-0.000739,-0.002299,0.005166,-22.1999,40.7971,1.7585,-33.8634,0.0280,58,1,0,0.000233,-0.000226,-0.027859,0.008596,-0.010066,0.008039,-3.2519,-3.1770,0.9295
14476,2.0,0.000458,-0.000021,-0.028619,0.001385,-0.000760,-0.005570,0.0991,-0.7728,0.8240,-0.00310608,-0.00166851,0.00420902,0.01149091,-0.03605840,-0.00752691,-0.2310,0.1150,-9.8519,-0.004189,-0.001545,0.006561,-22.1999,40.7971,1.7585,-33.8634,0.0280,58,-1,0,0.000256,-0.000252,-0.027837,0.009251,-0.010631,0.008069,-3.2273,-3.1607,0.9313
14479,3.0,0.000436,-0.000023,-0.028636,-0.008474,-0.000253,-0.005675,0.1170,-0.8093,0.8216,-0.00317162,-0.00142706,0.00421125,0.02519958,-0.03731868,-0.00766829,-0.2295,0.1202,-9.8461,-0.002280,-0.001901,0.003202,-22.1999,40.7971,1.7585,-33.8634,0.0280,58,-1,0,0.000279,-0.000279,-0.027815,0.009902,-0.011174,0.008112,-3.2034,-3.1448,0.9326
14482,3.0,0.000396,-0.000023,-0.028654,-0.013919,0.000049,-0.005801,0.1257,-0.8321,0.8201,-0.00319610,-0.00127789,0.00421258,0.03229345,-0.03760580,-0.00774633,-0.2360,0.1190,-9.8555,-0.000887,-0.002040,0.003196,-22.1999,40.7971,1.7585,-33.8634,0.0280,58,-1,0,0.000215,-0.000244,-0.027804,-0.000769,-0.003641,0.007831,-3.3313,-3.2839,0.9337
14484,2.0,0.000349,-0.000024,-0.028547,-0.020732,0.000120,-0.004309,0.1385,-0.8580,0.8184,-0.00324513,-0.00110546,0.00421435,0.04158699,-0.03794021,-0.01070217,-0.2375,0.1383,-9.8481,0.000956,-0.005345,0.003194,-22.1999,40.7971,1.7585,-33.8634,0.0280,58,-1,0,0.000213,-0.000253,-0.027783,-0.000121,-0.004151,0.007865,-3.3099,-3.2701,0.9351
14486,2.0,0.000297,-0.000024,-0.028555,-0.024468,0.000174,-0.004386,0.1426,-0.8736,0.8172,-0.00325042,-0.00099922,0.00421540,0.04649324,-0.03768775,-0.01076432,-0.2258,0.1554,-9.8556,-0.000279,-0.005331,0.001242,-22.1999,40.7971,1.7585,-33.8634,0.0280,66,-1,0,0.000214,-0.000264,-0.027762,0.000552,-0.004612,0.007878,-3.2894,-3.2562,0.9363
14489,3.0,0.000230,-0.000023,-0.028569,-0.022358,0.000361,-0.004486,0.1903,-0.8446,0.8163,-0.00366289,-0.00126573,0.00421974,0.04361064,-0.03868697,-0.01075779,-0.2244,0.1513,-9.8513,0.000542,-0.003374,0.001784,-22.1999,40.7971,1.7585,-33.8634,0.0280,66,-1,0,0.000216,-0.000276,-0.027740,0.001223,-0.005076,0.007903,-3.2686,-3.2418,0.9375
14492,3.0,0.000167,-0.000023,-0.028476,-0.021196,0.000420,-0.003211,0.1873,-0.8412,0.8161,-0.00364833,-0.00129377,0.00421976,0.04132129,-0.03752180,-0.01323640,-0.2174,0.1395,-9.8553,-0.001740,-0.002613,0.001994,-22.1999,40.7971,1.7585,-33.8634,0.0280,66,-1,0,0.000177,-0.000259,-0.027726,-0.003437,-0.001783,0.007765,-3.3131,-3.2951,0.9386
14494,2.0,0.000114,-0.000023,-0.028483,-0.024847,0.000287,-0.003296,0.1944,-0.8548,0.8151,-0.00368273,-0.00119842,0.00422020,0.04612742,-0.03714139,-0.01330487,-0.2145,0.1361,-9.8628,-0.003278,-0.002317,0.002076,-22.1999,40.7971,1.7585,-33.8634,0.0280,66,-1,0,0.000169,-0.000264,-0.027704,-0.002744,-0.002275,0.007772,-3.2900,-3.2785,0.9399
14497,3.0,0.000073,-0.000023,-0.028493,-0.013436,0.000477,-0.003414,0.1724,-0.8145,0.8173,-0.00359046,-0.00149917,0.00421916,0.02936737,-0.03490073,-0.01308886,-0.2181,0.1321,-9.8638,-0.003876,-0.001552,0.004059,-22.1999,40.7971,1.7585,-33.8634,0.0290,70,0,0,0.000163,-0.000270,-0.028238,-0.002067,-0.002765,0.002765,-3.2719,-3.2647,0.9415
14499,2.0,0.000062,-0.000023,-0.028588,-0.007755,0.000531,-0.004659,0.1624,-0.7936,0.8187,-0.00355385,-0.00165724,0.00421864,0.02104132,-0.03362977,-0.01089807,-0.2212,0.1267,-9.8675,-0.001508,-0.001254,0.006781,-22.1999,40.7971,1.7585,-33.8634,0.0290,70,0,0,0.000158,-0.000277,-0.028230,-0.001400,-0.003268,0.002733,-3.2491,-3.2487,0.9434
14502,3.0,0.000049,-0.000022,-0.028602,-0.004307,0.000628,-0.004759,0.1547,-0.7811,0.8196,-0.00351635,-0.00174923,0.00421837,0.01571422,-0.03229867,-0.01083692,-0.2166,0.1384,-9.8538,-0.002537,-0.001138,0.005889,-22.1999,40.7971,1.7585,-33.8634,0.0290,70,0,0,0.000160,-0.000265,-0.028223,-0.000228,-0.001169,0.002684,-3.2607,-3.2327,0.9473
14504,2.0,0.000046,-0.000021,-0.028611,-0.002564,0.000599,-0.004784,0.1520,-0.7750,0.8202,-0.00351039,-0.00180080,0.00421825,0.01290722,-0.03140399,-0.01080733,-0.2298,0.1344,-9.8324,-0.001637,-0.004344,0.006192,-22.1999,40.7971,1.7585,-33.8422,0.0290,70,0,0,0.000160,-0.000269,-0.028215,0.000385,-0.001618,0.002731,-3.2407,-3.2192,0.9492
14506,2.0,0.000044,-0.000021,-0.028687,-0.001614,0.000560,-0.005674,0.1493,-0.7734,0.8203,-0.00349143,-0.00181577,0.00421821,0.01118342,-0.03062239,-0.00923774,-0.2309,0.1280,-9.8320,-0.003238,-0.002990,0.004359,-22.1999,40.7971,1.7585,-33.8422,0.0290,70,0,0,0.000161,-0.000273,-0.028207,0.000991,-0.002077,0.002781,-3.2207,-3.2054,0.9508
14509,3.0,0.000041,-0.000020,-0.028704,-0.001052,0.000616,-0.005726,0.1486,-0.7710,0.8201,-0.00349499,-0.00183785,0.00421825,0.00986869,-0.02974875,-0.00922695,-0.2347,0.1286,-9.8350,-0.002560,-0.001813,0.002346,-22.1999,40.7971,1.7585,-33.8422,0.0290,70,0,0,0.000164,-0.000279,-0.028199,0.001583,-0.002526,0.002821,-3.2014,-3.1922,0.9521
14512,3.0,0.000040,-0.000019,-0.028721,-0.000735,0.000608,-0.005767,0.1473,-0.7719,0.8197,-0.00348144,-0.00183319,0.00421830,0.00879638,-0.02887299,-0.00921855,-0.2347,0.1173,-9.8314,-0.002947,-0.001356,0.001563,-22.1999,40.7971,1.7585,-33.8422,0.0290,70,0,0,0.000157,-0.000269,-0.028193,0.000675,-0.000954,0.002817,-3.2104,-3.1979,0.9538
14514,2.0,0.000039,-0.000017,-0.028780,-0.000476,0.000524,-0.006464,0.4515,-0.6344,0.5407,-0.00710025,-0.00381207,0.00741945,0.00955896,-0.03555481,-0.00820351,-0.2326,0.1194,-9.8430,-0.001796,-0.003128,0.002559,-22.8794,41.1561,1.3095,-33.8422,0.0290,70,0,0,0.000159,-0.000272,-0.028184,0.001256,-0.001404,0.002840,-3.1904,-3.1846,0.9552
14516,2.0,0.000040,-0.000056,-0.028792,-0.000305,-0.013020,-0.006494,0.4685,-0.6592,0.5389,-0.00732897,-0.00369057,0.00742321,0.00762808,-0.01414333,-0.00836082,-0.2367,0.1196,-9.8454,0.001252,-0.001867,0.004897,-22.8794,41.1561,1.3095,-33.8422,0.0290,62,0,-1,0.000163,-0.000276,-0.028176,0.001821,-0.001846,0.002854,-3.1708,-3.1717,0.9568
14519,3.0,0.000039,-0.000106,-0.028811,-0.000257,-0.016590,-0.006537,0.4743,-0.6649,0.5383,-0.00740166,-0.00366620,0.00742438,0.00667674,-0.00770402,-0.00841964,-0.2242,0.1186,-9.8351,-0.000814,-0.002027,0.005806,-22.8794,41.1561,1.3095,-33.8422,0.0290,62,0,-1,0.000168,-0.000281,-0.028167,0.002414,-0.002283,0.002899,-3.1500,-3.1576,0.9586
14522,3.0,0.000039,-0.000162,-0.028860,-0.000197,-0.018597,-0.006962,0.4765,-0.6687,0.5378,-0.00742726,-0.00364667,0.00742515,0.00591576,-0.00365765,-0.00777147,-0.2162,0.1170,-9.8314,-0.000967,-0.004040,0.005510,-22.8794,41.1561,1.3095,-33.8422,0.0290,62,0,-1,0.000159,-0.000308,-0.028155,0.001042,-0.005330,0.002989,-3.1006,-3.1586,0.9577
14524,2.0,0.000040,-0.000217,-0.028874,-0.000109,-0.024344,-0.006997,0.4849,-0.6783,0.5369,-0.00754053,-0.00360564,0.00742704,0.00486567,0.00567482,-0.00787230,-0.2401,0.1161,-9.8410,0.000274,-0.005473,0.004744,-22.8794,41.1561,1.3095,-33.8422,0.0290,62,0,-1,0.000162,-0.000322,-0.028146,0.001570,-0.005731,0.003012,-3.0824,-3.1471,0.9594
14527,3.0,0.000039,-0.000257,-0.028896,-0.000239,-0.012483,-0.007083,0.4701,-0.6609,0.5377,-0.00730201,-0.00368483,0.00742320,0.00541064,-0.01126359,-0.00766680,-0.2420,0.1272,-9.8379,0.001407,-0.004730,0.005747,-22.8794,41.1561,1.3095,-33.8422,0.0290,66,0,0,0.000166,-0.000336,-0.028137,0.002087,-0.006096,0.003039,-3.0655,-3.1362,0.9613
14529,2.0,0.000039,-0.000266,-0.028926,-0.000270,-0.006758,-0.007346,0.4631,-0.6510,0.5379,-0.00719560,-0.00373442,0.00742136,0.00559938,-0.01921220,-0.00722232,-0.2303,0.1186,-9.8435,-0.002704,-0.001840,0.004186,-22.8794,41.1561,1.3095,-33.8422,0.0290,66,0,0,0.000172,-0.000352,-0.028128,0.002633,-0.006479,0.003058,-3.0473,-3.1235,0.9630
14532,3.0,0.000039,-0.000277,-0.028949,-0.000336,-0.003138,-0.007457,0.4576,-0.6459,0.5377,-0.00710558,-0.00375128,0.00742027,0.00542575,-0.02358207,-0.00716720,-0.2281,0.1233,-9.8520,-0.001702,-0.002016,0.004229,-22.8794,41.1561,1.3095,-33.8422,0.0280,66,0,0,0.000162,-0.000330,-0.028029,0.000997,-0.002115,0.003822,-3.0877,-3.1390,0.9664
14534,2.0,0.000038,-0.000279,-0.028964,-0.000340,-0.001385,-0.007531,0.4561,-0.6426,0.5375,-0.00707676,-0.00376983,0.00741975,0.00517102,-0.02549397,-0.00714167,-0.2415,0.1249,-9.8525,-0.000012,-0.001435,0.003596,-22.8794,41.1561,1.3095,-33.8422,0.0280,66,0,0,0.000165,-0.000336,-0.028019,0.001501,-0.002469,0.003808,-3.0712,-3.1279,0.9680
14536,2.0,0.000038,-0.000280,-0.028807,-0.000364,-0.000390,-0.005390,0.4541,-0.6430,0.5371,-0.00703340,-0.00375641,0.00741944,0.00468599,-0.02623902,-0.01099417,-0.2501,0.1311,-9.8643,-0.000005,-0.000558,0.004000,-22.8794,41.1561,1.3095,-33.8422,0.0280,70,0,0,0.000169,-0.000342,-0.028008,0.001981,-0.002801,0.003762,-3.0562,-3.1177,0.9696
14539,3.0,0.000038,-0.000280,-0.028823,-0.000391,0.000231,-0.005535,0.5884,-0.5703,0.4139,-0.00892581,-0.00485143,0.00919141,0.00460172,-0.02792096,-0.01099783,-0.2476,0.1219,-9.8626,-0.002603,-0.002168,0.002856,-22.8794,41.1561,1.3095,-33.8422,0.0280,70,0,0,0.000175,-0.000350,-0.027998,0.002463,-0.003152,0.003722,-3.0407,-3.1074,0.9711
14541,2.0,0.000037,-0.000280,-0.028834,-0.000388,0.000532,-0.005627,0.5873,-0.5699,0.4132,-0.00890614,-0.00484734,0.00919147,0.00419312,-0.02754581,-0.01099859,-0.2335,0.1304,-9.8679,-0.004264,-0.000843,0.002412,-22.8794,41.1561,1.3095,-33.8422,0.0280,70,0,0,0.000165,-0.000339,-0.027990,0.000922,-0.001135,0.003622,-3.0547,-3.1188,0.9729
14544,3.0,0.000037,-0.000279,-0.028700,-0.000424,0.000823,-0.003770,0.5882,-0.5690,0.4121,-0.00891205,-0.00485406,0.00919159,0.00358184,-0.02675398,-0.01436397,-0.2288,0.1342,-9.8582,-0.003609,-0.002279,0.002889,-22.8794,41.1561,1.3095,-33.8422,0.0280,70,0,0,0.000168,-0.000342,-0.027980,0.001438,-0.001437,0.003595,-3.0390,-3.1074,0.9744
14546,2.0,0.000036,-0.000199,-0.028710,-0.000570,0.028106,-0.003851,0.5537,-0.5248,0.4139,-0.00837411,-0.00508972,0.00918417,0.00579480,-0.06634900,-0.01384397,-0.2282,0.1152,-9.8433,-0.001404,-0.002187,0.002424,-22.8794,41.1561,1.3095,-33.8422,0.0280,60,0,2,0.000172,-0.000346,-0.027970,0.001951,-0.001779,0.003609,-3.0214,-3.0953,0.9758
14549,3.0,0.000034,-0.000096,-0.028722,-0.000696,0.035237,-0.003934,0.5463,-0.5123,0.4136,-0.00824796,-0.00515736,0.00918232,0.00590537,-0.07555229,-0.01372117,-0.2363,0.1256,-9.8487,-0.001196,0.001100,0.003544,-22.8794,41.1561,1.3095,-33.8422,0.0280,60,0,2,0.000177,-0.000351,-0.027960,0.002438,-0.002088,0.003604,-3.0057,-3.0841,0.9773
14552,3.0,0.000032,0.000020,-0.028602,-0.000736,0.039126,-0.002259,0.5398,-0.5045,0.4136,-0.00814510,-0.00518774,0.00918153,0.00570605,-0.07982439,-0.01654476,-0.2209,0.1283,-9.8338,-0.001116,0.001078,0.006581,-22.8794,41.1561,1.3095,-33.8422,0.0280,60,0,2,0.000166,-0.000272,-0.027960,0.000762,0.007997,0.003479,-3.1043,-3.1045,0.9844
14554,2.0,0.000031,0.000130,-0.028608,-0.000779,0.050007,-0.002305,0.5264,-0.4866,0.4140,-0.00793238,-0.00528695,0.00917824,0.00627761,-0.09486167,-0.01635568,-0.2270,0.1288,-9.8433,-0.002385,-0.000881,0.004511,-22.8794,41.1561,1.3095,-33.8422,0.0280,60,0,2,0.000169,-0.000252,-0.027950,0.001265,0.007694,0.003490,-3.0880,-3.0929,0.9861
14556,2.0,0.000031,0.000169,-0.028610,-0.000631,0.029399,-0.002321,0.5511,-0.5176,0.4118,-0.00832615,-0.00510668,0.00918537,0.00394978,-0.06368826,-0.01673327,-0.2188,0.1206,-9.8497,-0.003529,-0.001643,0.005006,-22.8794,41.1561,1.3095,-33.8422,0.0280,71,0,0,0.000172,-0.000233,-0.027940,0.001786,0.007375,0.003489,-3.0705,-3.0803,0.9878
14559,3.0,0.000030,0.000219,-0.028507,-0.000565,0.016393,-0.000944,0.5705,-0.5372,0.4096,-0.00861781,-0.00500234,0.00919003,0.00205879,-0.04343844,-0.01933487,-0.2205,0.1244,-9.8449,-0.002023,-0.001940,0.003898,-22.8794,41.1561,1.3095,-33.8422,0.0280,71,0,0,0.000177,-0.000215,-0.027930,0.002297,0.007073,0.003499,-3.0535,-3.0683,0.9895
14562,3.0,0.000029,0.000246,-0.028509,-0.000509,0.009202,-0.000980,0.5789,-0.5477,0.4078,-0.00874464,-0.00493455,0.00919293,0.00081120,-0.03170537,-0.01947591,-0.2236,0.1297,-9.8454,-0.001437,-0.002055,0.002167,-22.8794,41.1561,1.3095,-33.8422,0.0280,71,0,0,0.000168,-0.000236,-0.027916,0.000883,0.002132,0.003554,-2.9917,-3.0691,0.9873
14565,3.0,0.000028,0.000261,-0.028512,-0.000447,0.005422,-0.001022,0.6468,-0.5180,0.3522,-0.00975939,-0.00544240,0.01005205,-0.00000309,-0.02547441,-0.01955156,-0.2180,0.1422,-9.8424,-0.000559,-0.000799,0.003444,-22.8794,41.1561,1.3095,-33.7894,0.0290,71,0,0,0.000171,-0.000231,-0.028371,0.001376,0.001918,-0.000717,-2.9793,-3.0594,0.9890
14567,2.0,0.000028,0.000265,-0.028600,-0.000404,0.003554,-0.002129,0.6475,-0.5193,0.3515,-0.00977318,-0.00542604,0.01005287,-0.00048181,-0.02185022,-0.01776514,-0.2190,0.1471,-9.8303,-0.002168,-0.000311,0.004591,-22.8794,41.1561,1.3095,-33.7894,0.0290,72,0,0,0.000175,-0.000226,-0.028372,0.001862,0.001720,-0.000701,-2.9652,-3.0485,0.9908
14569,2.0,0.000028,0.000268,-0.028604,-0.000404,0.002506,-0.002140,0.6497,-0.5205,0.3507,-0.00980130,-0.00541880,0.01005327,-0.00100678,-0.01949826,-0.01779387,-0.2333,0.1477,-9.8351,-0.004095,-0.001421,0.003737,-22.8794,41.1561,1.3095,-33.7894,0.0290,72,0,0,0.000180,-0.000222,-0.028373,0.002307,0.001529,-0.000699,-2.9527,-3.0391,0.9925
14572,3.0,0.000027,0.000273,-0.028610,-0.000447,0.001964,-0.002176,0.6506,-0.5221,0.3497,-0.00979716,-0.00540252,0.01005360,-0.00167436,-0.01753508,-0.01781686,-0.2381,0.1333,-9.8409,-0.000943,-0.003154,0.004705,-22.8794,41.1561,1.3095,-33.7894,0.0290,72,0,0,0.000171,-0.000225,-0.028374,0.000873,0.000435,-0.000713,-2.9329,-3.0453,0.9929
14574,2.0,0.000027,0.000275,-0.028682,-0.000408,0.001606,-0.003059,0.6523,-0.5221,0.3491,-0.00981156,-0.00540435,0.01005384,-0.00215851,-0.01624787,-0.01641983,-0.2335,0.1294,-9.8378,-0.000367,-0.002527,0.005081,-22.8794,41.1561,1.3095,-33.7894,0.0290,72,0,0,0.000253,-0.000362,-0.029193,-0.004642,0.010419,-0.012366,-18.2076,-11.5045,1.7637
14576,2.0,0.000027,0.000277,-0.028688,-0.000395,0.001372,-0.003076,0.6516,-0.5229,0.3484,-0.00979454,-0.00539119,0.01005406,-0.00260640,-0.01514416,-0.01643220,-0.2298,0.1252,-9.8361,-0.002744,-0.002284,0.004578,-22.8794,41.1561,1.3095,-33.7894,0.0290,59,0,0,0.000232,-0.000318,-0.028997,0.002947,-0.002420,-0.006423,-14.0738,-9.3559,1.1719
14579,3.0,0.000026,0.000280,-0.028697,-0.000421,0.001308,-0.003052,0.6533,-0.5225,0.3476,-0.00980849,-0.00539517,0.01005429,-0.00316824,-0.01390341,-0.01644566,-0.2235,0.1333,-9.8194,-0.003018,-0.002839,0.005032,-22.8794,41.1561,1.3095,-33.7894,0.0290,59,0,0,0.000237,-0.000319,-0.028863,0.008841,-0.012151,-0.002509,-11.4772,-7.9727,0.8802
14582,3.0,0.000025,0.000282,-0.028758,-0.000425,0.001253,-0.003732,0.6527,-0.5229,0.3467,-0.00978672,-0.00538473,0.01005458,-0.00373015,-0.01266945,-0.01539074,-0.2274,0.1295,-9.8332,-0.002474,-0.003705,0.005209,-22.8794,41.1561,1.3095,-33.7894,0.0290,59,0,0,0.000201,-0.000272,-0.028918,0.003612,-0.005435,-0.002659,-12.6589,-8.6136,1.0076
14584,2.0,0.000025,0.000284,-0.028765,-0.000405,0.001158,-0.003753,0.6538,-0.5225,0.3462,-0.00979742,-0.00538938,0.01005476,-0.00420320,-0.01173807,-0.01540025,-0.2422,0.1452,-9.8367,-0.002913,-0.002742,0.005277,-22.8794,41.1561,1.3095,-33.7894,0.0290,59,0,0,0.000208,-0.000282,-0.028845,0.007838,-0.012235,-0.000200,-11.4326,-7.9561,0.8785
14586,2.0,0.000025,0.000285,-0.028773,-0.000402,0.001138,-0.003775,0.6527,-0.5235,0.3456,-0.00976881,-0.00537173,0.01005490,-0.00465834,-0.01093905,-0.01540820,-0.2400,0.1361,-9.8376,-0.001783,-0.001717,0.005304,-22.8794,41.1561,1.3095,-33.7894,0.0290,67,0,0,0.000228,-0.000312,-0.028775,0.011733,-0.018448,0.001916,-10.3885,-7.3923,0.7797
14589,3.0,0.000024,0.000287,-0.028821,-0.000434,0.001158,-0.004294,0.6805,-0.5072,0.3233,-0.01018589,-0.00561356,0.01040629,-0.00513718,-0.01003238,-0.01465330,-0.2313,0.1205,-9.8381,-0.003295,-0.000668,0.005965,-22.8794,41.1561,1.3095,-33.7894,0.0290,67,0,0,0.000258,-0.000359,-0.028702,0.015378,-0.024212,0.003833,-9.4369,-6.8749,0.6987
14592,3.0,0.000023,0.000290,-0.028834,-0.000441,0.001176,-0.004377,0.6806,-0.5073,0.3223,-0.01017373,-0.00560689,0.01040646,-0.00573010,-0.00896792,-0.01466404,-0.2286,0.1202,-9.8531,-0.002582,-0.002211,0.004921,-22.8794,41.1561,1.3095,-33.7894,0.0290,67,0,0,0.000207,-0.000284,-0.028770,0.005319,-0.008558,0.002524,-11.1729,-7.8193,0.8560
14594,2.0,0.000023,0.000291,-0.028843,-0.000399,0.001151,-0.004440,0.6818,-0.5069,0.3218,-0.01018095,-0.00561163,0.01040659,-0.00620325,-0.00815639,-0.01467209,-0.2355,0.1389,-9.8573,-0.001004,-0.003461,0.005816,-22.8794,41.1561,1.3095,-33.7894,0.0290,67,0,0,0.000221,-0.000306,-0.028706,0.008856,-0.014102,0.004301,-10.4646,-7.4357,0.7899
14598,4.0,0.000022,0.000272,-0.028704,-0.000421,-0.006648,-0.002543,0.6927,-0.5193,0.3200,-0.01032357,-0.00551732,0.01040924,-0.00769019,0.00425711,-0.01797597,-0.2341,0.1284,-9.8523,0.000910,-0.003297,0.005514,-22.8794,41.1561,1.3095,-33.7894,0.0280,65,0,-1,0.000244,-0.000342,-0.028063,0.012226,-0.019369,0.011288,-9.7828,-7.0648,0.7306
14599,1.0,0.000023,0.000200,-0.028706,-0.000196,-0.028604,-0.002548,0.7203,-0.5525,0.3179,-0.01076851,-0.00528455,0.01041613,-0.00997606,0.03541183,-0.01840880,-0.2165,0.1288,-9.8495,-0.001597,-0.001282,0.003445,-22.8794,41.1561,1.3095,-33.7894,0.0280,65,0,-1,0.000277,-0.000393,-0.028004,0.015466,-0.024320,0.012652,-9.1573,-6.7224,0.6798
14602,3.0,0.000022,0.000124,-0.028713,-0.000229,-0.024603,-0.002624,0.7153,-0.5462,0.3168,-0.01066843,-0.00532056,0.01041507,-0.01006965,0.03078032,-0.01833887,-0.2171,0.1290,-9.8532,-0.001271,-0.001799,0.001990,-22.8794,41.1561,1.3095,-33.7894,0.0280,65,0,-1,0.000222,-0.000346,-0.027992,0.005544,-0.013131,0.012250,-10.0634,-7.2390,0.7577
14604,2.0,0.000023,0.000067,-0.028593,-0.000186,-0.027096,-0.001049,0.7200,-0.5493,0.3158,-0.01072693,-0.00529873,0.01041602,-0.01071156,0.03488543,-0.02089207,-0.2249,0.1260,-9.8458,0.000806,-0.001350,0.004026,-22.8794,41.1561,1.3095,-33.7894,0.0280,65,0,-1,0.000237,-0.000380,-0.027932,0.008626,-0.017846,0.013584,-9.5558,-6.9613,0.7150
14606,2.0,-0.000012,0.000045,-0.028596,-0.012515,-0.015386,-0.001060,0.7219,-0.5705,0.3142,-0.01057919,-0.00499035,0.01041357,0.00575432,0.01803603,-0.02078234,-0.2197,0.1285,-9.8322,-0.001637,-0.000525,0.002866,-22.8794,41.1561,1.3095,-33.7894,0.0280,59,-1,0,0.000260,-0.000426,-0.027869,0.011587,-0.022317,0.014851,-9.0897,-6.7048,0.6777
14609,3.0,-0.000059,0.000019,-0.028599,-0.015981,-0.007775,-0.001080,0.7186,-0.5692,0.3131,-0.01045849,-0.00495791,0.01041138,0.01019993,0.00812356,-0.02067238,-0.2337,0.1226,-9.8361,-0.001937,-0.001505,0.003066,-22.8794,41.1561,1.3095,-33.7894,0.0280,59,-1,0,0.000291,-0.000485,-0.027805,0.014371,-0.026549,0.015961,-8.6935,-6.4867,0.6478
14612,3.0,-0.000111,0.000007,-0.028496,-0.017885,-0.003517,0.000290,0.7157,-0.5700,0.3119,-0.01035976,-0.00491768,0.01041012,0.01228593,0.00305637,-0.02270770,-0.2299,0.1245,-9.8278,0.000547,-0.000585,0.003143,-22.8794,41.1561,1.3095,-33.7894,0.0280,59,-1,0,0.000208,-0.000398,-0.027803,0.001022,-0.009307,0.015100,-9.7946,-7.1096,0.7383
14614,2.0,-0.000161,0.000004,-0.028497,-0.022932,-0.001574,0.000243,0.9628,-0.4410,0.1641,-0.01409453,-0.00691434,0.01280440,0.01907643,-0.00029244,-0.02269399,-0.2299,0.1266,-9.8347,0.000213,-0.002829,0.003824,-22.5397,40.0791,0.8605,-33.7894,0.0280,59,-1,0,0.000212,-0.000423,-0.027737,0.003903,-0.013691,0.016324,-9.4210,-6.9045,0.7077
14616,2.0,-0.000179,0.000004,-0.028496,-0.013469,-0.000311,0.000205,0.9477,-0.4117,0.1646,-0.01394569,-0.00723293,0.01280226,0.00651532,-0.00037862,-0.02258920,-0.2373,0.1236,-9.8544,-0.000568,-0.003051,0.004088,-22.5397,40.0791,0.8605,-33.7894,0.0280,55,0,0,0.000224,-0.000460,-0.027669,0.006670,-0.017910,0.017400,-9.0873,-6.7209,0.6816
14619,3.0,-0.000202,0.000004,-0.028408,-0.007488,0.000610,0.001249,0.9403,-0.3909,0.1643,-0.01386715,-0.00745726,0.01280100,-0.00174351,0.00011418,-0.02422487,-0.2341,0.1219,-9.8570,0.001080,-0.003788,0.005492,-22.5397,40.0791,0.8605,-33.7894,0.0280,55,0,0,0.000243,-0.000508,-0.027598,0.009363,-0.021986,0.018419,-8.7693,-6.5456,0.6580
14622,3.0,-0.000214,0.000006,-0.028405,-0.004172,0.001081,0.001217,0.9354,-0.3801,0.1632,-0.01380045,-0.00756735,0.01280037,-0.00659574,0.00101816,-0.02421134,-0.2301,0.1315,-9.8479,-0.000230,-0.003424,0.003437,-22.5397,40.0791,0.8605,-33.7894,0.0280,55,0,0,0.000206,-0.000431,-0.027574,0.003594,-0.008079,0.018058,-9.3821,-6.8631,0.7058
14624,2.0,-0.000217,0.000007,-0.028402,-0.002518,0.001202,0.001184,0.9345,-0.3743,0.1624,-0.01378696,-0.00763037,0.01280012,-0.00911546,0.00182655,-0.02421181,-0.2258,0.1326,-9.8534,-0.000740,-0.003933,0.003938,-22.5397,40.0791,0.8605,-33.7894,0.0280,55,0,0,0.000217,-0.000454,-0.027500,0.006280,-0.012089,0.019118,-9.0874,-6.7003,0.6828
14626,2.0,-0.000219,0.000048,-0.028331,-0.001654,0.014544,0.002033,0.9166,-0.3529,0.1626,-0.01347941,-0.00779928,0.01279494,-0.00963750,-0.01559825,-0.02521238,-0.2318,0.1133,-9.8511,-0.000288,-0.004781,0.004133,-22.5397,40.0791,0.8605,-33.7894,0.0280,58,0,1,0.000234,-0.000487,-0.027423,0.008879,-0.016021,0.020152,-8.8019,-6.5427,0.6614
14630,4.0,-0.000224,0.000110,-0.028323,-0.001145,0.016380,0.001979,0.9174,-0.3474,0.1606,-0.01345233,-0.00784780,0.01279441,-0.01103773,-0.01639117,-0.02519028,-0.2310,0.1224,-9.8510,0.001189,-0.003811,0.002908,-22.5397,40.0791,0.8605,-33.7894,0.0290,58,0,1,0.000259,-0.000530,-0.027871,0.011394,-0.019777,0.016250,-8.5589,-6.4084,0.6438
14632,2.0,-0.000224,0.000165,-0.028319,-0.000842,0.024228,0.001927,0.9055,-0.3351,0.1604,-0.01324578,-0.00793508,0.01279142,-0.01120854,-0.02612971,-0.02500643,-0.2316,0.1371,-9.8614,-0.000188,-0.002783,0.005033,-22.5397,40.0791,0.8605,-33.7894,0.0290,58,0,1,0.000216,-0.000425,-0.027849,0.004140,-0.002840,0.015759,-9.2078,-6.7443,0.6936
14634,2.0,-0.000225,0.000225,-0.028434,-0.000696,0.028448,0.000386,0.9016,-0.3279,0.1598,-0.01316289,-0.00799239,0.01278983,-0.01148539,-0.03090195,-0.02266693,-0.2287,0.1505,-9.8504,-0.000723,-0.003033,0.003908,-22.5397,40.0791,0.8605,-33.7894,0.0290,58,0,1,0.000228,-0.000434,-0.027794,0.006685,-0.006581,0.016590,-8.9832,-6.6195,0.6764
14636,2.0,-0.000189,0.000248,-0.028432,0.012077,0.017197,0.000367,0.8962,-0.3036,0.1598,-0.01323030,-0.00831539,0.01279115,-0.02874359,-0.01357041,-0.02290907,-0.2272,0.1454,-9.8516,-0.004183,-0.001830,0.004121,-22.5397,40.0791,0.8605,-33.7894,0.0290,59,1,0,0.000247,-0.000454,-0.027736,0.009180,-0.010240,0.017395,-8.7640,-6.4970,0.6601
14639,3.0,-0.000142,0.000278,-0.028431,0.015629,0.009978,0.000291,1.0156,-0.2350,0.0919,-0.01508638,-0.00935913,0.01386699,-0.03410042,-0.00258691,-0.02307244,-0.2252,0.1426,-9.8554,-0.004878,-0.000712,0.004204,-22.5397,40.0791,0.8605,-33.7894,0.0290,59,1,0,0.000272,-0.000482,-0.027676,0.011627,-0.013811,0.018167,-8.5513,-6.3776,0.6448
14642,3.0,-0.000089,0.000295,-0.028530,0.017592,0.006060,-0.001055,1.0169,-0.2328,0.0902,-0.01511523,-0.00938203,0.01386827,-0.03732290,0.00425872,-0.02133202,-0.2178,0.1378,-9.8639,-0.002548,-0.002878,0.003586,-22.5397,40.0791,0.8605,-33.7894,0.0290,59,1,0,0.000261,-0.000429,-0.027634,0.008498,-0.005622,0.018242,-8.7695,-6.4853,0.6612
14644,2.0,-0.000038,0.000300,-0.028532,0.022975,0.004107,-0.001088,1.0129,-0.2185,0.0897,-0.01509319,-0.00955004,0.01386795,-0.04458627,0.00821096,-0.02138972,-0.2210,0.1446,-9.8539,-0.001641,-0.001770,0.003996,-22.5397,40.0791,0.8605,-33.7313,0.0290,59,1,0,0.000284,-0.000446,-0.027570,0.010870,-0.009047,0.019013,-8.5707,-6.3738,0.6469
14646,2.0,-0.000020,0.000264,-0.028533,0.013146,-0.010743,-0.001086,1.0448,-0.2698,0.0861,-0.01548998,-0.00900556,0.01387492,-0.03388891,0.02819556,-0.02181514,-0.2313,0.1263,-9.8356,-0.001289,-0.001989,0.004155,-22.5397,40.0791,0.8605,-33.7313,0.0290,53,0,-1,0.000313,-0.000471,-0.027504,0.013161,-0.012423,0.019806,-8.3789,-6.2665,0.6334
14649,3.0,0.000003,0.000219,-0.028616,0.006840,-0.015103,-0.002119,1.0621,-0.2942,0.0831,-0.01566984,-0.00872920,0.01387781,-0.02701406,0.03465934,-0.02048930,-0.2275,0.1224,-9.8402,-0.002452,-0.001424,0.003567,-22.5397,40.0791,0.8605,-33.7313,0.0290,53,0,-1,0.000348,-0.000505,-0.027436,0.015417,-0.015729,0.020575,-8.1890,-6.1599,0.6204
