timestamp_ms,dt_ms,pos_x,pos_y,pos_z,vel_x,vel_y,vel_z,roll_deg,pitch_deg,yaw_deg,gyro_bias_x,gyro_bias_y,gyro_bias_z,accel_bias_x,accel_bias_y,accel_bias_z,raw_accel_x,raw_accel_y,raw_accel_z,raw_gyro_x,raw_gyro_y,raw_gyro_z,raw_baro_alt,raw_tof,raw_flow_squal,raw_flow_dx,raw_flow_dy,dev_pos_x,dev_pos_y,dev_pos_z,dev_vel_x,dev_vel_y,dev_vel_z,dev_roll_deg,dev_pitch_deg,dev_yaw_deg
11023,10.0,0.000016,-0.000027,-0.032968,0.000779,-0.001916,0.000741,-0.0019,-0.0014,-0.0002,0.00000000,0.00000000,-0.00184470,-0.00001423,-0.00008598,0.00000000,-0.1566,0.1526,-9.7277,-0.002055,-0.001463,-0.002257,36.4687,0.0330,88,1,0,0.000158,0.000221,-0.032411,-0.000184,0.002859,-0.008445,-0.9492,-0.8688,0.2740
11035,12.0,-0.000000,-0.000055,-0.032953,-0.001418,-0.005565,0.001626,-1.0512,-0.2809,0.0198,0.00000175,0.00000169,-0.00184474,0.00051114,0.00185967,0.00000005,-0.1499,0.1733,-9.7293,-0.002773,-0.000891,-0.004440,36.4687,0.0330,95,3,1,0.000166,0.000205,-0.032492,-0.000255,0.002560,-0.007706,-0.9498,-0.8688,0.2739
11046,11.0,-0.000017,-0.000107,-0.031848,-0.000209,-0.001074,0.048168,-0.4506,-0.6025,-0.0069,-0.00000034,0.00000280,-0.00184463,-0.00061670,-0.00025454,-0.00005901,-0.1636,0.1642,-9.7313,-0.000983,-0.001629,-0.002837,36.4687,0.0310,93,0,0,0.000106,0.000120,-0.032585,-0.000696,0.002076,-0.005735,-0.9524,-0.8682,0.2740
11057,11.0,-0.000023,-0.000108,-0.031001,0.000328,0.000373,0.057998,-0.5046,-0.7760,-0.0152,0.00000135,0.00000477,-0.00184458,-0.00091871,-0.00089198,-0.00006823,-0.1633,0.1679,-9.7409,-0.002868,-0.000320,-0.003564,36.4687,0.0310,93,0,0,0.000113,0.000127,-0.031521,-0.000669,0.002049,0.006889,-0.9544,-0.8739,0.2740
11068,11.0,-0.000019,-0.000095,-0.030302,0.000524,0.002601,0.060085,-0.4062,-0.8158,-0.0215,-0.00000015,0.00000534,-0.00184452,-0.00111839,-0.00141023,-0.00009030,-0.1579,0.1768,-9.7532,-0.001261,-0.002716,-0.001708,36.4687,0.0310,81,-1,0,0.000126,0.000167,-0.031368,-0.000691,0.002075,0.008419,-0.9612,-0.8782,0.2735
11079,11.0,-0.000009,-0.000057,-0.029637,0.002381,0.003357,0.060923,-0.5188,-0.9627,-0.0316,0.00000427,0.00000910,-0.00184440,-0.00192223,-0.00179463,-0.00007826,-0.1606,0.1843,-9.7302,-0.004032,-0.002243,-0.000136,36.4687,0.0320,89,-1,-1,0.000133,0.000197,-0.031239,-0.000738,0.002293,0.009565,-0.9601,-0.8776,0.2733
11090,11.0,0.000020,-0.000023,-0.031443,0.003025,0.001914,0.016922,-0.6664,-1.0000,-0.0238,0.00000989,0.00001046,-0.00184450,-0.00215085,-0.00080375,0.00141661,-0.1637,0.1887,-9.7114,-0.003170,-0.001770,-0.000552,36.4687,0.0320,91,0,-1,0.000164,0.000230,-0.031667,-0.000542,0.002396,0.004564,-0.9669,-0.8839,0.1861
11101,11.0,0.000054,0.000005,-0.031252,0.003225,0.003024,0.017765,-0.6848,-1.0135,-0.0307,0.00001170,0.00001121,-0.00184443,-0.00222291,-0.00132430,0.00141334,-0.1752,0.1796,-9.7288,-0.004902,-0.001027,-0.003950,36.4687,0.0320,94,-1,-1,0.000227,0.000245,-0.031531,-0.000436,0.002450,0.006528,-0.9706,-0.8898,0.1873
11112,11.0,0.000083,0.000033,-0.031038,0.001634,0.001711,0.018790,-0.7739,-0.9381,-0.0177,0.00001822,0.00000551,-0.00184475,-0.00156760,-0.00057419,0.00138334,-0.1580,0.1795,-9.7321,-0.004225,-0.000266,-0.001807,36.5268,0.0310,87,0,0,0.000260,0.000277,-0.031461,-0.000480,0.002568,0.007309,-0.9711,-0.8903,0.1863
11123,11.0,0.000098,0.000051,-0.030944,0.001038,0.001138,0.018034,-0.8309,-0.9197,-0.0157,0.00002409,0.00000354,-0.00184488,-0.00133467,-0.00041851,0.00160894,-0.1626,0.1737,-9.7267,-0.003448,-0.003318,-0.004178,36.5268,0.0310,80,0,0,0.000274,0.000292,-0.031028,-0.000489,0.002292,0.011679,-0.9733,-0.8938,0.1866
11134,11.0,0.000109,0.000063,-0.030733,0.000898,0.000940,0.018969,-0.8547,-0.9118,-0.0135,0.00002686,0.00000219,-0.00184498,-0.00122291,-0.00018744,0.00158804,-0.1416,0.1817,-9.7300,-0.002497,-0.004544,-0.002733,36.5268,0.0310,90,0,0,0.000280,0.000299,-0.030900,-0.000475,0.002254,0.012557,-0.9773,-0.8999,0.1864
11145,11.0,0.000102,0.000073,-0.030520,-0.002579,0.000871,0.019878,-0.8755,-0.8124,-0.0021,0.00003003,-0.00001306,-0.00184542,0.00006163,-0.00020241,0.00156333,-0.1630,0.1708,-9.7230,-0.003050,-0.001391,-0.000811,36.5268,0.0320,84,0,2,0.000287,0.000306,-0.030770,-0.000373,0.002322,0.013334,-0.9774,-0.9012,0.1864
11156,11.0,0.000084,0.000083,-0.031355,-0.000479,0.000789,0.007798,-0.8842,-0.8813,-0.0082,0.00003108,-0.00000048,-0.00184516,-0.00068805,-0.00019810,0.00581243,-0.1626,0.1596,-9.7401,-0.003113,-0.001969,-0.003773,36.5268,0.0320,91,0,0,0.000251,0.000320,-0.031401,-0.000467,0.002319,0.005507,-0.9799,-0.9038,0.1877
11167,11.0,0.000082,0.000092,-0.031265,0.000289,0.000830,0.008617,-0.8952,-0.9075,-0.0107,0.00003326,0.00000554,-0.00184505,-0.00093618,-0.00024150,0.00581701,-0.1627,0.1685,-9.7269,-0.002984,0.000796,-0.002456,36.5268,0.0320,89,0,0,0.000258,0.000327,-0.031342,-0.000448,0.002260,0.006158,-0.9794,-0.9072,0.1873
11178,11.0,0.000087,0.000101,-0.031156,0.000568,0.000845,0.009642,-0.9045,-0.9176,-0.0103,0.00003512,0.00000792,-0.00184504,-0.00106249,-0.00014265,0.00576821,-0.1635,0.1795,-9.7177,-0.003476,-0.001675,-0.000948,36.5268,0.0320,89,0,0,0.000266,0.000335,-0.031267,-0.000519,0.002204,0.006991,-0.9806,-0.9066,0.1870
11189,11.0,0.000094,0.000102,-0.031597,0.000741,-0.000859,0.003981,-0.9514,-0.9153,-0.0072,0.00004882,0.00000687,-0.00184528,-0.00109873,0.00036444,0.00929502,-0.1433,0.1685,-9.7321,-0.002290,-0.001165,-0.002104,36.5268,0.0320,85,1,0,0.000281,0.000351,-0.031652,-0.000570,0.002106,0.003066,-0.9868,-0.9070,0.3870
11201,12.0,0.000095,0.000097,-0.031538,-0.000884,0.000224,0.004793,-0.9335,-0.8778,-0.0061,0.00004162,-0.00000652,-0.00184546,-0.00051065,0.00004782,0.00922677,-0.1426,0.1719,-9.7372,-0.003704,-0.000712,-0.004264,36.5268,0.0320,93,0,1,0.000288,0.000334,-0.031610,-0.000515,0.001985,0.003799,-0.9889,-0.9049,0.3863
11212,11.0,0.000091,0.000102,-0.031480,0.000180,0.000662,0.005689,-0.9396,-0.9013,-0.0118,0.00004388,0.00000250,-0.00184518,-0.00086279,-0.00016589,0.00922991,-0.1538,0.1905,-9.7163,-0.001137,-0.001745,-0.002131,36.5268,0.0330,89,0,0,0.000270,0.000341,-0.031569,-0.000471,0.002054,0.004401,-0.9901,-0.9035,0.3850
11223,11.0,0.000094,0.000111,-0.032304,0.000527,0.000828,-0.003865,-0.9464,-0.9121,-0.0122,0.00004618,0.00000638,-0.00184512,-0.00089244,-0.00019841,0.01671822,-0.1640,0.1996,-9.7186,-0.001308,-0.003288,-0.001210,36.5268,0.0330,95,0,0,0.000286,0.000357,-0.032452,-0.000481,0.001998,-0.004315,-0.9952,-0.9026,0.3845
11234,11.0,0.000120,0.000129,-0.032343,0.004153,0.002465,-0.003246,-0.9217,-0.9734,-0.0257,0.00003199,0.00003711,-0.00184402,-0.00210433,-0.00073250,0.01672902,-0.1483,0.1638,-9.7346,-0.004831,-0.002037,0.000968,36.5268,0.0330,83,-1,-2,0.000293,0.000365,-0.032492,-0.000477,0.001999,-0.003589,-0.9986,-0.9056,0.3852
11245,11.0,0.000172,0.000150,-0.032367,0.005317,0.001408,-0.002411,-0.9457,-0.9914,-0.0242,0.00004431,0.00004723,-0.00184404,-0.00243976,-0.00032446,0.01666195,-0.1573,0.1763,-9.7238,-0.003944,-0.000632,0.000001,36.5268,0.0320,90,0,-2,0.000407,0.000406,-0.032208,-0.000076,0.001993,0.001461,-0.9968,-0.9105,0.3841
11256,11.0,0.000215,0.000163,-0.032167,0.002442,0.000933,0.000925,-0.9569,-0.9422,-0.0160,0.00004962,0.00001483,-0.00184483,-0.00157954,-0.00013261,0.01450335,-0.1543,0.1639,-9.7267,-0.004655,-0.003028,-0.001871,36.4343,0.0320,93,0,0,0.000415,0.000413,-0.032155,-0.000056,0.002010,0.002587,-0.9978,-0.9102,0.3849
11267,11.0,0.000226,0.000163,-0.032120,-0.000323,-0.000852,0.002049,-0.9853,-0.9019,-0.0044,0.00006946,-0.00001434,-0.00184594,-0.00073127,0.00045351,0.01415423,-0.1649,0.1690,-9.7276,-0.000073,-0.002130,-0.003092,36.4343,0.0320,85,1,1,0.000405,0.000426,-0.032089,-0.000212,0.002228,0.003961,-0.9978,-0.9100,0.3840
11278,11.0,0.000217,0.000160,-0.032093,-0.001366,0.000151,0.002891,-0.9704,-0.8894,-0.0054,0.00005692,-0.00002496,-0.00184594,-0.00039178,0.00015317,0.01414174,-0.1579,0.1625,-9.7168,-0.002148,-0.001939,-0.003100,36.4343,0.0340,94,0,1,0.000387,0.000408,-0.033193,-0.000287,0.002113,-0.008228,-0.9994,-0.9097,0.3839
11290,12.0,0.000199,0.000164,-0.033113,-0.001727,0.000558,-0.008818,-0.9684,-0.8865,-0.0035,0.00005370,-0.00002937,-0.00184598,-0.00010717,-0.00011258,0.02489233,-0.1508,0.1764,-9.7171,-0.001774,-0.003268,0.000224,36.4343,0.0340,94,0,1,0.000368,0.000415,-0.033272,-0.000359,0.002034,-0.007592,-0.9990,-0.9098,0.3479
11301,11.0,0.000199,0.000181,-0.033207,0.001663,0.002509,-0.008240,-0.9486,-0.9317,-0.0204,0.00003387,0.00001209,-0.00184447,-0.00116821,-0.00075243,0.02489768,-0.1525,0.1795,-9.7297,-0.002285,-0.000412,-0.003847,36.4343,0.0340,88,-1,-1,0.000331,0.000430,-0.033361,-0.000475,0.002138,-0.005806,-0.9989,-0.9072,0.3499
11312,11.0,0.000214,0.000202,-0.033250,0.001073,0.001437,-0.007014,-0.9668,-0.9261,-0.0149,0.00005081,0.00000528,-0.00184502,-0.00101481,-0.00034303,0.02443695,-0.1651,0.1830,-9.7200,-0.002014,-0.001937,-0.001915,36.4343,0.0330,88,0,0,0.000364,0.000464,-0.033160,-0.000346,0.002210,-0.002407,-0.9998,-0.9064,0.3484
11323,11.0,0.000225,0.000217,-0.033138,0.000910,0.001129,-0.004087,-0.9806,-0.9217,-0.0143,0.00006341,0.00000140,-0.00184523,-0.00100922,-0.00028240,0.02256261,-0.1526,0.1937,-9.7165,-0.002817,0.001172,-0.001932,36.4343,0.0330,93,0,0,0.000379,0.000479,-0.033156,-0.000366,0.002314,-0.000704,-1.0037,-0.9074,0.3481
11334,11.0,0.000235,0.000228,-0.033163,0.000886,0.000980,-0.003221,-0.9873,-0.9196,-0.0131,0.00006911,-0.00000112,-0.00184541,-0.00095748,-0.00015591,0.02239065,-0.1435,0.1902,-9.7245,-0.002876,-0.000095,-0.002425,36.4924,0.0330,90,0,0,0.000387,0.000486,-0.033133,-0.000344,0.002471,0.000219,-1.0040,-0.9065,0.3483
11345,11.0,0.000244,0.000218,-0.033195,0.000785,-0.002654,-0.002511,-1.0319,-0.9234,-0.0014,0.00012429,0.00000100,-0.00184661,-0.00090244,0.00093536,0.02241116,-0.1687,0.1788,-9.7198,-0.001163,-0.003135,-0.001076,36.4924,0.0340,93,2,0,0.000395,0.000494,-0.033128,-0.000284,0.002464,0.000802,-1.0071,-0.9045,0.3478
11356,11.0,0.000253,0.000201,-0.033634,0.000832,-0.000547,-0.006973,-1.0088,-0.9253,-0.0079,0.00009110,0.00000017,-0.00184595,-0.00081986,0.00020338,0.02650263,-0.1492,0.1669,-9.7417,-0.001880,-0.003896,-0.003771,36.4924,0.0340,89,0,0,0.000411,0.000456,-0.033714,-0.000340,0.002293,-0.003965,-1.0102,-0.9065,0.3482
11367,11.0,0.000262,0.000210,-0.033709,0.000787,0.002011,-0.006654,-0.9855,-0.9262,-0.0149,0.00005463,0.00000075,-0.00184512,-0.00079278,-0.00058601,0.02648645,-0.1624,0.1810,-9.7516,-0.002519,-0.000661,-0.001680,36.4924,0.0330,86,-1,0,0.000392,0.000464,-0.033752,-0.000373,0.002104,-0.003647,-1.0092,-0.9074,0.3478
11379,12.0,0.000271,0.000229,-0.033763,0.000757,0.001205,-0.005739,-0.9958,-0.9288,-0.0109,0.00007068,0.00000099,-0.00184547,-0.00080146,-0.00028729,0.02627002,-0.1622,0.1835,-9.7270,0.000164,-0.003527,-0.000176,36.4924,0.0330,82,0,0,0.000406,0.000530,-0.033308,-0.000272,0.002315,0.002181,-1.0091,-0.9074,0.3477
11391,12.0,0.000280,0.000242,-0.033355,0.000801,0.000967,0.000508,-1.0060,-0.9292,-0.0105,0.00008314,-0.00000053,-0.00184561,-0.00090142,-0.00018329,0.02180671,-0.1531,0.1925,-9.7246,-0.003293,-0.002177,-0.001236,36.5849,0.0330,86,0,0,0.000414,0.000538,-0.033283,-0.000308,0.002234,0.002710,-1.0099,-0.9081,0.4148
11402,11.0,0.000289,0.000262,-0.033357,0.000801,0.002513,0.000860,-0.9956,-0.9306,-0.0142,0.00005762,-0.00000028,-0.00184505,-0.00090307,-0.00061819,0.02189887,-0.1608,0.1765,-9.7418,-0.006164,-0.001976,-0.001210,36.5849,0.0330,91,-1,0,0.000421,0.000545,-0.033269,-0.000258,0.002362,0.003085,-1.0107,-0.9082,0.4150
11413,11.0,0.000298,0.000294,-0.033344,0.000771,0.003189,0.001461,-0.9970,-0.9312,-0.0166,0.00005540,0.00000139,-0.00184485,-0.00087803,-0.00087549,0.02189391,-0.1650,0.1947,-9.7302,-0.003144,0.000678,-0.002243,36.5849,0.0330,94,-1,0,0.000437,0.000610,-0.033074,-0.000400,0.002744,0.005526,-1.0147,-0.9107,0.4134
11424,11.0,0.000306,0.000310,-0.033147,0.000751,-0.000011,0.004234,-1.0296,-0.9314,-0.0079,0.00011610,0.00000268,-0.00184620,-0.00092719,0.00011780,0.02029642,-0.1674,0.1810,-9.7234,-0.003462,0.000610,-0.003711,36.5849,0.0330,90,1,0,0.000444,0.000644,-0.033016,-0.000421,0.002844,0.006127,-1.0175,-0.9119,0.4129
11435,11.0,0.000315,0.000302,-0.033097,0.000811,-0.001310,0.004870,-1.0399,-0.9311,-0.0050,0.00013226,0.00000076,-0.00184666,-0.00096692,0.00055678,0.02030535,-0.1521,0.1566,-9.7294,-0.005090,-0.001248,-0.002866,36.5849,0.0330,88,1,0,0.000452,0.000626,-0.032951,-0.000567,0.002781,0.006767,-1.0183,-0.9119,0.4129
11446,11.0,0.000324,0.000296,-0.033053,0.000806,0.000040,0.005359,-1.0316,-0.9325,-0.0072,0.00010992,-0.00000003,-0.00184622,-0.00095218,0.00022136,0.02042211,-0.1562,0.1947,-9.7272,-0.002521,-0.002732,-0.000922,36.5849,0.0330,87,0,0,0.000443,0.000565,-0.032880,-0.000748,0.002549,0.007348,-1.0182,-0.9102,0.4105
11457,11.0,0.000332,0.000299,-0.032990,0.000776,0.000476,0.006154,-1.0313,-0.9348,-0.0093,0.00010258,0.00000187,-0.00184604,-0.00092971,0.00009454,0.02042193,-0.1654,0.1790,-9.7140,-0.004315,-0.002123,-0.003656,36.5849,0.0330,87,0,0,0.000450,0.000572,-0.032816,-0.000718,0.002582,0.007809,-1.0214,-0.9110,0.4107
11468,11.0,0.000361,0.000325,-0.032929,0.004201,0.004121,0.006751,-1.0059,-0.9642,-0.0313,0.00003624,0.00006918,-0.00184279,-0.00187093,-0.00083690,0.02051300,-0.1509,0.2091,-9.7205,-0.002269,-0.003320,-0.003604,36.5849,0.0330,89,-2,-2,0.000465,0.000587,-0.032648,-0.000698,0.002533,0.009061,-1.0213,-0.9134,0.4112
11479,11.0,0.000414,0.000368,-0.032850,0.005458,0.003688,0.007482,-1.0134,-0.9716,-0.0324,0.00005029,0.00008815,-0.00184237,-0.00227044,-0.00073037,0.02052233,-0.1502,0.1827,-9.7202,-0.002818,-0.000953,0.002530,36.6087,0.0330,87,-1,-2,0.000523,0.000644,-0.032849,-0.000441,0.002961,0.006493,-1.0208,-0.9153,0.4103
11490,11.0,0.000457,0.000398,-0.032902,0.002466,0.001873,0.006382,-1.0310,-0.9497,-0.0140,0.00009501,0.00002404,-0.00184507,-0.00140634,-0.00016314,0.02168431,-0.1660,0.1977,-9.7385,-0.001760,-0.002493,0.001033,36.6087,0.0330,88,0,0,0.000583,0.000679,-0.032781,-0.000322,0.002956,0.007163,-1.0247,-0.9130,0.5643
11501,11.0,0.000478,0.000414,-0.032829,0.001412,0.001146,0.006871,-1.0379,-0.9416,-0.0100,0.00011265,-0.00000247,-0.00184602,-0.00112653,0.00003720,0.02168290,-0.1553,0.1800,-9.7410,-0.000887,-0.002110,-0.003433,36.6087,0.0330,99,0,0,0.000597,0.000694,-0.032653,-0.000260,0.003056,0.007987,-1.0263,-0.9131,0.5670
11511,10.0,0.000480,0.000424,-0.032781,-0.000596,0.000850,0.006873,-1.0411,-0.9269,-0.0039,0.00011801,-0.00004981,-0.00184723,-0.00053284,0.00009877,0.02186263,-0.1509,0.1716,-9.7587,-0.002179,-0.002052,-0.001721,36.6087,0.0330,91,0,1,0.000605,0.000702,-0.032827,-0.000331,0.002975,0.005701,-1.0262,-0.9132,0.5670
11522,11.0,0.000479,0.000433,-0.032859,0.000338,0.000765,0.005779,-1.0431,-0.9323,-0.0065,0.00012095,-0.00003624,-0.00184682,-0.00082061,0.00010047,0.02317512,-0.1432,0.1797,-9.7150,-0.001577,-0.002421,-0.001421,36.6087,0.0330,90,0,0,0.000595,0.000717,-0.032727,-0.000380,0.002816,0.006236,-1.0265,-0.9135,0.5680
11533,11.0,0.000484,0.000431,-0.032792,0.000660,-0.001021,0.006441,-1.0556,-0.9356,-0.0039,0.00015960,-0.00003159,-0.00184745,-0.00087744,0.00056368,0.02318911,-0.1484,0.1663,-9.7236,-0.000895,-0.003148,-0.002282,36.5506,0.0330,94,1,0,0.000602,0.000699,-0.032663,-0.000333,0.002661,0.006784,-1.0257,-0.9136,0.5679
11544,11.0,0.000483,0.000426,-0.032719,-0.000785,0.000060,0.006756,-1.0498,-0.9211,-0.0021,0.00013804,-0.00008923,-0.00184808,-0.00059580,0.00023920,0.02317724,-0.1151,0.1885,-9.7558,-0.000276,-0.005901,-0.001609,36.5506,0.0330,89,0,1,0.000610,0.000681,-0.032832,-0.000290,0.002489,0.004694,-1.0251,-0.9145,0.5678
11555,11.0,0.000470,0.000429,-0.032832,-0.001516,0.000437,0.005561,-1.0467,-0.9171,-0.0051,0.00012451,-0.00010439,-0.00184814,-0.00039712,0.00005458,0.02472922,-0.1665,0.1616,-9.6847,-0.000982,-0.000414,-0.006806,36.5506,0.0330,92,0,1,0.000574,0.000696,-0.032732,-0.000413,0.002431,0.005440,-1.0282,-0.9122,0.5666
11566,11.0,0.000442,0.000435,-0.032767,-0.003355,0.000571,0.006235,-1.0463,-0.9041,-0.0007,0.00012024,-0.00016007,-0.00184917,0.00005971,0.00002619,0.02472077,-0.1373,0.1769,-9.7214,-0.001261,-0.004415,-0.000900,36.5506,0.0330,89,0,2,0.000582,0.000704,-0.032673,-0.000474,0.002356,0.006190,-1.0277,-0.9139,0.5648
11577,11.0,0.000401,0.000442,-0.032694,-0.004136,0.000797,0.007183,-1.0481,-0.8976,0.0014,0.00011983,-0.00018223,-0.00184974,0.00030179,0.00002045,0.02472175,-0.1444,0.1966,-9.6953,-0.002756,0.001088,-0.002874,36.5506,0.0340,89,0,2,0.000537,0.000710,-0.032610,-0.000497,0.002354,0.006726,-1.0273,-0.9147,0.5654
11588,11.0,0.000374,0.000451,-0.033368,-0.000963,0.000815,-0.000862,-1.0504,-0.9174,-0.0118,0.00012459,-0.00010418,-0.00184767,-0.00050536,-0.00010713,0.03070277,-0.1479,0.1881,-9.6983,-0.001365,-0.000839,-0.005939,36.5506,0.0340,89,0,0,0.000553,0.000725,-0.033509,-0.000645,0.002537,-0.002228,-1.0295,-0.9162,0.4459
11599,11.0,0.000382,0.000460,-0.033375,0.002119,0.000817,-0.000316,-1.0521,-0.9332,-0.0185,0.00012613,-0.00003875,-0.00184605,-0.00118429,-0.00008807,0.03071667,-0.1034,0.1844,-9.7273,-0.002090,0.000116,-0.000334,36.5506,0.0340,94,0,-1,0.000561,0.000734,-0.033528,-0.000620,0.002552,-0.001653,-1.0302,-0.9163,0.4436
11610,11.0,0.000400,0.000468,-0.033376,0.001342,0.000679,0.000079,-1.0510,-0.9257,-0.0162,0.00011710,-0.00007077,-0.00184657,-0.00102190,0.00001195,0.03071545,-0.1404,0.1578,-9.7411,-0.002487,-0.000980,-0.001286,36.4924,0.0330,92,0,0,0.000593,0.000742,-0.033543,-0.000151,0.002622,-0.001202,-1.0301,-0.9157,0.4438
11621,11.0,0.000414,0.000476,-0.033151,0.001109,0.000677,0.002967,-1.0527,-0.9234,-0.0154,0.00011571,-0.00008624,-0.00184690,-0.00089478,0.00002925,0.02899494,-0.1286,0.1747,-9.7543,-0.003078,-0.001989,-0.002440,36.4924,0.0330,94,0,0,0.000608,0.000757,-0.033162,-0.000177,0.002457,0.003465,-1.0288,-0.9158,0.4427
11632,11.0,0.000425,0.000483,-0.033113,0.000937,0.000713,0.003774,-1.0530,-0.9216,-0.0141,0.00011583,-0.00009815,-0.00184705,-0.00088156,0.00002020,0.02899444,-0.1460,0.1815,-9.7048,-0.000317,-0.001868,0.000094,36.4924,0.0330,92,0,0,0.000616,0.000765,-0.033125,-0.000065,0.002404,0.003770,-1.0293,-0.9144,0.4423
11643,11.0,0.000445,0.000481,-0.033047,0.002538,-0.000950,0.004645,-1.0646,-0.9304,-0.0145,0.00016169,-0.00005376,-0.00184692,-0.00130814,0.00046205,0.02884423,-0.1553,0.1761,-9.7226,-0.002866,0.000731,-0.001701,36.4924,0.0330,86,1,-1,0.000623,0.000772,-0.033058,-0.000069,0.002494,0.004567,-1.0284,-0.9146,0.4440
11654,11.0,0.000466,0.000477,-0.032991,0.001461,0.000077,0.005222,-1.0599,-0.9242,-0.0132,0.00012887,-0.00009092,-0.00184708,-0.00104312,0.00020286,0.02882109,-0.1492,0.1764,-9.7279,-0.003322,-0.002669,-0.000381,36.4924,0.0330,87,0,0,0.000665,0.000763,-0.032927,0.000012,0.002106,0.005781,-1.0301,-0.9148,0.4437
11665,11.0,0.000479,0.000480,-0.032914,0.000999,0.000454,0.006057,-1.0585,-0.9239,-0.0138,0.00011710,-0.00010247,-0.00184710,-0.00093879,0.00009703,0.02869149,-0.1643,0.1782,-9.7204,-0.001303,-0.003203,-0.002779,36.4924,0.0330,90,0,0,0.000672,0.000770,-0.032866,0.000017,0.002059,0.006283,-1.0305,-0.9151,0.4434
11676,11.0,0.000499,0.000496,-0.032845,0.002496,0.002254,0.006537,-1.0523,-0.9340,-0.0236,0.00006973,-0.00005948,-0.00184490,-0.00134177,-0.00040190,0.02868856,-0.1567,0.1900,-9.7346,-0.004131,-0.003155,-0.002657,36.4924,0.0320,89,-1,-1,0.000680,0.000777,-0.032801,0.000035,0.002089,0.006829,-1.0310,-0.9160,0.4427
11687,11.0,0.000510,0.000515,-0.032329,-0.000211,0.001265,0.012272,-1.0582,-0.9194,-0.0101,0.00010048,-0.00014489,-0.00184761,-0.00063979,-0.00007677,0.02543883,-0.1478,0.1815,-9.7290,-0.000041,-0.002236,0.003117,36.4924,0.0320,84,0,1,0.000694,0.000840,-0.032146,0.000132,0.002294,0.012818,-1.0300,-0.9179,0.3326
11698,11.0,0.000512,0.000517,-0.032191,0.000404,-0.000666,0.012842,-1.0736,-0.9237,-0.0071,0.00016920,-0.00012434,-0.00184842,-0.00079946,0.00040448,0.02545126,-0.1602,0.1961,-9.7295,-0.003965,-0.000961,-0.001280,36.4924,0.0320,84,1,0,0.000659,0.000854,-0.031857,0.000043,0.002404,0.014084,-1.0303,-0.9172,0.3345
11709,11.0,0.000518,0.000514,-0.032026,0.000631,0.000075,0.013720,-1.0699,-0.9269,-0.0115,0.00013569,-0.00011567,-0.00184750,-0.00087382,0.00012349,0.02529049,-0.1628,0.1523,-9.7253,-0.003411,-0.002754,-0.003419,36.4924,0.0330,90,0,0,0.000666,0.000836,-0.032480,0.000049,0.002323,0.006010,-1.0321,-0.9170,0.3349
11720,11.0,0.000525,0.000507,-0.032486,0.000723,-0.001237,0.006861,-1.0781,-0.9289,-0.0092,0.00017181,-0.00011142,-0.00184832,-0.00082696,0.00041193,0.02971969,-0.1613,0.1758,-9.7489,-0.003380,-0.002042,-0.004033,36.4924,0.0330,90,1,0,0.000674,0.000844,-0.032401,0.000000,0.002074,0.006641,-1.0323,-0.9177,0.3343
11731,11.0,0.000533,0.000501,-0.032391,0.000756,0.000021,0.007631,-1.0741,-0.9299,-0.0133,0.00013211,-0.00010935,-0.00184739,-0.00084393,0.00009008,0.02959401,-0.1620,0.1854,-9.7250,-0.003943,-0.001125,-0.002712,36.4924,0.0330,86,0,0,0.000690,0.000833,-0.032261,-0.000080,0.001982,0.007479,-1.0323,-0.9189,0.3331
11742,11.0,0.000542,0.000514,-0.032303,0.000811,0.002065,0.008403,-1.0631,-0.9282,-0.0163,0.00005750,-0.00011723,-0.00184604,-0.00089272,-0.00040889,0.02958439,-0.1452,0.1707,-9.7077,-0.002197,-0.000051,0.000869,36.4924,0.0320,89,-1,0,0.000698,0.000841,-0.032054,-0.000086,0.001958,0.009432,-1.0336,-0.9187,0.3327
11753,11.0,0.000551,0.000531,-0.032069,0.000791,0.001144,0.010449,-1.0681,-0.9302,-0.0157,0.00008649,-0.00011970,-0.00184669,-0.00088927,-0.00016256,0.02860220,-0.1541,0.1773,-9.7409,-0.000714,-0.003940,-0.004366,36.4581,0.0320,89,0,0,0.000704,0.000873,-0.031957,0.000003,0.001964,0.010054,-1.0334,-0.9175,0.3336
11764,11.0,0.000559,0.000551,-0.031951,0.000743,0.002462,0.010989,-1.0597,-0.9327,-0.0180,0.00002569,-0.00011339,-0.00184557,-0.00084674,-0.00043814,0.02859579,-0.1705,0.1584,-9.7296,-0.002599,-0.001900,-0.001083,36.4581,0.0330,89,-1,0,0.000719,0.000913,-0.031710,0.000047,0.001857,0.011219,-1.0326,-0.9178,0.3337
11775,11.0,0.000577,0.000582,-0.031792,0.002331,0.002998,0.012191,-1.0579,-0.9431,-0.0249,0.00000364,-0.00004833,-0.00184359,-0.00134840,-0.00060069,0.02835962,-0.1907,0.1689,-9.7060,-0.002461,-0.001110,-0.002761,36.4581,0.0330,88,-1,-1,0.000752,0.000946,-0.032411,0.000087,0.001860,0.002652,-1.0315,-0.9189,0.3340
11786,11.0,0.000597,0.000606,-0.032387,0.001362,0.001498,0.004228,-1.0650,-0.9387,-0.0195,0.00004667,-0.00008558,-0.00184546,-0.00103373,-0.00026892,0.03343882,-0.1559,0.1697,-9.7193,-0.001735,-0.002059,-0.003513,36.4581,0.0330,85,0,0,0.000786,0.000980,-0.032381,-0.000101,0.001875,0.003267,-1.0311,-0.9189,0.3335
11797,11.0,0.000610,0.000619,-0.032312,0.000997,0.001003,0.004970,-1.0703,-0.9376,-0.0170,0.00006399,-0.00009783,-0.00184614,-0.00094700,-0.00013815,0.03325532,-0.1621,0.1818,-9.7348,-0.004369,-0.001201,-0.001488,36.4581,0.0330,93,0,0,0.000802,0.001021,-0.032263,-0.000165,0.001916,0.004667,-1.0330,-0.9179,0.5045
11808,11.0,0.000620,0.000629,-0.032255,0.000873,0.000836,0.005381,-1.0733,-0.9373,-0.0159,0.00007650,-0.00010819,-0.00184646,-0.00093559,-0.00011377,0.03325559,-0.1528,0.1917,-9.7363,-0.001533,-0.002252,-0.000807,36.4343,0.0320,91,0,0,0.000810,0.001028,-0.032080,-0.000162,0.001911,0.006606,-1.0349,-0.9181,0.5045
11819,11.0,0.000629,0.000627,-0.032057,0.000881,-0.000981,0.007529,-1.0846,-0.9372,-0.0126,0.00013218,-0.00011447,-0.00184766,-0.00090734,0.00030193,0.03233599,-0.1437,0.1602,-9.7251,-0.005601,-0.001343,-0.002002,36.4343,0.0320,93,1,0,0.000824,0.001043,-0.031902,-0.000023,0.001958,0.007827,-1.0360,-0.9165,0.5053
11831,12.0,0.000639,0.000612,-0.031965,0.000747,-0.001515,0.007717,-1.0908,-0.9393,-0.0115,0.00015831,-0.00010757,-0.00184819,-0.00083856,0.00041876,0.03233743,-0.1754,0.1946,-9.7585,-0.003497,-0.001149,-0.003382,36.4343,0.0320,85,1,0,0.000831,0.001025,-0.031822,0.000105,0.001794,0.008182,-1.0370,-0.9165,0.5054
11842,11.0,0.000648,0.000594,-0.031834,0.000815,-0.001803,0.008789,-1.0931,-0.9406,-0.0102,0.00016769,-0.00011012,-0.00184845,-0.00082612,0.00048904,0.03203895,-0.1482,0.1835,-9.7252,-0.001475,-0.002770,-0.001130,36.4343,0.0330,91,1,0,0.000839,0.001007,-0.031671,0.000055,0.001779,0.009125,-1.0391,-0.9178,0.5046
11853,11.0,0.000657,0.000584,-0.032430,0.000930,-0.000141,0.000845,-1.0891,-0.9367,-0.0141,0.00011123,-0.00013069,-0.00184751,-0.00085555,-0.00002787,0.03663540,-0.1299,0.1934,-9.7588,-0.004853,0.000520,-0.002380,36.4343,0.0330,89,0,0,0.000854,0.000996,-0.032459,0.000173,0.001714,0.000552,-1.0397,-0.9185,0.5036
11864,11.0,0.000646,0.000576,-0.032386,-0.002548,-0.001283,0.001672,-1.0957,-0.9226,-0.0016,0.00015659,-0.00025942,-0.00185185,0.00000191,0.00027522,0.03640140,-0.1621,0.1927,-9.7313,-0.001072,-0.003871,-0.004060,36.4343,0.0330,93,1,2,0.000861,0.001003,-0.032453,0.000370,0.001821,0.000686,-1.0411,-0.9177,0.5033
11875,11.0,0.000641,0.000569,-0.032364,0.001237,-0.000044,0.002246,-1.0902,-0.9426,-0.0151,0.00010599,-0.00011374,-0.00184719,-0.00093964,-0.00001399,0.03641148,-0.1628,0.1820,-9.7184,-0.001432,-0.002979,-0.001369,36.4343,0.0330,92,0,-1,0.000851,0.000992,-0.032740,0.000374,0.001816,-0.001746,-1.0430,-0.9186,0.5029
11886,11.0,0.000653,0.000571,-0.032670,0.001030,0.000384,-0.000905,-1.0909,-0.9428,-0.0146,0.00008691,-0.00012927,-0.00184720,-0.00080157,-0.00017999,0.03858548,-0.1430,0.1786,-9.7014,-0.004662,-0.003304,-0.001158,36.4343,0.0330,89,0,0,0.000858,0.001024,-0.032755,0.000386,0.001903,-0.001318,-1.0422,-0.9201,0.4707
11897,11.0,0.000664,0.000577,-0.032679,0.000868,0.000548,-0.000731,-1.0913,-0.9445,-0.0143,0.00007748,-0.00013442,-0.00184719,-0.00075745,-0.00020824,0.03858408,-0.1631,0.1828,-9.7525,-0.002627,-0.003836,-0.001807,36.5162,0.0330,89,0,0,0.000865,0.001031,-0.032750,0.000485,0.001899,-0.000519,-1.0427,-0.9210,0.4714
11908,11.0,0.000673,0.000583,-0.032672,0.000808,0.000677,-0.000005,-1.0929,-0.9452,-0.0148,0.00007469,-0.00013592,-0.00184717,-0.00074907,-0.00022461,0.03850248,-0.1636,0.1909,-9.7157,-0.002874,-0.001504,-0.002499,36.5162,0.0330,89,0,0,0.000932,0.001071,-0.032908,0.000619,0.001916,-0.001476,-1.0411,-0.9235,0.4709
11919,11.0,0.000682,0.000590,-0.032845,0.000837,0.000548,-0.001556,-1.0915,-0.9466,-0.0150,0.00005562,-0.00014454,-0.00184717,-0.00076992,-0.00013497,0.03963100,-0.1504,0.1579,-9.7227,-0.002593,-0.004424,-0.003012,36.5162,0.0330,94,0,0,0.000939,0.001079,-0.032908,0.000598,0.001944,-0.000857,-1.0424,-0.9236,0.4711
11931,12.0,0.000682,0.000576,-0.032852,-0.000811,-0.002817,-0.001220,-1.1074,-0.9385,-0.0042,0.00018419,-0.00022231,-0.00185122,-0.00029274,0.00066141,0.03957557,-0.1359,0.1767,-9.7496,-0.001712,-0.001445,0.000477,36.5162,0.0330,90,2,1,0.000947,0.001087,-0.032914,0.000678,0.001790,-0.000421,-1.0425,-0.9247,0.4708
11942,11.0,0.000658,0.000549,-0.032864,-0.003150,-0.002304,-0.000816,-1.1049,-0.9287,0.0009,0.00015343,-0.00032072,-0.00185296,0.00026624,0.00056324,0.03956345,-0.1544,0.1775,-9.7309,-0.001714,-0.002488,-0.001002,36.5162,0.0330,83,1,2,0.000911,0.000998,-0.032957,0.000697,0.001347,-0.000113,-1.0420,-0.9248,0.4713
11953,11.0,0.000639,0.000535,-0.032924,-0.000632,-0.000474,-0.001128,-1.0974,-0.9411,-0.0092,0.00006965,-0.00021974,-0.00184903,-0.00033541,0.00005386,0.03989609,-0.1569,0.1667,-9.7397,-0.002851,-0.002236,-0.002893,36.4924,0.0330,90,0,0,0.000868,0.000980,-0.032956,0.000571,0.001222,0.000271,-1.0412,-0.9243,0.4720
11964,11.0,0.000628,0.000533,-0.032934,-0.001368,0.000154,-0.000677,-1.0923,-0.9391,-0.0095,0.00002143,-0.00025314,-0.00184899,-0.00016665,-0.00003188,0.03989096,-0.1570,0.1614,-9.7266,-0.001304,-0.002895,-0.002584,36.4924,0.0320,87,0,1,0.000857,0.000995,-0.032913,0.000615,0.000966,0.001363,-1.0412,-0.9237,0.4740
11975,11.0,0.000621,0.000537,-0.032917,0.000016,0.000460,0.000196,-1.0922,-0.9466,-0.0132,0.00000686,-0.00019935,-0.00184744,-0.00048714,-0.00011416,0.03975875,-0.1535,0.1813,-9.7112,-0.002449,-0.003054,-0.001849,36.4924,0.0320,88,0,0,0.000864,0.001002,-0.032293,0.000646,0.000888,0.008204,-1.0408,-0.9237,0.4734
11985,10.0,0.000654,0.000562,-0.032411,0.005322,0.003710,0.006436,-1.0766,-0.9702,-0.0309,-0.00014178,0.00000729,-0.00183985,-0.00186964,-0.00079355,0.03666016,-0.1476,0.1691,-9.7329,-0.001224,-0.003655,-0.002508,36.4924,0.0320,85,-2,-3,0.000872,0.001009,-0.032209,0.000680,0.000909,0.008703,-1.0408,-0.9236,0.4734
11996,11.0,0.000715,0.000601,-0.032322,0.005703,0.003390,0.007011,-1.0799,-0.9731,-0.0298,-0.00013008,0.00002077,-0.00183978,-0.00194952,-0.00072361,0.03656155,-0.1621,0.1792,-9.7357,-0.003388,-0.002437,0.000064,36.4924,0.0320,90,-1,-2,0.001010,0.001098,-0.031997,0.001156,0.001069,0.009930,-1.0396,-0.9255,0.4478
12007,11.0,0.000759,0.000628,-0.032242,0.002646,0.001684,0.007634,-1.0888,-0.9582,-0.0204,-0.00006112,-0.00012447,-0.00184447,-0.00125435,-0.00029698,0.03655689,-0.1478,0.1813,-9.7140,-0.003216,-0.001127,-0.004053,36.4924,0.0330,91,0,0,0.001018,0.001106,-0.032564,0.001212,0.000973,0.003197,-1.0399,-0.9256,0.4475
12018,11.0,0.000770,0.000642,-0.032599,-0.000209,0.001033,0.002666,-1.0951,-0.9468,-0.0094,-0.00003629,-0.00024621,-0.00184798,-0.00052645,-0.00020912,0.03924104,-0.1638,0.1801,-9.7494,-0.005745,-0.001937,0.001828,36.4924,0.0330,94,0,1,0.001033,0.001120,-0.032473,0.001293,0.000970,0.004074,-1.0402,-0.9253,0.4465
12029,11.0,0.000761,0.000652,-0.032567,-0.001289,0.000837,0.003243,-1.0980,-0.9446,-0.0049,-0.00002340,-0.00028595,-0.00184937,-0.00025222,-0.00017045,0.03923705,-0.1689,0.1920,-9.7149,-0.002327,-0.002743,-0.000887,36.4924,0.0330,93,0,1,0.001016,0.001127,-0.032431,0.001189,0.001005,0.004301,-1.0419,-0.9260,0.4486
12040,11.0,0.000755,0.000661,-0.032509,0.000014,0.000679,0.003720,-1.1013,-0.9513,-0.0071,-0.00002347,-0.00022792,-0.00184798,-0.00057472,-0.00016651,0.03911311,-0.1656,0.1729,-9.7475,-0.005249,-0.001851,-0.000132,36.4924,0.0320,93,0,0,0.000999,0.001133,-0.032135,0.001013,0.001186,0.007492,-1.0418,-0.9259,0.4495
12051,11.0,0.000748,0.000668,-0.032205,-0.001133,0.000729,0.007261,-1.1026,-0.9461,-0.0034,-0.00002175,-0.00028078,-0.00184929,-0.00033476,-0.00015721,0.03755383,-0.1591,0.1921,-9.7231,-0.001635,-0.000339,-0.000924,36.4924,0.0320,93,0,1,0.000990,0.001146,-0.031959,0.000823,0.001271,0.008367,-1.0426,-0.9260,0.4508
12062,11.0,0.000744,0.000666,-0.032105,0.000135,-0.000983,0.008141,-1.1118,-0.9525,-0.0031,0.00004870,-0.00023204,-0.00184951,-0.00060432,0.00023139,0.03746858,-0.1475,0.1786,-9.7073,-0.003844,-0.002883,-0.002103,36.4924,0.0320,85,1,0,0.000972,0.001153,-0.031873,0.000716,0.001307,0.008733,-1.0431,-0.9261,0.4513
12074,12.0,0.000748,0.000661,-0.032004,0.000601,0.000074,0.008695,-1.1083,-0.9522,-0.0062,-0.00001451,-0.00022361,-0.00184809,-0.00074111,0.00002246,0.03746625,-0.1508,0.1730,-9.7238,-0.004497,0.000819,-0.001924,36.4924,0.0320,90,0,0,0.000980,0.001135,-0.031907,0.000784,0.001250,0.007916,-1.0438,-0.9267,0.4515
12085,11.0,0.000735,0.000653,-0.031940,-0.002591,-0.001246,0.008894,-1.1153,-0.9392,0.0010,0.00003246,-0.00036201,-0.00185219,0.00000003,0.00026596,0.03765785,-0.1686,0.1652,-9.7154,-0.003846,-0.000568,-0.003855,36.4924,0.0320,93,1,2,0.000946,0.001125,-0.031721,0.000585,0.000977,0.009044,-1.0459,-0.9245,0.5646
12095,10.0,0.000732,0.000648,-0.031849,0.001139,-0.000055,0.009287,-1.1100,-0.9534,-0.0101,-0.00003190,-0.00020670,-0.00184721,-0.00091610,0.00002485,0.03766847,-0.1490,0.1782,-9.7303,-0.002211,-0.000028,-0.002572,36.5506,0.0320,92,0,-1,0.000979,0.001132,-0.031630,0.000654,0.000928,0.009445,-1.0458,-0.9240,0.5638
12106,11.0,0.000743,0.000651,-0.031744,0.000909,0.000397,0.009868,-1.1079,-0.9537,-0.0097,-0.00005399,-0.00021979,-0.00184706,-0.00084667,-0.00009165,0.03767050,-0.1577,0.1853,-9.7155,0.000065,-0.002685,-0.000655,36.5506,0.0320,90,0,0,0.001011,0.001140,-0.031534,0.000820,0.000934,0.009785,-1.0460,-0.9233,0.5633
12117,11.0,0.000753,0.000666,-0.031826,0.000911,0.002170,0.008298,-1.1011,-0.9523,-0.0115,-0.00014340,-0.00024330,-0.00184568,-0.00088756,-0.00050230,0.03878479,-0.1388,0.1791,-9.7055,-0.002886,-0.002446,0.000175,36.5506,0.0320,95,-1,0,0.001050,0.001154,-0.031730,0.000921,0.000861,0.006799,-1.0458,-0.9239,0.5642
12128,11.0,0.000763,0.000684,-0.031733,0.000901,0.001166,0.008785,-1.1063,-0.9515,-0.0096,-0.00010745,-0.00025433,-0.00184659,-0.00083155,-0.00031703,0.03879205,-0.1419,0.1679,-9.7237,-0.003072,-0.000610,-0.001448,36.5506,0.0320,91,0,0,0.001058,0.001186,-0.031659,0.000994,0.000909,0.007273,-1.0455,-0.9235,0.5647
12139,11.0,0.000772,0.000694,-0.031633,0.000787,0.000830,0.009414,-1.1064,-0.9530,-0.0084,-0.00009822,-0.00025723,-0.00184701,-0.00080131,-0.00021789,0.03879351,-0.1653,0.1824,-9.7109,0.000704,-0.003005,-0.001989,36.5506,0.0320,91,0,0,0.001065,0.001194,-0.031586,0.001063,0.000774,0.007597,-1.0452,-0.9230,0.5657
12150,11.0,0.000781,0.000703,-0.031780,0.000802,0.000705,0.006768,-1.1077,-0.9547,-0.0067,-0.00009407,-0.00026133,-0.00184720,-0.00075808,-0.00022301,0.04023013,-0.1542,0.1858,-9.7395,-0.001458,-0.003579,0.000227,36.5506,0.0320,92,0,0,0.001081,0.001208,-0.031749,0.000883,0.000884,0.005812,-1.0442,-0.9219,0.5656
12161,11.0,0.000789,0.000721,-0.031705,0.000793,0.002349,0.006956,-1.1007,-0.9540,-0.0092,-0.00017122,-0.00026870,-0.00184563,-0.00076840,-0.00060010,0.04022239,-0.1567,0.1881,-9.7496,-0.000058,-0.000580,-0.000028,36.5506,0.0320,93,-1,0,0.001088,0.001215,-0.031690,0.000848,0.000923,0.006231,-1.0447,-0.9223,0.5666
12172,11.0,0.000807,0.000740,-0.031627,0.002316,0.001306,0.007310,-1.1074,-0.9606,-0.0111,-0.00012178,-0.00019412,-0.00184481,-0.00113824,-0.00035275,0.04023992,-0.1707,0.1889,-9.7332,-0.003833,-0.000124,-0.002179,36.5506,0.0310,90,0,-1,0.001096,0.001246,-0.031626,0.000811,0.000993,0.006490,-1.0433,-0.9226,0.5675
12183,11.0,0.000827,0.000752,-0.031241,0.001368,0.000804,0.011385,-1.1080,-0.9554,-0.0091,-0.00012627,-0.00025264,-0.00184625,-0.00098083,-0.00013231,0.03854780,-0.1501,0.1609,-9.7192,-0.003011,-0.000865,-0.003475,36.5506,0.0310,88,0,0,0.001158,0.001260,-0.031112,0.001068,0.001062,0.011149,-1.0427,-0.9233,0.5672
12194,11.0,0.000830,0.000760,-0.031116,-0.000601,0.000654,0.011554,-1.1112,-0.9473,-0.0059,-0.00012937,-0.00034586,-0.00184827,-0.00052738,-0.00015001,0.03854465,-0.1632,0.1696,-9.7523,-0.005546,-0.000390,-0.002330,36.5506,0.0310,89,0,1,0.001165,0.001268,-0.030997,0.001121,0.000949,0.011673,-1.0422,-0.9213,0.6031
12205,11.0,0.000819,0.000767,-0.030987,-0.001331,0.000624,0.011872,-1.1101,-0.9437,-0.0040,-0.00014520,-0.00039049,-0.00184906,-0.00038412,-0.00009943,0.03854287,-0.1521,0.1727,-9.7398,-0.001414,-0.001181,-0.001363,36.5506,0.0320,93,0,1,0.001131,0.001281,-0.031496,0.001036,0.000891,0.004139,-1.0445,-0.9196,0.6021
12216,11.0,0.000823,0.000774,-0.031476,0.001680,0.000628,0.004957,-1.1117,-0.9569,-0.0096,-0.00014926,-0.00025307,-0.00184559,-0.00098763,-0.00017602,0.04196924,-0.1511,0.1827,-9.7365,-0.003148,-0.002518,0.000238,36.5506,0.0320,91,0,-1,0.001163,0.001289,-0.031454,0.001188,0.000842,0.004382,-1.0444,-0.9201,0.6026
12227,11.0,0.000837,0.000771,-0.031419,0.001106,-0.001011,0.005299,-1.1187,-0.9559,-0.0043,-0.00008587,-0.00028671,-0.00184791,-0.00087405,0.00023693,0.04197559,-0.1580,0.1757,-9.7341,-0.003353,-0.003622,-0.001375,36.5506,0.0310,91,1,0,0.001228,0.001304,-0.031362,0.001343,0.000761,0.004797,-1.0466,-0.9199,0.6038
12238,11.0,0.000839,0.000756,-0.031348,-0.000649,-0.001600,0.005705,-1.1212,-0.9472,-0.0007,-0.00007336,-0.00037943,-0.00185018,-0.00043757,0.00029498,0.04190379,-0.1480,0.1614,-9.7415,-0.002299,0.000901,-0.002045,36.5162,0.0310,91,1,1,0.001236,0.001286,-0.031113,0.001321,0.000663,0.007273,-1.0473,-0.9204,0.6045
12249,11.0,0.000837,0.000747,-0.031123,0.000257,-0.000257,0.007852,-1.1134,-0.9502,-0.0036,-0.00017112,-0.00034203,-0.00184775,-0.00067065,0.00008519,0.04103380,-0.1561,0.1594,-9.7411,-0.002321,-0.000265,-0.000735,36.5162,0.0310,95,0,0,0.001220,0.001270,-0.031039,0.001305,0.000433,0.007504,-1.0476,-0.9188,0.6046
12260,11.0,0.000842,0.000747,-0.031026,0.000568,0.000210,0.008328,-1.1109,-0.9524,-0.0071,-0.00021034,-0.00032832,-0.00184661,-0.00073399,-0.00009638,0.04098186,-0.1604,0.1588,-9.7329,-0.001456,-0.001902,-0.003969,36.5162,0.0310,91,0,0,0.001234,0.001285,-0.030868,0.001339,0.000152,0.008387,-1.0464,-0.9178,0.6052
12271,11.0,0.000849,0.000751,-0.030933,0.000715,0.000462,0.008577,-1.1108,-0.9523,-0.0077,-0.00023671,-0.00032955,-0.00184616,-0.00078484,-0.00011705,0.04098209,-0.1552,0.1764,-9.7436,-0.004262,-0.000774,-0.001604,36.5162,0.0310,88,0,0,0.001242,0.001291,-0.030907,0.001322,0.000088,0.007322,-1.0455,-0.9177,0.6049
12282,11.0,0.000857,0.000757,-0.030913,0.000750,0.000636,0.008095,-1.1109,-0.9528,-0.0080,-0.00024100,-0.00033168,-0.00184612,-0.00076841,-0.00014408,0.04139284,-0.1561,0.1972,-9.7275,-0.000897,-0.001329,-0.002318,36.5162,0.0310,93,0,0,0.001249,0.001298,-0.030823,0.001317,0.000029,0.007716,-1.0464,-0.9171,0.6051
12293,11.0,0.000865,0.000764,-0.030819,0.000765,0.000518,0.009057,-1.1104,-0.9544,-0.0060,-0.00026467,-0.00033626,-0.00184610,-0.00078837,-0.00004279,0.04139489,-0.1578,0.1611,-9.6786,-0.003931,-0.003775,0.000287,36.5162,0.0310,93,0,0,0.001263,0.001312,-0.030649,0.001474,0.000072,0.008251,-1.0456,-0.9176,0.5122
12304,11.0,0.000893,0.000790,-0.030706,0.003940,0.003784,0.009506,-1.0980,-0.9674,-0.0199,-0.00042654,-0.00018461,-0.00183866,-0.00147263,-0.00077352,0.04132986,-0.1560,0.1867,-9.7372,-0.002123,-0.000730,-0.000733,36.5162,0.0310,93,-2,-2,0.001271,0.001318,-0.030819,0.001457,0.000034,0.005965,-1.0451,-0.9186,0.5127
12315,11.0,0.000924,0.000819,-0.030812,0.001914,0.001795,0.007590,-1.1075,-0.9607,-0.0082,-0.00032330,-0.00028977,-0.00184374,-0.00101638,-0.00035670,0.04245223,-0.1607,0.1927,-9.7127,-0.001598,-0.003779,0.000352,36.5162,0.0310,93,0,0,0.001325,0.001373,-0.030760,0.001720,0.000209,0.005901,-1.0452,-0.9186,0.5123
12326,11.0,0.000931,0.000824,-0.030718,-0.000416,-0.000573,0.008045,-1.1189,-0.9518,0.0008,-0.00021576,-0.00040463,-0.00184914,-0.00050662,0.00012275,0.04240571,-0.1656,0.1709,-9.7330,-0.004147,-0.001372,-0.004435,36.5162,0.0310,92,1,1,0.001341,0.001362,-0.030621,0.001600,0.000144,0.006948,-1.0454,-0.9200,0.5117
12337,11.0,0.000921,0.000813,-0.030627,-0.001221,-0.001400,0.008497,-1.1235,-0.9478,0.0044,-0.00018811,-0.00045365,-0.00185106,-0.00034999,0.00033963,0.04240722,-0.1542,0.1788,-9.7236,-0.004517,-0.000829,-0.002020,36.5162,0.0310,92,1,1,0.001325,0.001344,-0.030813,0.001479,0.000037,0.004299,-1.0453,-0.9202,0.5104
12348,11.0,0.000915,0.000805,-0.030775,0.000001,-0.000178,0.006162,-1.1178,-0.9528,-0.0006,-0.00026637,-0.00039009,-0.00184777,-0.00060941,-0.00002869,0.04366539,-0.1671,0.1603,-9.7182,-0.001296,-0.000121,-0.000285,36.5162,0.0310,89,0,0,0.001292,0.001333,-0.030708,0.001253,-0.000062,0.005214,-1.0463,-0.9191,0.5103
12359,11.0,0.000918,0.000807,-0.030705,0.000537,0.000331,0.006547,-1.1166,-0.9533,-0.0024,-0.00030523,-0.00037977,-0.00184661,-0.00076315,-0.00010724,0.04366614,-0.1477,0.1785,-9.7286,-0.004101,-0.000430,-0.001164,36.5162,0.0310,90,0,0,0.001300,0.001340,-0.030639,0.001194,-0.000167,0.005818,-1.0457,-0.9185,0.5103
12371,12.0,0.000926,0.000811,-0.030626,0.000660,0.000435,0.006880,-1.1163,-0.9553,-0.0031,-0.00032592,-0.00037283,-0.00184597,-0.00079260,-0.00019777,0.04367220,-0.1648,0.1647,-9.7345,-0.002285,-0.002409,-0.001187,36.5506,0.0310,89,0,0,0.001307,0.001347,-0.030580,0.001222,-0.000198,0.006145,-1.0456,-0.9172,0.5110
12382,11.0,0.000933,0.000816,-0.030791,0.000753,0.000482,0.004570,-1.1138,-0.9558,-0.0036,-0.00035315,-0.00038246,-0.00184577,-0.00082463,-0.00017305,0.04491162,-0.1504,0.1675,-9.7156,-0.000776,-0.003032,-0.002273,36.5506,0.0310,89,0,0,0.001322,0.001360,-0.030793,0.001141,-0.000281,0.003379,-1.0429,-0.9198,0.5099
12393,11.0,0.000951,0.000832,-0.030740,0.002328,0.002164,0.004983,-1.1076,-0.9629,-0.0125,-0.00044172,-0.00030382,-0.00184174,-0.00116178,-0.00055467,0.04491502,-0.1625,0.1828,-9.7233,-0.002116,-0.001370,-0.004283,36.5506,0.0310,86,-1,-1,0.001329,0.001367,-0.030756,0.001226,-0.000332,0.003962,-1.0416,-0.9206,0.4516
12404,11.0,0.000971,0.000850,-0.030684,0.001434,0.001265,0.005224,-1.1144,-0.9555,-0.0087,-0.00038986,-0.00037969,-0.00184417,-0.00103093,-0.00036795,0.04491635,-0.1365,0.1954,-9.7403,-0.004247,0.000376,-0.001037,36.5506,0.0310,84,0,0,0.001367,0.001404,-0.030866,0.001290,-0.000335,0.002597,-1.0406,-0.9208,0.4518
12415,11.0,0.000974,0.000862,-0.030826,-0.000601,0.000841,0.003049,-1.1180,-0.9476,-0.0035,-0.00037611,-0.00048091,-0.00184715,-0.00058456,-0.00033068,0.04591196,-0.1682,0.1765,-9.7479,-0.004381,-0.000822,-0.002111,36.5506,0.0310,88,0,1,0.001351,0.001411,-0.030840,0.001279,-0.000258,0.002763,-1.0411,-0.9188,0.4523
12426,11.0,0.000973,0.000861,-0.030790,0.000267,-0.000800,0.003434,-1.1267,-0.9499,-0.0027,-0.00029074,-0.00044006,-0.00184788,-0.00078236,0.00002905,0.04592289,-0.1593,0.1931,-9.7259,-0.003287,0.001028,-0.002412,36.5506,0.0310,95,1,0,0.001334,0.001417,-0.030812,0.001120,-0.000219,0.002903,-1.0417,-0.9182,0.4519
12437,11.0,0.000988,0.000867,-0.030753,0.002142,0.001645,0.003584,-1.1192,-0.9600,-0.0147,-0.00042067,-0.00034213,-0.00184200,-0.00118906,-0.00051556,0.04592531,-0.1675,0.1831,-9.7458,-0.005038,-0.003945,-0.002893,36.5506,0.0310,92,-1,-1,0.001350,0.001406,-0.030875,0.001061,-0.000181,0.002375,-1.0434,-0.9169,0.4521
12448,11.0,0.001006,0.000881,-0.030863,0.001217,0.000918,0.002338,-1.1192,-0.9582,-0.0110,-0.00041146,-0.00038384,-0.00184390,-0.00096628,-0.00031010,0.04667939,-0.1696,0.1653,-9.7129,-0.000381,-0.002546,-0.002779,36.5506,0.0310,86,0,0,0.001381,0.001436,-0.030850,0.001083,-0.000131,0.002613,-1.0439,-0.9186,0.4519
12459,11.0,0.001018,0.000890,-0.030836,0.000993,0.000614,0.002796,-1.1211,-0.9568,-0.0116,-0.00041764,-0.00040602,-0.00184422,-0.00087221,-0.00033668,0.04668226,-0.1452,0.1518,-9.7184,-0.004168,-0.000961,-0.003142,36.5506,0.0310,86,0,0,0.001396,0.001451,-0.030791,0.001027,-0.000300,0.003391,-1.0431,-0.9169,0.4510
12469,10.0,0.001007,0.000886,-0.030807,-0.002232,-0.000991,0.003009,-1.1256,-0.9435,-0.0041,-0.00036211,-0.00057998,-0.00184959,-0.00019862,0.00007346,0.04667864,-0.1552,0.1660,-9.7394,-0.001583,-0.001869,-0.002797,36.5506,0.0310,92,1,2,0.001404,0.001458,-0.030905,0.000989,-0.000355,0.002116,-1.0432,-0.9163,0.4515
12480,11.0,0.000994,0.000872,-0.030890,-0.000320,-0.001553,0.002001,-1.1293,-0.9521,-0.0076,-0.00033833,-0.00048489,-0.00184770,-0.00058630,0.00016560,0.04726866,-0.1559,0.1833,-9.7257,-0.003303,-0.002053,-0.002659,36.5506,0.0310,94,1,0,0.001363,0.001440,-0.030884,0.000832,-0.000446,0.002277,-1.0423,-0.9167,0.4513
12491,11.0,0.000995,0.000863,-0.030867,0.000360,-0.000284,0.002194,-1.1228,-0.9559,-0.0109,-0.00044209,-0.00044942,-0.00184515,-0.00072871,-0.00002308,0.04726667,-0.1638,0.1579,-9.7426,-0.004728,-0.002106,-0.001860,36.5506,0.0310,91,0,0,0.001371,0.001422,-0.030860,0.000883,-0.000501,0.002430,-1.0428,-0.9170,0.4306
12503,12.0,0.001011,0.000873,-0.030841,0.002253,0.001937,0.002443,-1.1138,-0.9645,-0.0200,-0.00055792,-0.00035798,-0.00184007,-0.00110067,-0.00049776,0.04726974,-0.1545,0.1894,-9.7377,-0.000893,-0.002245,-0.002366,36.5506,0.0310,87,-1,-1,0.001386,0.001435,-0.030920,0.000730,-0.000571,0.001639,-1.0424,-0.9167,0.4310
12514,11.0,0.001050,0.000909,-0.030910,0.004513,0.004167,0.001637,-1.1013,-0.9725,-0.0265,-0.00071309,-0.00025844,-0.00183491,-0.00160535,-0.00089281,0.04774004,-0.1505,0.1531,-9.7301,-0.001728,-0.001073,-0.001265,36.5506,0.0310,92,-2,-2,0.001417,0.001466,-0.030902,0.000808,-0.000459,0.001847,-1.0418,-0.9159,0.4307
12525,11.0,0.001085,0.000941,-0.030891,0.002155,0.001913,0.001950,-1.1140,-0.9642,-0.0157,-0.00059583,-0.00038544,-0.00184095,-0.00108998,-0.00041656,0.04774545,-0.1581,0.1886,-9.7297,-0.006016,-0.003203,-0.000927,36.5506,0.0310,90,0,0,0.001480,0.001529,-0.030862,0.001005,-0.000554,0.002251,-1.0402,-0.9160,0.4310
12536,11.0,0.001103,0.000957,-0.030867,0.001244,0.001123,0.002304,-1.1162,-0.9599,-0.0114,-0.00056543,-0.00043234,-0.00184319,-0.00089627,-0.00022562,0.04774583,-0.1653,0.1808,-9.7270,-0.000740,0.000541,-0.001615,36.5506,0.0310,96,0,0,0.001487,0.001535,-0.030930,0.000983,-0.000471,0.001522,-1.0412,-0.9159,0.4310
12547,11.0,0.001115,0.000967,-0.030923,0.000984,0.000748,0.001656,-1.1179,-0.9607,-0.0110,-0.00055261,-0.00045557,-0.00184409,-0.00079604,-0.00018106,0.04813560,-0.1476,0.1789,-9.7312,-0.001566,-0.004654,-0.003718,36.5506,0.0310,91,0,0,0.001502,0.001548,-0.030895,0.000878,-0.000447,0.002189,-1.0420,-0.9172,0.4297
12558,11.0,0.001115,0.000975,-0.030903,-0.000746,0.000665,0.001905,-1.1200,-0.9551,-0.0037,-0.00055184,-0.00054620,-0.00184675,-0.00043411,-0.00015677,0.04812969,-0.1636,0.1880,-9.7360,-0.003799,-0.003099,0.002132,36.5506,0.0310,94,0,1,0.001510,0.001554,-0.030873,0.000888,-0.000425,0.002482,-1.0416,-0.9177,0.4286
12569,11.0,0.001093,0.000981,-0.030882,-0.002845,0.000533,0.002146,-1.1196,-0.9475,0.0002,-0.00056067,-0.00066061,-0.00184935,0.00002804,-0.00019593,0.04812703,-0.1538,0.1635,-9.7360,-0.001061,-0.002841,-0.001549,36.5506,0.0300,89,0,2,0.001494,0.001559,-0.030337,0.000784,-0.000316,0.008272,-1.0417,-0.9184,0.4304
12580,11.0,0.001076,0.000987,-0.030385,-0.000621,0.000431,0.007598,-1.1158,-0.9597,-0.0021,-0.00059682,-0.00053495,-0.00184674,-0.00045661,-0.00004643,0.04592058,-0.1717,0.1536,-9.7657,-0.000540,-0.003860,-0.003007,36.5506,0.0300,90,0,0,0.001414,0.001571,-0.030169,0.000528,-0.000309,0.008509,-1.0384,-0.9177,0.4301
12591,11.0,0.001084,0.000983,-0.030273,0.001699,-0.000990,0.008510,-1.1212,-0.9691,-0.0014,-0.00053227,-0.00040665,-0.00184548,-0.00097916,0.00021832,0.04581409,-0.1778,0.1738,-9.7056,-0.001157,0.000516,0.000020,36.4581,0.0300,91,1,-1,0.001421,0.001577,-0.030082,0.000478,-0.000428,0.008835,-1.0350,-0.9196,0.3809
12602,11.0,0.001099,0.000978,-0.030177,0.001113,-0.000003,0.008963,-1.1168,-0.9670,-0.0036,-0.00060315,-0.00044388,-0.00184485,-0.00086719,0.00005355,0.04580843,-0.1599,0.1737,-9.7202,-0.003248,-0.001830,-0.003380,36.4581,0.0310,92,0,0,0.001452,0.001561,-0.029940,0.000390,-0.000569,0.009811,-1.0347,-0.9187,0.3819
12613,11.0,0.001110,0.000971,-0.030554,0.000865,-0.001231,0.004246,-1.1215,-0.9673,0.0004,-0.00054935,-0.00045657,-0.00184657,-0.00078222,0.00023165,0.04802983,-0.1656,0.1734,-9.6810,-0.001267,-0.002676,-0.000442,36.4581,0.0310,88,1,0,0.001467,0.001551,-0.030531,0.000226,-0.000658,0.003113,-1.0333,-0.9189,0.3817
12624,11.0,0.001119,0.000964,-0.030506,0.000811,-0.000053,0.004519,-1.1178,-0.9679,-0.0030,-0.00061528,-0.00046662,-0.00184516,-0.00078255,-0.00000281,0.04802484,-0.1593,0.1875,-9.7340,-0.003077,-0.002882,-0.003227,36.4581,0.0310,96,0,0,0.001475,0.001533,-0.030497,0.000134,-0.000695,0.003710,-1.0329,-0.9200,0.3828
12635,11.0,0.001118,0.000976,-0.030422,-0.000794,0.001885,0.005159,-1.1100,-0.9630,-0.0035,-0.00071982,-0.00054917,-0.00184480,-0.00045360,-0.00041811,0.04785589,-0.1677,0.1842,-9.7364,-0.001384,-0.002912,-0.001132,36.4581,0.0300,89,-1,1,0.001483,0.001538,-0.030458,0.000065,-0.000528,0.003999,-1.0328,-0.9204,0.3838
12647,12.0,0.001104,0.000993,-0.030155,-0.001368,0.000935,0.007767,-1.1098,-0.9598,-0.0008,-0.00071964,-0.00058143,-0.00184643,-0.00035647,-0.00011651,0.04693970,-0.1626,0.1470,-9.7386,-0.002063,0.000226,-0.002750,36.5162,0.0300,89,0,1,0.001473,0.001574,-0.030064,-0.000032,-0.000386,0.007199,-1.0339,-0.9205,0.3835
12658,11.0,0.001088,0.001002,-0.030060,-0.001552,0.000652,0.008056,-1.1109,-0.9589,-0.0001,-0.00072142,-0.00059391,-0.00184665,-0.00030781,-0.00012304,0.04689844,-0.1593,0.1607,-9.7436,-0.002620,-0.000708,-0.001057,36.5162,0.0300,89,0,1,0.001441,0.001588,-0.029903,-0.000214,-0.000611,0.007844,-1.0342,-0.9186,0.3838
12669,11.0,0.001090,0.001009,-0.029970,0.001525,0.000613,0.008435,-1.1106,-0.9722,-0.0073,-0.00072796,-0.00044552,-0.00184252,-0.00096624,-0.00008925,0.04691045,-0.1542,0.1820,-9.7258,-0.001574,-0.003365,-0.003697,36.5162,0.0310,89,0,-1,0.001472,0.001619,-0.030522,-0.000101,-0.000632,0.000337,-1.0323,-0.9181,0.3845
12680,11.0,0.001114,0.001025,-0.030478,0.002654,0.002179,0.001828,-1.1047,-0.9770,-0.0134,-0.00081795,-0.00039409,-0.00183906,-0.00111971,-0.00048846,0.04960935,-0.1544,0.1754,-9.7241,-0.002772,-0.001519,-0.003214,36.5162,0.0310,95,-1,-1,0.001503,0.001625,-0.030508,0.000027,-0.000575,0.000681,-1.0318,-0.9192,0.3836
12691,11.0,0.001136,0.001043,-0.030456,0.001467,0.001129,0.002215,-1.1078,-0.9724,-0.0084,-0.00078593,-0.00046560,-0.00184190,-0.00089689,-0.00022527,0.04961046,-0.1585,0.1683,-9.7225,-0.002444,-0.002470,-0.000843,36.5162,0.0310,88,0,0,0.001541,0.001662,-0.030490,0.000194,-0.000350,0.001120,-1.0338,-0.9184,0.3917
12702,11.0,0.001149,0.001053,-0.030419,0.000947,0.000833,0.002523,-1.1093,-0.9718,-0.0067,-0.00077045,-0.00048576,-0.00184293,-0.00082014,-0.00016498,0.04955863,-0.1791,0.1892,-9.7412,-0.001216,-0.002203,-0.002057,36.5162,0.0310,85,0,0,0.001548,0.001668,-0.030776,0.000195,-0.000347,-0.001848,-1.0330,-0.9193,0.3921
12713,11.0,0.001159,0.001052,-0.030717,0.000866,-0.000861,-0.000925,-1.1170,-0.9709,-0.0033,-0.00068519,-0.00050508,-0.00184532,-0.00081185,0.00016250,0.05101689,-0.1529,0.1877,-9.7248,-0.002391,-0.001968,-0.002163,36.5162,0.0310,95,1,0,0.001556,0.001674,-0.030794,0.000034,-0.000220,-0.001685,-1.0322,-0.9197,0.3922
12724,11.0,0.001168,0.001038,-0.030718,0.000813,-0.001545,-0.000775,-1.1198,-0.9714,-0.0021,-0.00065995,-0.00051252,-0.00184615,-0.00078472,0.00026080,0.05097855,-0.1588,0.1732,-9.7521,-0.001856,-0.002322,-0.001973,36.5162,0.0310,90,1,0,0.001571,0.001638,-0.030810,0.000046,-0.000147,-0.001145,-1.0312,-0.9199,0.3926
12735,11.0,0.001177,0.001030,-0.030725,0.000841,-0.000156,-0.000492,-1.1131,-0.9693,-0.0040,-0.00074400,-0.00053419,-0.00184462,-0.00083271,0.00000300,0.05097378,-0.1455,0.1806,-9.7306,-0.001000,-0.000664,-0.001111,36.5744,0.0310,96,0,0,0.001578,0.001645,-0.030929,0.000057,-0.000104,-0.002154,-1.0311,-0.9201,0.3926
12746,11.0,0.001186,0.001031,-0.030877,0.000805,0.000331,-0.002020,-1.1130,-0.9700,-0.0062,-0.00077357,-0.00053938,-0.00184405,-0.00080080,-0.00012310,0.05161817,-0.1608,0.1829,-9.7386,-0.004477,-0.002223,-0.004003,36.5744,0.0310,90,0,0,0.001584,0.001651,-0.030949,0.000163,-0.000029,-0.001864,-1.0303,-0.9196,0.3929
12757,11.0,0.001195,0.001036,-0.030896,0.000861,0.000454,-0.001375,-1.1121,-0.9695,-0.0069,-0.00079710,-0.00056420,-0.00184394,-0.00086853,-0.00010913,0.05161930,-0.1409,0.1743,-9.6972,-0.002978,-0.004011,-0.002197,36.5744,0.0310,89,0,0,0.001598,0.001689,-0.030993,0.000230,0.000111,-0.001316,-1.0298,-0.9188,0.3915
12768,11.0,0.001194,0.001042,-0.030919,-0.000812,0.000590,-0.001142,-1.1119,-0.9630,-0.0034,-0.00080631,-0.00064974,-0.00184625,-0.00053664,-0.00014932,0.05165768,-0.1682,0.1858,-9.7229,-0.001605,-0.001014,-0.002033,36.5744,0.0310,90,0,1,0.001605,0.001695,-0.030996,0.000310,0.000130,-0.000802,-1.0297,-0.9190,0.3907
12779,11.0,0.001191,0.001048,-0.030962,0.000185,0.000479,-0.001041,-1.1076,-0.9678,-0.0048,-0.00084394,-0.00060373,-0.00184503,-0.00074892,-0.00004051,0.05180629,-0.1600,0.1502,-9.7118,-0.000380,-0.002634,-0.003421,36.5744,0.0310,87,0,0,0.001571,0.001708,-0.031016,0.000201,0.000100,-0.000310,-1.0277,-0.9189,0.3903
12790,11.0,0.001195,0.001054,-0.030980,0.000539,0.000589,-0.000868,-1.1098,-0.9716,-0.0058,-0.00084332,-0.00058700,-0.00184452,-0.00081269,-0.00003797,0.05184184,-0.1632,0.2003,-9.7307,-0.004207,-0.004464,-0.002170,36.5744,0.0300,88,0,0,0.001579,0.001716,-0.031018,0.000178,-0.000105,-0.000023,-1.0277,-0.9185,0.4505
12801,11.0,0.001202,0.001070,-0.030987,0.000671,0.002145,-0.000401,-1.1038,-0.9723,-0.0098,-0.00092766,-0.00058637,-0.00184225,-0.00084754,-0.00033824,0.05183626,-0.1609,0.1856,-9.7126,-0.002314,-0.001751,-0.002351,36.5744,0.0300,94,-1,0,0.001586,0.001721,-0.030412,0.000155,0.000018,0.006835,-1.0296,-0.9203,0.4502
12812,11.0,0.001210,0.001087,-0.030450,0.000722,0.001145,0.006370,-1.1075,-0.9737,-0.0088,-0.00088003,-0.00058800,-0.00184351,-0.00088062,-0.00011275,0.04954048,-0.1585,0.1801,-9.7091,-0.000745,-0.003089,-0.003393,36.5744,0.0300,90,0,0,0.001600,0.001757,-0.030277,0.000043,0.000251,0.007476,-1.0295,-0.9211,0.4506
12823,11.0,0.001227,0.001098,-0.030378,0.002263,0.000793,0.006788,-1.1081,-0.9793,-0.0103,-0.00087885,-0.00051353,-0.00184170,-0.00119752,-0.00000313,0.04954813,-0.1626,0.1738,-9.7195,-0.002280,-0.000132,-0.000650,36.5744,0.0300,94,0,-1,0.001607,0.001763,-0.030200,0.000007,0.000345,0.007946,-1.0284,-0.9220,0.4493
12834,11.0,0.001256,0.001106,-0.030315,0.002921,0.000665,0.006330,-1.1100,-0.9827,-0.0101,-0.00087299,-0.00049574,-0.00184128,-0.00126428,0.00001921,0.04959467,-0.1409,0.1890,-9.7882,-0.003165,-0.003795,-0.000440,36.5744,0.0300,94,0,-1,0.001637,0.001769,-0.030043,0.000079,0.000374,0.009161,-1.0288,-0.9218,0.4494
12845,11.0,0.001279,0.001113,-0.030112,0.001562,0.000577,0.005701,-1.1145,-0.9803,-0.0069,-0.00086565,-0.00057310,-0.00184377,-0.00101558,0.00002739,0.04897203,-0.1650,0.1949,-9.9692,-0.006893,-0.006752,-0.003043,36.5744,0.0300,90,0,0,0.001674,0.001780,-0.029842,0.000204,0.000707,0.009245,-1.0291,-0.9241,0.4492
12856,11.0,0.001293,0.001119,-0.030052,0.001063,0.000474,0.006610,-1.1145,-0.9785,-0.0072,-0.00088385,-0.00060245,-0.00184400,-0.00090212,-0.00004331,0.04900322,-0.1607,0.1475,-9.6674,-0.003087,-0.001456,-0.002321,36.5744,0.0310,90,0,0,0.001682,0.001786,-0.029767,0.000143,0.000785,0.008246,-1.0305,-0.9251,0.4489
12867,11.0,0.001304,0.001124,-0.029978,0.000880,0.000492,0.006819,-1.1128,-0.9792,-0.0058,-0.00090523,-0.00061953,-0.00184416,-0.00088036,-0.00000523,0.04900338,-0.1609,0.1717,-9.7392,-0.001762,-0.004189,-0.000283,36.5744,0.0310,91,0,0,0.001696,0.001775,-0.030452,0.000258,0.000611,0.001407,-1.0305,-0.9259,0.4479
12878,11.0,0.001313,0.001120,-0.030474,0.000793,-0.000986,0.000902,-1.1191,-0.9790,-0.0023,-0.00083310,-0.00062558,-0.00184632,-0.00082182,0.00022865,0.05140644,-0.1650,0.1840,-9.6877,-0.001513,-0.001137,-0.001776,36.4581,0.0310,91,1,0,0.001703,0.001782,-0.030404,0.000309,0.000625,0.001962,-1.0304,-0.9262,0.4481
12889,11.0,0.001312,0.001106,-0.030463,-0.000802,-0.001577,0.001045,-1.1214,-0.9729,0.0039,-0.00081824,-0.00071220,-0.00184950,-0.00051912,0.00037229,0.05140382,-0.1630,0.1776,-9.7427,-0.003110,-0.002377,0.000368,36.4581,0.0310,90,1,1,0.001710,0.001764,-0.030382,0.000345,0.000703,0.002329,-1.0294,-0.9270,0.3763
12900,11.0,0.001309,0.001097,-0.030415,0.000153,-0.000319,0.002086,-1.1172,-0.9786,-0.0002,-0.00090160,-0.00066078,-0.00184578,-0.00071534,0.00005598,0.05126135,-0.1711,0.1566,-9.6969,-0.004823,-0.003110,0.000259,36.4581,0.0300,91,0,0,0.001677,0.001729,-0.030092,0.000357,0.000553,0.004987,-1.0302,-0.9267,0.3777
12911,11.0,0.001303,0.001097,-0.030173,-0.001004,0.000242,0.004693,-1.1142,-0.9741,-0.0019,-0.00094573,-0.00072398,-0.00184654,-0.00051005,-0.00000731,0.05035293,-0.1637,0.1766,-9.7504,-0.002451,-0.001679,-0.006041,36.4581,0.0300,93,0,1,0.001684,0.001735,-0.030040,0.000306,0.000524,0.005372,-1.0303,-0.9280,0.3791
12922,11.0,0.001290,0.001111,-0.030096,-0.001424,0.002000,0.005161,-1.1060,-0.9724,-0.0054,-0.00104141,-0.00074886,-0.00184464,-0.00041285,-0.00037047,0.05023746,-0.1608,0.1792,-9.7415,-0.000355,-0.001231,-0.002498,36.4581,0.0300,90,-1,1,0.001668,0.001742,-0.029951,0.000224,0.000534,0.005889,-1.0301,-0.9277,0.3779
12933,11.0,0.001293,0.001137,-0.030039,0.001598,0.002624,0.005170,-1.1019,-0.9883,-0.0133,-0.00110394,-0.00059313,-0.00183963,-0.00099506,-0.00042487,0.05024637,-0.1695,0.1605,-9.7562,-0.003911,-0.005657,-0.005724,36.5162,0.0320,90,-1,-1,0.001684,0.001804,-0.031136,0.000107,0.000672,-0.007615,-1.0287,-0.9269,0.3767
12944,11.0,0.001318,0.001158,-0.031068,0.002736,0.001389,-0.007313,-1.1095,-0.9937,-0.0125,-0.00104094,-0.00053993,-0.00183973,-0.00112601,-0.00026209,0.05468137,-0.1627,0.1903,-9.7422,-0.005007,-0.002124,-0.001098,36.5162,0.0320,91,0,-1,0.001716,0.001836,-0.031212,0.000085,0.000712,-0.007646,-1.0288,-0.9297,0.3751
12955,11.0,0.001330,0.001170,-0.031147,0.000004,0.000895,-0.007057,-1.1106,-0.9816,-0.0036,-0.00101797,-0.00069486,-0.00184504,-0.00063151,-0.00016705,0.05467419,-0.1544,0.1877,-9.7290,0.000322,-0.002335,-0.000099,36.5162,0.0290,96,0,1,0.001748,0.001842,-0.031289,0.000246,0.000704,-0.007693,-1.0296,-0.9306,0.3758
12966,11.0,0.001324,0.001170,-0.031212,-0.000915,-0.000769,-0.006610,-1.1190,-0.9768,0.0015,-0.00093647,-0.00075792,-0.00184885,-0.00039491,0.00014294,0.05462826,-0.1379,0.1850,-9.7246,-0.003653,-0.001280,-0.001635,36.5162,0.0290,85,1,1,0.001740,0.001853,-0.029999,-0.000002,0.001119,0.007186,-1.0304,-0.9308,0.3765
12977,11.0,0.001312,0.001158,-0.030034,-0.001349,-0.001331,0.008403,-1.1229,-0.9735,0.0028,-0.00090940,-0.00078413,-0.00185038,-0.00040860,0.00035165,0.04960771,-0.1622,0.1894,-9.7061,-0.003695,0.000840,-0.003184,36.5162,0.0290,85,1,1,0.001724,0.001837,-0.029915,0.000031,0.001143,0.007605,-1.0328,-0.9296,0.3759
12988,11.0,0.001305,0.001150,-0.029931,0.000012,-0.000150,0.008849,-1.1176,-0.9801,-0.0013,-0.00097957,-0.00072069,-0.00184662,-0.00064847,0.00008622,0.04957124,-0.1578,0.1721,-9.7263,-0.001689,-0.003003,-0.000171,36.5162,0.0310,88,0,0,0.001709,0.001820,-0.029836,-0.000081,0.001097,0.008142,-1.0330,-0.9289,0.3739
13000,12.0,0.001309,0.001152,-0.029823,0.000552,0.000339,0.009104,-1.1149,-0.9802,-0.0038,-0.00102204,-0.00071169,-0.00184524,-0.00078058,0.00002550,0.04957207,-0.1518,0.1749,-9.7365,-0.002810,-0.000288,-0.002870,36.4581,0.0310,91,0,0,0.001724,0.001834,-0.030467,-0.000246,0.001066,0.000541,-1.0338,-0.9298,0.3587
13011,11.0,0.001336,0.001157,-0.030399,0.003950,0.000484,0.001745,-1.1161,-0.9946,-0.0103,-0.00103585,-0.00055604,-0.00184018,-0.00133042,-0.00006978,0.05227014,-0.1431,0.1789,-9.7124,-0.004807,-0.002953,-0.001462,36.4581,0.0310,84,0,-2,0.001786,0.001848,-0.030375,-0.000079,0.001036,0.001777,-1.0343,-0.9299,0.3600
13022,11.0,0.001376,0.001162,-0.030378,0.003378,0.000565,0.002044,-1.1168,-0.9929,-0.0094,-0.00103901,-0.00059185,-0.00184110,-0.00123372,-0.00008604,0.05226802,-0.1638,0.1916,-9.7273,-0.002557,-0.002786,-0.002351,36.4581,0.0290,87,0,-1,0.001838,0.001855,-0.029545,0.000173,0.001028,0.011098,-1.0351,-0.9294,0.3600
13033,11.0,0.001393,0.001160,-0.030322,0.000209,-0.000865,0.002627,-1.1232,-0.9784,0.0012,-0.00097133,-0.00075341,-0.00184843,-0.00062667,0.00016607,0.05212886,-0.1638,0.1843,-9.7373,-0.002216,0.000821,-0.002123,36.4581,0.0290,90,1,1,0.001867,0.001860,-0.029433,0.000232,0.001145,0.011366,-1.0351,-0.9300,0.3597
13044,11.0,0.001388,0.001147,-0.029581,-0.000961,-0.001401,0.011059,-1.1272,-0.9742,0.0067,-0.00094589,-0.00081048,-0.00185127,-0.00045194,0.00032241,0.04934036,-0.1681,0.1908,-9.7369,-0.003840,-0.001803,-0.000106,36.4581,0.0290,94,1,1,0.001836,0.001828,-0.029166,0.000029,0.000960,0.012187,-1.0360,-0.9319,0.3586
13055,11.0,0.001384,0.001139,-0.029434,0.000157,-0.000215,0.011462,-1.1219,-0.9795,0.0032,-0.00102176,-0.00075993,-0.00184770,-0.00064221,0.00003777,0.04923716,-0.1582,0.1618,-9.7486,-0.002649,-0.002439,0.000185,36.4581,0.0310,90,0,0,0.001843,0.001834,-0.029043,0.000018,0.000964,0.012328,-1.0360,-0.9326,0.3595
13066,11.0,0.001379,0.001140,-0.029305,-0.001010,0.000334,0.011868,-1.1204,-0.9731,0.0027,-0.00105968,-0.00082773,-0.00184876,-0.00043983,-0.00004431,0.04923173,-0.1577,0.1814,-9.7209,-0.004076,0.000050,-0.004808,36.4581,0.0310,91,0,1,0.001850,0.001841,-0.030237,0.000061,0.000865,-0.001421,-1.0357,-0.9328,0.3602
13077,11.0,0.001375,0.001145,-0.030156,0.000123,0.000495,0.000916,-1.1203,-0.9763,-0.0006,-0.00108138,-0.00077449,-0.00184663,-0.00058127,-0.00019624,0.05305246,-0.1629,0.1666,-9.7160,-0.003843,0.001373,-0.002823,36.5162,0.0310,91,0,0,0.001815,0.001879,-0.030249,0.000113,0.000870,-0.000770,-1.0361,-0.9320,0.3590
13089,12.0,0.001388,0.001151,-0.030143,0.002063,0.000509,0.001238,-1.1188,-0.9819,-0.0028,-0.00110877,-0.00069507,-0.00184395,-0.00097421,-0.00014739,0.05306004,-0.1529,0.1669,-9.7276,-0.003168,0.000335,-0.000852,36.5162,0.0290,93,0,-1,0.001822,0.001886,-0.030255,0.000178,0.000878,-0.000509,-1.0341,-0.9331,0.2166
13100,11.0,0.001415,0.001166,-0.030117,0.002733,0.002009,0.001577,-1.1128,-0.9849,-0.0071,-0.00118951,-0.00067114,-0.00184116,-0.00106327,-0.00045442,0.05301024,-0.1523,0.1776,-9.7356,-0.002526,-0.002158,-0.003145,36.5162,0.0290,92,-1,-1,0.001880,0.001899,-0.029401,0.000333,0.000603,0.008136,-1.0338,-0.9337,0.2169
