timestamp_ms,dt_ms,pos_x,pos_y,pos_z,vel_x,vel_y,vel_z,roll_deg,pitch_deg,yaw_deg,gyro_bias_x,gyro_bias_y,gyro_bias_z,accel_bias_x,accel_bias_y,accel_bias_z,raw_accel_x,raw_accel_y,raw_accel_z,raw_gyro_x,raw_gyro_y,raw_gyro_z,raw_baro_alt,raw_tof,raw_flow_squal,raw_flow_dx,raw_flow_dy,dev_pos_x,dev_pos_y,dev_pos_z,dev_vel_x,dev_vel_y,dev_vel_z,dev_roll_deg,dev_pitch_deg,dev_yaw_deg
10555,10.0,0.000016,-0.000003,-0.076179,0.000756,0.000672,0.000657,-0.0015,-0.0021,-0.0018,0.00000000,0.00000000,0.00000000,-0.00000101,0.00000052,0.00000000,-0.1771,0.1985,-9.7252,-0.002120,-0.002674,-0.003170,35.4937,0.0320,99,0,0,0.000131,0.000122,-0.090857,-0.000689,0.002129,0.023674,-1.1063,-0.9912,-0.2949
10565,10.0,0.000009,0.000031,-0.076169,0.000478,0.002817,0.001327,-0.4888,-0.6322,-0.0067,0.00000211,0.00000192,0.00000001,-0.00028394,-0.00042362,-0.00000000,-0.1920,0.2122,-9.7355,-0.002720,-0.002179,-0.000817,35.4937,0.0320,100,-1,0,0.000138,0.000129,-0.090616,-0.000758,0.002184,0.024403,-1.1071,-0.9921,-0.2951
10576,11.0,0.000012,0.000063,-0.117152,0.000478,0.001607,-0.100197,-0.8209,-0.7354,0.0000,0.00000314,0.00000224,-0.00000001,-0.00064019,0.00073538,0.00007464,-0.1770,0.1983,-9.7292,-0.003696,-0.002695,-0.003474,35.5518,0.0320,100,0,0,0.000142,0.000192,-0.127579,-0.000703,0.002486,-0.273080,-1.1168,-1.0006,-0.2936
10588,12.0,0.000014,0.000086,-0.081284,0.000562,0.001070,0.044968,-1.0053,-0.8564,0.0017,0.00000507,0.00000367,-0.00000002,-0.00075246,0.00108319,-0.00004126,-0.1773,0.2018,-9.7334,-0.001738,-0.002748,-0.003542,35.5518,0.0320,99,0,0,0.000149,0.000201,-0.086798,-0.000651,0.002419,0.053595,-1.1272,-1.0041,-0.2661
10599,11.0,0.000019,0.000099,-0.105416,0.000557,0.000933,-0.093990,-1.0632,-0.8997,0.0016,0.00000586,0.00000425,-0.00000003,-0.00096448,0.00136933,0.00013805,-0.1918,0.2202,-9.7301,-0.004230,-0.003481,-0.002166,35.5518,0.0320,96,0,0,0.000161,0.000219,-0.130743,-0.000567,0.002296,-0.241145,-1.1398,-1.0132,-0.2665
10610,11.0,0.000023,0.000109,-0.106444,0.000582,0.000778,-0.092966,-1.0752,-0.9554,0.0024,0.00000612,0.00000612,-0.00000003,-0.00096055,0.00144008,0.00014103,-0.1925,0.1828,-9.7126,-0.001289,-0.001560,-0.001967,35.5518,0.0320,101,0,0,0.000169,0.000225,-0.133151,-0.000676,0.002447,-0.240425,-1.1413,-1.0140,-0.2670
10621,11.0,0.000029,0.000118,-0.099279,0.000682,0.000802,-0.029018,-1.0903,-0.9660,0.0014,0.00000664,0.00000648,-0.00000003,-0.00102820,0.00153572,0.00003114,-0.1695,0.2079,-9.7370,-0.002774,-0.001862,-0.002139,35.5518,0.0320,89,0,0,0.000176,0.000248,-0.109832,-0.000631,0.002483,-0.076655,-1.1409,-1.0194,-0.2675
10634,13.0,0.000030,0.000129,-0.099649,-0.001090,0.000766,-0.027945,-1.1187,-0.9021,0.0100,0.00000836,0.00000312,-0.00000019,-0.00031660,0.00154087,0.00001795,-0.1791,0.2085,-9.7240,-0.003915,-0.003569,0.001907,35.4937,0.0320,97,0,1,0.000183,0.000256,-0.129155,-0.000572,0.002419,-0.180705,-1.1491,-1.0230,-0.2676
10645,11.0,0.000023,0.000137,-0.117185,-0.000004,0.000687,-0.179833,-1.1244,-0.9709,0.0048,0.00000855,0.00000826,-0.00000005,-0.00089014,0.00155706,0.00043050,-0.1987,0.1901,-9.7370,-0.004756,-0.002913,-0.001208,35.4937,0.0320,98,0,0,0.000165,0.000262,-0.130958,-0.000725,0.002443,-0.179918,-1.1507,-1.0228,-0.2659
10656,11.0,0.000033,0.000145,-0.088416,0.002180,0.000670,0.091427,-1.1281,-1.0548,-0.0033,0.00000892,0.00001642,0.00000019,-0.00173227,0.00157566,-0.00036069,-0.1688,0.1954,-9.7039,-0.001445,-0.003964,-0.001668,35.4937,0.0320,97,0,-1,0.000172,0.000283,-0.109107,-0.000712,0.002275,-0.053699,-1.1509,-1.0310,-0.2661
10668,12.0,0.000054,0.000145,-0.103648,0.001229,-0.000946,-0.050363,-1.1919,-1.0225,0.0063,0.00001679,0.00001226,-0.00000014,-0.00138865,0.00220483,0.00015532,-0.1801,0.2094,-9.7119,-0.003504,0.000177,0.000032,35.4937,0.0320,103,1,0,0.000206,0.000289,-0.109639,-0.000503,0.002210,-0.052671,-1.1522,-1.0296,-0.2667
10679,11.0,0.000066,0.000140,-0.104198,0.000874,0.000139,-0.049698,-1.1625,-1.0231,0.0026,0.00001172,0.00001241,-0.00000003,-0.00122761,0.00180958,0.00014192,-0.1909,0.2052,-9.7457,-0.004220,-0.001151,-0.001997,35.4937,0.0320,100,0,0,0.000221,0.000277,-0.126964,-0.000330,0.002129,-0.124751,-1.1555,-1.0343,-0.4154
10691,12.0,0.000076,0.000144,-0.092818,0.000765,0.000515,0.048622,-1.1590,-1.0264,0.0005,0.00001073,0.00001237,-0.00000000,-0.00123167,0.00175535,-0.00030799,-0.1835,0.2154,-9.7366,-0.002673,-0.005326,-0.002197,35.4937,0.0320,108,0,0,0.000229,0.000283,-0.095329,-0.000381,0.002140,0.022176,-1.1561,-1.0342,-0.4153
10702,11.0,0.000084,0.000151,-0.092279,0.000706,0.000649,0.049363,-1.1685,-1.0378,-0.0024,0.00001248,0.00001451,0.00000001,-0.00117404,0.00166899,-0.00030987,-0.1937,0.2168,-9.7386,-0.004291,-0.004409,-0.004639,35.4937,0.0320,98,0,0,0.000239,0.000356,-0.109170,-0.000511,0.002462,-0.035729,-1.1601,-1.0367,-0.4167
10713,11.0,0.000092,0.000158,-0.108963,0.000805,0.000750,-0.080842,-1.1726,-1.0368,-0.0032,0.00001301,0.00001398,-0.00000002,-0.00113493,0.00168178,0.00048878,-0.1616,0.2171,-9.7356,-0.003052,-0.001102,-0.002054,35.4937,0.0320,100,0,0,0.000247,0.000363,-0.122983,-0.000465,0.002417,-0.090293,-1.1656,-1.0393,-0.4171
10724,11.0,0.000100,0.000158,-0.083848,0.000760,-0.000977,0.109106,-1.2093,-1.0389,0.0023,0.00002420,0.00001432,-0.00000032,-0.00113684,0.00230636,-0.00079269,-0.1812,0.1960,-9.7226,-0.002418,-0.002119,-0.001024,35.4937,0.0320,95,1,0,0.000255,0.000369,-0.097402,-0.000297,0.002472,0.016597,-1.1659,-1.0381,-0.4172
10736,12.0,0.000109,0.000152,-0.097958,0.000733,0.000113,0.002349,-1.1898,-1.0426,-0.0033,0.00001598,0.00001485,-0.00000010,-0.00114505,0.00194061,0.00006245,-0.1857,0.2087,-9.7216,-0.004087,-0.002950,-0.002518,35.4937,0.0320,104,0,0,0.000265,0.000352,-0.116339,-0.000331,0.002157,-0.055266,-1.1711,-1.0398,-0.4167
10747,11.0,0.000108,0.000164,-0.097928,-0.000919,0.002131,0.003031,-1.1495,-1.0120,-0.0055,-0.00000121,0.00000155,-0.00000005,-0.00059796,0.00128209,0.00003286,-0.1784,0.1986,-9.7448,-0.001603,-0.002150,-0.001515,35.4937,0.0320,105,-1,1,0.000273,0.000358,-0.116888,-0.000310,0.002104,-0.054462,-1.1725,-1.0420,-0.4173
10758,11.0,0.000104,0.000182,-0.089756,0.000114,0.001206,0.056184,-1.1689,-1.0358,-0.0076,0.00000758,0.00001184,0.00000001,-0.00098379,0.00161434,-0.00048173,-0.1854,0.2036,-9.7187,-0.001405,-0.003222,-0.002758,35.4937,0.0320,101,0,0,0.000262,0.000397,-0.107269,-0.000333,0.002021,-0.015866,-1.1694,-1.0420,-0.4175
10769,11.0,0.000108,0.000194,-0.089133,0.000539,0.000952,0.057056,-1.1817,-1.0427,-0.0096,0.00001366,0.00001511,0.00000004,-0.00113198,0.00165299,-0.00047705,-0.1744,0.2183,-9.7272,-0.001941,-0.001053,-0.000897,35.4355,0.0320,102,0,0,0.000270,0.000403,-0.107424,-0.000336,0.002020,-0.015053,-1.1687,-1.0425,-0.4181
10780,11.0,0.000124,0.000195,-0.098147,0.002380,-0.000863,0.000616,-1.2178,-1.0764,-0.0126,0.00003298,0.00003412,0.00000013,-0.00173364,0.00226327,0.00031478,-0.1874,0.2167,-9.7092,-0.005198,-0.001967,-0.003527,35.4355,0.0330,104,1,-1,0.000272,0.000417,-0.115449,-0.000301,0.002031,-0.041518,-1.1703,-1.0404,-0.4181
10791,11.0,0.000144,0.000191,-0.079191,0.001291,0.000166,0.110067,-1.2068,-1.0671,-0.0130,0.00002467,0.00002672,0.00000009,-0.00137236,0.00194017,-0.00131378,-0.2002,0.2179,-9.7225,-0.002844,-0.003183,-0.001537,35.4355,0.0330,97,0,0,0.000314,0.000404,-0.099149,-0.000040,0.001943,0.015676,-1.1726,-1.0432,-0.5343
10802,11.0,0.000156,0.000195,-0.086915,0.000971,0.000473,0.061251,-1.2047,-1.0658,-0.0121,0.00002200,0.00002294,0.00000005,-0.00124979,0.00184739,-0.00047791,-0.1804,0.2130,-9.7437,-0.002255,-0.006131,0.000444,35.4355,0.0330,97,0,0,0.000322,0.000411,-0.098988,-0.000181,0.002031,0.016475,-1.1734,-1.0437,-0.5340
10813,11.0,0.000166,0.000200,-0.086235,0.000874,0.000535,0.062269,-1.2019,-1.0637,-0.0145,0.00001738,0.00001993,0.00000005,-0.00124212,0.00187080,-0.00047842,-0.1748,0.1909,-9.7147,-0.005285,-0.002795,-0.004171,35.4355,0.0320,105,0,0,0.000333,0.000430,-0.088808,-0.000161,0.002040,0.049811,-1.1763,-1.0457,-0.5337
10824,11.0,0.000176,0.000216,-0.078773,0.000815,0.002277,0.098200,-1.1813,-1.0639,-0.0206,-0.00000349,0.00001926,0.00000054,-0.00123659,0.00134465,-0.00123485,-0.1819,0.2042,-9.7158,-0.005959,-0.001580,-0.001326,35.4355,0.0320,95,-1,0,0.000341,0.000436,-0.088305,-0.000138,0.001967,0.050784,-1.1770,-1.0467,-0.5348
10836,12.0,0.000185,0.000237,-0.077589,0.000809,0.001233,0.099003,-1.1972,-1.0628,-0.0183,0.00000894,0.00001740,0.00000022,-0.00125116,0.00167480,-0.00122670,-0.1760,0.2012,-9.7406,-0.003974,-0.001323,-0.000934,35.4355,0.0320,99,0,0,0.000350,0.000468,-0.094402,-0.000150,0.002054,0.030904,-1.1773,-1.0462,-0.5349
10847,11.0,0.000194,0.000249,-0.085491,0.000810,0.000886,0.056467,-1.2024,-1.0633,-0.0184,0.00001301,0.00001664,0.00000010,-0.00121270,0.00174627,-0.00003901,-0.1763,0.2019,-9.7221,-0.001795,-0.001847,-0.002008,35.4355,0.0330,98,0,0,0.000366,0.000481,-0.080331,-0.000044,0.001949,0.073774,-1.1760,-1.0471,-0.5344
10859,12.0,0.000204,0.000248,-0.071694,0.000818,-0.001025,0.118691,-1.2243,-1.0637,-0.0150,0.00003615,0.00001440,-0.00000050,-0.00127274,0.00239173,-0.00188610,-0.1744,0.1982,-9.7192,-0.001931,-0.003867,-0.002662,35.4355,0.0330,108,1,0,0.000369,0.000494,-0.085964,-0.000031,0.001943,0.055316,-1.1767,-1.0466,-0.5349
10870,11.0,0.000213,0.000243,-0.078572,0.000751,0.000072,0.082273,-1.2133,-1.0668,-0.0197,0.00002096,0.00001522,-0.00000009,-0.00126681,0.00204390,-0.00062450,-0.1938,0.2124,-9.7419,-0.002615,-0.003755,-0.001540,35.4355,0.0330,102,0,0,0.000386,0.000479,-0.091329,0.000039,0.001736,0.037618,-1.1802,-1.0491,-0.5337
10881,11.0,0.000221,0.000246,-0.077662,0.000722,0.000472,0.083158,-1.2109,-1.0704,-0.0234,0.00001615,0.00001746,0.00000007,-0.00123789,0.00191375,-0.00062809,-0.1909,0.2110,-9.7261,-0.001975,-0.002478,-0.004130,35.4355,0.0320,101,0,0,0.000394,0.000485,-0.090949,0.000034,0.001942,0.038373,-1.1793,-1.0512,-0.6525
10893,12.0,0.000230,0.000253,-0.073237,0.000734,0.000585,0.098818,-1.2117,-1.0741,-0.0255,0.00001506,0.00001817,0.00000012,-0.00126271,0.00190487,-0.00124175,-0.1857,0.2107,-9.7190,-0.002335,-0.004679,-0.002578,35.4355,0.0320,101,0,0,0.000406,0.000503,-0.083590,-0.000060,0.001906,0.058362,-1.1805,-1.0524,-0.6542
10904,11.0,0.000238,0.000259,-0.072144,0.000767,0.000600,0.099793,-1.2138,-1.0764,-0.0282,0.00001211,0.00001883,0.00000016,-0.00127467,0.00192481,-0.00124125,-0.1843,0.1999,-9.7189,-0.006882,-0.002778,-0.004372,35.4355,0.0320,103,0,0,0.000414,0.000509,-0.083002,-0.000015,0.001895,0.059224,-1.1822,-1.0522,-0.6558
10915,11.0,0.000246,0.000266,-0.079045,0.000748,0.000542,0.068206,-1.2128,-1.0799,-0.0318,0.00000901,0.00001964,0.00000026,-0.00125923,0.00183488,0.00043586,-0.1904,0.1855,-9.7236,-0.001574,-0.004572,-0.004607,35.4355,0.0330,102,0,0,0.000422,0.000515,-0.088742,0.000004,0.001810,0.042177,-1.1848,-1.0520,-0.6576
10927,12.0,0.000256,0.000272,-0.068240,0.000814,0.000553,0.108524,-1.2106,-1.0808,-0.0318,0.00000322,0.00001646,0.00000030,-0.00134997,0.00191351,-0.00180468,-0.1738,0.1932,-9.7321,-0.002338,-0.004414,0.000322,35.4355,0.0330,104,0,0,0.000439,0.000527,-0.076780,0.000034,0.001605,0.074407,-1.1846,-1.0554,-0.6573
10938,11.0,0.000265,0.000278,-0.074326,0.000862,0.000579,0.081485,-1.2113,-1.0823,-0.0322,0.00000111,0.00001405,0.00000029,-0.00127760,0.00184194,-0.00003893,-0.1676,0.1985,-9.7068,-0.002885,-0.004436,-0.000777,35.4355,0.0330,93,0,0,0.000443,0.000538,-0.082149,0.000051,0.001546,0.058199,-1.1833,-1.0555,-0.6567
10949,11.0,0.000274,0.000285,-0.073425,0.000796,0.000677,0.082352,-1.2130,-1.0841,-0.0332,0.00000226,0.00001386,0.00000029,-0.00125354,0.00179310,-0.00004039,-0.1879,0.2149,-9.7272,-0.001380,-0.002964,-0.001442,35.4355,0.0330,101,0,0,0.000451,0.000544,-0.072720,0.000150,0.001482,0.083717,-1.1838,-1.0563,-0.6559
10960,11.0,0.000283,0.000283,-0.070754,0.000793,-0.001053,0.089665,-1.2289,-1.0864,-0.0285,0.00003284,0.00001330,-0.00000047,-0.00125520,0.00228149,-0.00051348,-0.1828,0.2018,-9.7327,-0.001487,-0.004145,-0.000618,35.4355,0.0330,100,1,0,0.000467,0.000529,-0.077914,0.000178,0.001351,0.067004,-1.1838,-1.0576,-0.6567
10971,11.0,0.000291,0.000277,-0.069762,0.000799,0.000035,0.090630,-1.2187,-1.0869,-0.0330,0.00000762,0.00001215,0.00000006,-0.00126626,0.00199580,-0.00052088,-0.1829,0.1990,-9.7192,-0.002805,-0.001663,-0.002170,35.4355,0.0330,99,0,0,0.000476,0.000535,-0.077240,0.000199,0.001333,0.067778,-1.1835,-1.0583,-0.6564
10983,12.0,0.000301,0.000280,-0.075766,0.000784,0.000370,0.066324,-1.2151,-1.0888,-0.0363,-0.00000553,0.00001316,0.00000042,-0.00123941,0.00175715,0.00172854,-0.1917,0.1807,-9.7336,-0.003176,-0.001985,-0.001401,35.4355,0.0340,101,0,0,0.000490,0.000580,-0.073103,0.000168,0.001485,0.077291,-1.1807,-1.0596,-0.6776
10994,11.0,0.000310,0.000285,-0.067041,0.000858,0.000560,0.094998,-1.2131,-1.0877,-0.0382,-0.00001310,0.00000780,0.00000053,-0.00135487,0.00178303,-0.00095674,-0.1706,0.1993,-9.7264,-0.002350,-0.002447,-0.001327,35.4355,0.0340,103,0,0,0.000498,0.000587,-0.078166,0.000134,0.001314,0.062471,-1.1815,-1.0600,-0.6779
11005,11.0,0.000319,0.000291,-0.072454,0.000859,0.000527,0.073758,-1.2137,-1.0903,-0.0408,-0.00001754,0.00000618,0.00000059,-0.00129019,0.00167430,0.00136342,-0.1789,0.1852,-9.7270,-0.003724,-0.005030,-0.003680,35.4355,0.0340,96,0,0,0.000515,0.000600,-0.076901,0.000177,0.001298,0.064018,-1.1810,-1.0593,-0.6771
11016,11.0,0.000329,0.000297,-0.071638,0.000836,0.000553,0.074623,-1.2121,-1.0915,-0.0405,-0.00002413,0.00000231,0.00000061,-0.00130669,0.00170376,0.00136395,-0.1794,0.1946,-9.7265,-0.001991,-0.004527,0.000436,35.4355,0.0330,98,0,0,0.000520,0.000609,-0.073743,0.000241,0.001304,0.071547,-1.1817,-1.0581,-0.6773
11027,11.0,0.000338,0.000304,-0.069619,0.000847,0.000624,0.079486,-1.2133,-1.0923,-0.0439,-0.00002674,0.00000019,0.00000061,-0.00128756,0.00167925,0.00088331,-0.1766,0.2028,-9.7219,-0.003628,-0.002429,-0.005468,35.4355,0.0330,98,0,0,0.000528,0.000615,-0.073023,0.000321,0.001310,0.072444,-1.1815,-1.0591,-0.6767
11039,12.0,0.000348,0.000312,-0.068658,0.000784,0.000720,0.080644,-1.2149,-1.0933,-0.0449,-0.00002636,0.00000101,0.00000063,-0.00126196,0.00164281,0.00088208,-0.1912,0.2125,-9.7084,-0.001999,-0.000815,-0.001311,35.4355,0.0330,97,0,0,0.000545,0.000628,-0.077449,0.000338,0.001547,0.058907,-1.1828,-1.0580,-0.6785
11050,11.0,0.000356,0.000319,-0.078681,0.000779,0.000671,0.046381,-1.2171,-1.0968,-0.0462,-0.00002458,0.00000112,0.00000059,-0.00117322,0.00156407,0.00584183,-0.1882,0.2112,-9.7283,-0.002570,-0.005353,-0.002497,35.5280,0.0330,101,0,0,0.000553,0.000634,-0.069143,0.000316,0.001587,0.080227,-1.1841,-1.0576,-0.6787
11062,12.0,0.000366,0.000328,-0.070164,0.000785,0.000780,0.072317,-1.2213,-1.0980,-0.0491,-0.00001586,0.00000013,0.00000056,-0.00125150,0.00155990,0.00202867,-0.1856,0.2298,-9.7381,-0.001287,-0.002217,-0.003081,35.5280,0.0330,100,0,0,0.000567,0.000651,-0.077365,0.000264,0.001654,0.056371,-1.1854,-1.0579,-0.6790
11073,11.0,0.000374,0.000337,-0.079224,0.000809,0.000772,0.042329,-1.2237,-1.0991,-0.0500,-0.00001296,-0.00000101,0.00000045,-0.00114733,0.00149190,0.00702827,-0.1815,0.2197,-9.7228,-0.002488,-0.002259,-0.002278,35.5280,0.0330,95,0,0,0.000576,0.000657,-0.086607,0.000276,0.001760,0.031079,-1.1847,-1.0575,-0.6801
11084,11.0,0.000383,0.000345,-0.078753,0.000835,0.000706,0.043253,-1.2248,-1.0984,-0.0513,-0.00001552,-0.00000576,0.00000041,-0.00118555,0.00153461,0.00702968,-0.1777,0.2016,-9.7154,-0.003288,-0.001552,-0.002132,35.5280,0.0330,97,0,0,0.000584,0.000663,-0.086293,0.000142,0.001624,0.031787,-1.1886,-1.0540,-0.4384
11095,11.0,0.000392,0.000353,-0.079448,0.000834,0.000737,0.040345,-1.2277,-1.0982,-0.0535,-0.00001576,-0.00000728,0.00000038,-0.00115679,0.00151859,0.00768364,-0.1826,0.2119,-9.7369,-0.004785,-0.000237,-0.003709,35.5280,0.0330,102,0,0,0.000597,0.000680,-0.085409,0.000199,0.001433,0.033200,-1.1875,-1.0533,-0.4376
11106,11.0,0.000401,0.000360,-0.079000,0.000797,0.000623,0.040960,-1.2261,-1.1002,-0.0528,-0.00002304,-0.00000828,0.00000036,-0.00114875,0.00159964,0.00768497,-0.1881,0.1917,-9.7428,-0.001464,-0.003545,-0.000366,35.5280,0.0330,104,0,0,0.000605,0.000687,-0.085074,0.000248,0.001462,0.033811,-1.1882,-1.0520,-0.4386
11118,12.0,0.000411,0.000368,-0.087946,0.000785,0.000671,0.013593,-1.2280,-1.1030,-0.0546,-0.00002239,-0.00000845,0.00000034,-0.00104035,0.00148712,0.01352560,-0.1888,0.2163,-9.7158,-0.002478,-0.004114,-0.002808,35.5280,0.0330,100,0,0,0.000622,0.000699,-0.084168,0.000229,0.001367,0.035586,-1.1869,-1.0531,-0.4379
11129,11.0,0.000420,0.000375,-0.078943,0.000827,0.000602,0.040796,-1.2270,-1.1032,-0.0558,-0.00003259,-0.00001299,0.00000036,-0.00118865,0.00168498,0.00782277,-0.1785,0.1888,-9.7129,-0.003606,-0.002502,-0.002519,35.5624,0.0330,101,0,0,0.000630,0.000705,-0.083808,0.000211,0.001387,0.036402,-1.1882,-1.0541,-0.4388
11140,11.0,0.000429,0.000382,-0.088562,0.000773,0.000606,0.011846,-1.2280,-1.1056,-0.0574,-0.00003563,-0.00001254,0.00000045,-0.00106843,0.00151479,0.01463392,-0.1956,0.2007,-9.7242,-0.002691,-0.003602,-0.001860,35.5624,0.0330,102,0,0,0.000636,0.000715,-0.093600,0.000214,0.001326,0.005213,-1.1893,-1.0538,-0.4391
11151,11.0,0.000437,0.000388,-0.088428,0.000807,0.000561,0.012584,-1.2269,-1.1075,-0.0575,-0.00004490,-0.00001587,0.00000050,-0.00110066,0.00157616,0.01463553,-0.1822,0.1925,-9.7248,-0.002567,-0.004555,-0.000652,35.5624,0.0330,104,0,0,0.000653,0.000727,-0.093213,0.000316,0.001210,0.006369,-1.1898,-1.0569,-0.4377
11162,11.0,0.000446,0.000395,-0.088776,0.000761,0.000661,0.011824,-1.2268,-1.1099,-0.0587,-0.00004566,-0.00001555,0.00000052,-0.00109711,0.00156148,0.01499436,-0.1948,0.2169,-9.7305,-0.000144,-0.003586,-0.001712,35.5624,0.0330,103,0,0,0.000661,0.000733,-0.093147,0.000332,0.001131,0.006935,-1.1888,-1.0576,-0.4374
11173,11.0,0.000455,0.000402,-0.088641,0.000852,0.000684,0.012592,-1.2303,-1.1097,-0.0611,-0.00004362,-0.00002347,0.00000051,-0.00117055,0.00154582,0.01499529,-0.1728,0.2147,-9.7214,-0.004817,-0.003234,-0.002339,35.5624,0.0330,103,0,0,0.000669,0.000739,-0.093074,0.000246,0.001232,0.007483,-1.1880,-1.0582,-0.4368
11184,11.0,0.000464,0.000410,-0.098187,0.000845,0.000711,-0.014507,-1.2318,-1.1104,-0.0621,-0.00004343,-0.00002681,0.00000041,-0.00099782,0.00138899,0.02271463,-0.1802,0.2141,-9.7125,-0.002299,-0.002145,-0.002192,35.5624,0.0330,101,0,0,0.000683,0.000756,-0.092487,0.000158,0.001383,0.009946,-1.1902,-1.0567,-0.3489
11195,11.0,0.000474,0.000418,-0.088537,0.000890,0.000730,0.014174,-1.2342,-1.1086,-0.0636,-0.00004048,-0.00003862,0.00000032,-0.00121705,0.00153770,0.01462270,-0.1691,0.2165,-9.7355,-0.002765,-0.001861,-0.000987,35.4699,0.0330,98,0,0,0.000691,0.000762,-0.099562,0.000185,0.001417,-0.011164,-1.1911,-1.0563,-0.3492
11206,11.0,0.000473,0.000426,-0.093813,-0.000900,0.000706,-0.000651,-1.2366,-1.1013,-0.0574,-0.00003821,-0.00008853,-0.00000120,-0.00068721,0.00145899,0.01928160,-0.1991,0.2163,-9.7237,-0.003043,-0.003881,-0.000150,35.4699,0.0330,103,0,1,0.000680,0.000776,-0.087034,0.000284,0.001547,0.027479,-1.1925,-1.0539,-0.3500
11217,11.0,0.000470,0.000433,-0.093816,0.000241,0.000702,-0.000030,-1.2391,-1.1066,-0.0635,-0.00003890,-0.00006398,-0.00000029,-0.00103058,0.00146628,0.01928902,-0.1737,0.2108,-9.7305,-0.004317,-0.001769,-0.002916,35.4699,0.0330,99,0,0,0.000671,0.000787,-0.093646,0.000109,0.001584,0.007714,-1.1927,-1.0539,-0.3496
11228,11.0,0.000474,0.000441,-0.089979,0.000641,0.000674,0.011272,-1.2398,-1.1091,-0.0642,-0.00004088,-0.00005646,-0.00000004,-0.00115938,0.00152222,0.01576996,-0.1756,0.2042,-9.7508,-0.001736,-0.001900,0.000214,35.4699,0.0330,102,0,0,0.000679,0.000794,-0.093566,0.000152,0.001599,0.008145,-1.1937,-1.0530,-0.3499
11239,11.0,0.000492,0.000448,-0.089850,0.002376,0.000636,0.012177,-1.2392,-1.1219,-0.0694,-0.00004699,0.00000319,0.00000146,-0.00159498,0.00156469,0.01578064,-0.1993,0.2013,-9.7079,-0.001429,-0.003147,-0.001443,35.4699,0.0330,98,0,-1,0.000724,0.000806,-0.088488,0.000236,0.001730,0.023439,-1.1947,-1.0536,-0.3503
11250,11.0,0.000512,0.000455,-0.095170,0.001334,0.000576,-0.002498,-1.2403,-1.1192,-0.0688,-0.00005164,-0.00002726,0.00000082,-0.00124303,0.00141413,0.02113802,-0.1990,0.1934,-9.7177,-0.003108,-0.003896,-0.002140,35.4699,0.0330,103,0,0,0.000732,0.000813,-0.088250,0.000129,0.001691,0.024156,-1.1941,-1.0534,-0.3497
11261,11.0,0.000525,0.000462,-0.086349,0.001054,0.000614,0.023262,-1.2370,-1.1146,-0.0715,-0.00006724,-0.00005020,0.00000063,-0.00139152,0.00164684,0.01219555,-0.1707,0.1909,-9.7180,-0.000142,0.000123,-0.004709,35.4699,0.0330,93,0,0,0.000744,0.000831,-0.095601,0.000144,0.001475,-0.000912,-1.1929,-1.0548,-0.3484
11272,11.0,0.000526,0.000469,-0.090078,-0.000711,0.000684,0.012566,-1.2388,-1.1047,-0.0684,-0.00006965,-0.00011530,-0.00000107,-0.00079497,0.00153837,0.01634787,-0.1687,0.2119,-9.7408,-0.003540,-0.001211,-0.004271,35.4355,0.0330,102,0,1,0.000752,0.000838,-0.101326,0.000180,0.001466,-0.019538,-1.1930,-1.0540,-0.3492
11283,11.0,0.000523,0.000476,-0.089937,0.000235,0.000586,0.013146,-1.2371,-1.1121,-0.0712,-0.00008174,-0.00008400,-0.00000026,-0.00104233,0.00162075,0.01635489,-0.1898,0.1907,-9.7373,-0.001440,-0.003876,-0.002120,35.4355,0.0330,101,0,0,0.000734,0.000845,-0.101520,0.000081,0.001421,-0.019365,-1.1943,-1.0522,-0.2766
11295,12.0,0.000528,0.000483,-0.085603,0.000579,0.000628,0.025683,-1.2364,-1.1163,-0.0733,-0.00008488,-0.00007226,0.00000014,-0.00121767,0.00169211,0.01175553,-0.1908,0.2074,-9.7259,0.000092,-0.003448,-0.001263,35.4355,0.0330,105,0,0,0.000746,0.000861,-0.092900,0.000075,0.001278,0.009547,-1.1922,-1.0539,-0.2773
11306,11.0,0.000535,0.000489,-0.085315,0.000678,0.000522,0.026540,-1.2346,-1.1183,-0.0721,-0.00010967,-0.00006396,0.00000037,-0.00122799,0.00182451,0.01175832,-0.1979,0.1727,-9.7169,-0.005044,-0.001025,-0.000178,35.4355,0.0320,99,0,0,0.000754,0.000867,-0.092802,0.000073,0.001285,0.010008,-1.1921,-1.0543,-0.2771
11317,11.0,0.000543,0.000496,-0.089158,0.000732,0.000603,0.015541,-1.2347,-1.1203,-0.0734,-0.00011381,-0.00006294,0.00000051,-0.00114647,0.00169411,0.01657199,-0.1896,0.2085,-9.7308,-0.001222,-0.002837,-0.001408,35.4355,0.0320,96,0,0,0.000762,0.000874,-0.087407,-0.000035,0.001058,0.027139,-1.1936,-1.0532,-0.2767
11328,11.0,0.000561,0.000502,-0.081148,0.002375,0.000571,0.038456,-1.2348,-1.1320,-0.0793,-0.00011896,-0.00000511,0.00000204,-0.00174155,0.00192177,0.00726868,-0.1935,0.2028,-9.7183,-0.002009,-0.005270,-0.002804,35.4355,0.0320,106,0,-1,0.000803,0.000887,-0.086855,-0.000086,0.001061,0.028049,-1.1925,-1.0547,-0.2769
11339,11.0,0.000581,0.000509,-0.084771,0.001415,0.000562,0.027744,-1.2343,-1.1273,-0.0790,-0.00012912,-0.00004458,0.00000134,-0.00136308,0.00174470,0.01219589,-0.1792,0.1849,-9.7313,-0.001613,-0.001364,-0.002019,35.4355,0.0330,100,0,0,0.000819,0.000896,-0.093068,-0.000103,0.001054,0.009056,-1.1925,-1.0564,-0.2775
11350,11.0,0.000595,0.000515,-0.084462,0.001070,0.000518,0.028445,-1.2330,-1.1258,-0.0798,-0.00014958,-0.00006683,0.00000111,-0.00131122,0.00183167,0.01219595,-0.1799,0.1826,-9.7308,-0.003914,-0.003224,-0.002908,35.4355,0.0330,100,0,0,0.000836,0.000910,-0.086165,0.000012,0.000945,0.029248,-1.1925,-1.0546,-0.2773
11361,11.0,0.000606,0.000521,-0.081039,0.000982,0.000539,0.038153,-1.2337,-1.1266,-0.0799,-0.00015705,-0.00007908,0.00000098,-0.00129730,0.00185963,0.00825611,-0.1690,0.1937,-9.7112,-0.002862,-0.003843,-0.000760,35.4355,0.0330,98,0,0,0.000844,0.000916,-0.085871,0.000093,0.000769,0.029727,-1.1930,-1.0549,-0.2772
11372,11.0,0.000616,0.000527,-0.080614,0.000856,0.000588,0.039025,-1.2347,-1.1269,-0.0811,-0.00016112,-0.00008966,0.00000087,-0.00128798,0.00185541,0.00825556,-0.1851,0.2084,-9.7186,-0.002892,-0.003221,-0.001913,35.4355,0.0310,98,0,0,0.000852,0.000923,-0.085570,0.000179,0.000731,0.030393,-1.1927,-1.0545,-0.2769
11383,11.0,0.000625,0.000533,-0.084374,0.000772,0.000597,0.027790,-1.2364,-1.1290,-0.0830,-0.00016299,-0.00009179,0.00000086,-0.00117076,0.00172829,0.01379086,-0.1958,0.2084,-9.7357,-0.003230,-0.003667,-0.003105,35.4355,0.0310,99,0,0,0.000865,0.000936,-0.079756,0.000143,0.000639,0.046216,-1.1949,-1.0529,-0.1090
11394,11.0,0.000633,0.000540,-0.076951,0.000763,0.000663,0.048888,-1.2365,-1.1307,-0.0840,-0.00015419,-0.00009886,0.00000078,-0.00137368,0.00187433,0.00424882,-0.1844,0.2253,-9.7124,0.002054,-0.004719,-0.000531,35.4355,0.0310,100,0,0,0.000873,0.000942,-0.085014,0.000040,0.000632,0.030512,-1.1953,-1.0534,-0.1093
11405,11.0,0.000642,0.000547,-0.080510,0.000791,0.000556,0.037963,-1.2373,-1.1336,-0.0846,-0.00015975,-0.00009950,0.00000091,-0.00126512,0.00172163,0.00985374,-0.1899,0.1893,-9.7324,-0.002498,-0.004799,-0.000404,35.4355,0.0330,99,0,0,0.000888,0.000955,-0.084392,0.000124,0.000742,0.031702,-1.1942,-1.0551,-0.1081
11416,11.0,0.000651,0.000553,-0.080089,0.000858,0.000522,0.038733,-1.2377,-1.1353,-0.0865,-0.00017251,-0.00011051,0.00000094,-0.00132805,0.00177609,0.00985581,-0.1776,0.1947,-9.7266,-0.004203,-0.005742,-0.002805,35.4699,0.0330,98,0,0,0.000893,0.000962,-0.083190,0.000099,0.000664,0.034939,-1.1937,-1.0557,-0.1073
11427,11.0,0.000660,0.000559,-0.078467,0.000835,0.000608,0.042899,-1.2392,-1.1361,-0.0870,-0.00017916,-0.00011324,0.00000104,-0.00134106,0.00176739,0.00817985,-0.1898,0.2040,-9.7266,-0.003846,-0.001776,-0.000379,35.4699,0.0330,106,0,0,0.000901,0.000968,-0.082839,0.000025,0.000604,0.035432,-1.1945,-1.0568,-0.1079
11438,11.0,0.000669,0.000566,-0.077991,0.000827,0.000595,0.043678,-1.2402,-1.1355,-0.0889,-0.00018884,-0.00012372,0.00000101,-0.00137187,0.00180297,0.00818092,-0.1822,0.2001,-9.7274,-0.004241,-0.001778,-0.002967,35.4699,0.0310,96,0,0,0.000917,0.000981,-0.079106,-0.000030,0.000514,0.045068,-1.1947,-1.0588,-0.1088
11449,11.0,0.000678,0.000573,-0.082947,0.000809,0.000626,0.028910,-1.2414,-1.1358,-0.0911,-0.00019253,-0.00012886,0.00000096,-0.00119293,0.00161691,0.01605684,-0.1846,0.2074,-9.7217,-0.002721,-0.001431,-0.003689,35.4699,0.0310,100,0,0,0.000925,0.000988,-0.078652,-0.000007,0.000555,0.045751,-1.1953,-1.0591,-0.1085
11460,11.0,0.000687,0.000580,-0.075807,0.000796,0.000576,0.049256,-1.2430,-1.1373,-0.0927,-0.00019961,-0.00013460,0.00000093,-0.00139717,0.00186768,0.00608193,-0.1879,0.2015,-9.7192,-0.004601,-0.003810,-0.003075,35.4699,0.0310,97,0,0,0.000928,0.000994,-0.086892,-0.000019,0.000574,0.017606,-1.1951,-1.0587,-0.1093
11471,11.0,0.000696,0.000586,-0.080512,0.000822,0.000628,0.035031,-1.2447,-1.1394,-0.0944,-0.00020189,-0.00013704,0.00000092,-0.00123726,0.00169295,0.01386672,-0.1873,0.2131,-9.7195,-0.003433,-0.003899,-0.002663,35.4699,0.0330,102,0,0,0.000943,0.001006,-0.095244,-0.000024,0.000548,-0.009461,-1.1953,-1.0617,-0.1096
11482,11.0,0.000705,0.000593,-0.080122,0.000858,0.000694,0.035711,-1.2495,-1.1404,-0.0968,-0.00019378,-0.00014569,0.00000086,-0.00127727,0.00164622,0.01386645,-0.1835,0.2261,-9.7300,-0.005848,-0.003645,-0.002499,35.4699,0.0330,99,0,0,0.000951,0.001012,-0.083072,-0.000053,0.000599,0.030218,-1.1955,-1.0635,-0.1514
11493,11.0,0.000714,0.000601,-0.078536,0.000821,0.000610,0.040022,-1.2501,-1.1428,-0.0985,-0.00019644,-0.00014870,0.00000084,-0.00129248,0.00166708,0.01206965,-0.1914,0.1999,-9.7119,-0.001640,-0.004492,-0.002876,35.4699,0.0330,99,0,0,0.000958,0.001019,-0.082767,-0.000055,0.000775,0.030747,-1.1970,-1.0633,-0.1518
11505,12.0,0.000724,0.000598,-0.078051,0.000749,-0.001080,0.040788,-1.2576,-1.1458,-0.0948,-0.00014447,-0.00014726,-0.00000093,-0.00127142,0.00212106,0.01207994,-0.2005,0.1960,-9.7301,-0.003803,-0.004067,-0.003613,35.4699,0.0310,101,1,0,0.000969,0.001033,-0.091044,-0.000236,0.000699,0.004423,-1.1967,-1.0640,-0.1522
11516,11.0,0.000732,0.000592,-0.083017,0.000755,-0.000060,0.025692,-1.2541,-1.1469,-0.0981,-0.00019763,-0.00014854,0.00000047,-0.00110527,0.00163849,0.02041990,-0.1939,0.1925,-9.7414,-0.003496,-0.001972,0.001064,35.4699,0.0310,97,0,0,0.000975,0.001014,-0.085936,-0.000325,0.000540,0.020456,-1.1969,-1.0654,-0.1523
11527,11.0,0.000731,0.000604,-0.075918,-0.000779,0.001901,0.045893,-1.2463,-1.1400,-0.1007,-0.00029642,-0.00022239,0.00000099,-0.00095821,0.00143419,0.00983994,-0.1848,0.1950,-9.7419,-0.005384,-0.002077,-0.001007,35.4699,0.0310,100,-1,1,0.000965,0.001051,-0.085521,-0.000405,0.000530,0.021125,-1.1970,-1.0654,-0.1507
11538,11.0,0.000728,0.000620,-0.080644,0.000272,0.001025,0.031547,-1.2513,-1.1450,-0.1029,-0.00027117,-0.00018572,0.00000128,-0.00101688,0.00141129,0.01803029,-0.1791,0.1892,-9.7209,-0.004112,-0.002030,-0.003032,35.4699,0.0320,99,0,0,0.000955,0.001069,-0.093390,-0.000471,0.000515,-0.002754,-1.1981,-1.0649,-0.1502
11549,11.0,0.000733,0.000629,-0.080292,0.000619,0.000789,0.032423,-1.2523,-1.1467,-0.1051,-0.00026413,-0.00018120,0.00000138,-0.00113247,0.00147858,0.01803426,-0.1847,0.2109,-9.7083,-0.000860,-0.002684,-0.002508,35.4699,0.0320,101,0,0,0.000970,0.001082,-0.088454,-0.000506,0.000236,0.011974,-1.1972,-1.0652,-0.1497
11560,11.0,0.000741,0.000637,-0.078582,0.000729,0.000627,0.036916,-1.2530,-1.1482,-0.1064,-0.00026831,-0.00017890,0.00000155,-0.00118495,0.00149929,0.01590236,-0.1911,0.1908,-9.7361,-0.002155,-0.002087,-0.001493,35.4699,0.0320,103,0,0,0.000977,0.001089,-0.088332,-0.000434,0.000283,0.012392,-1.1970,-1.0642,-0.1508
11570,10.0,0.000748,0.000643,-0.078208,0.000789,0.000599,0.037748,-1.2527,-1.1471,-0.1066,-0.00027643,-0.00019392,0.00000153,-0.00125698,0.00153733,0.01590432,-0.1763,0.2037,-9.7072,-0.001646,-0.002014,0.000425,35.4699,0.0300,100,0,0,0.000985,0.001096,-0.088207,-0.000402,0.000199,0.012722,-1.1967,-1.0635,-0.1500
11581,11.0,0.000757,0.000650,-0.083139,0.000825,0.000528,0.022959,-1.2552,-1.1491,-0.1073,-0.00028070,-0.00020154,0.00000143,-0.00105525,0.00133726,0.02443978,-0.1777,0.1998,-9.7195,-0.004969,-0.004427,-0.001521,35.4699,0.0300,105,0,0,0.000993,0.001106,-0.083917,-0.000211,0.000344,0.025022,-1.1970,-1.0633,-0.2372
11592,11.0,0.000766,0.000656,-0.075984,0.000738,0.000518,0.043653,-1.2547,-1.1512,-0.1073,-0.00029502,-0.00020136,0.00000146,-0.00123631,0.00161139,0.01340202,-0.2006,0.1986,-9.7252,-0.002457,-0.003318,-0.001144,35.4699,0.0300,97,0,0,0.001001,0.001112,-0.090342,-0.000114,0.000323,0.006304,-1.1977,-1.0628,-0.2379
11603,11.0,0.000774,0.000661,-0.080684,0.000845,0.000510,0.029485,-1.2548,-1.1519,-0.1092,-0.00030819,-0.00020824,0.00000160,-0.00104249,0.00136779,0.02173667,-0.1733,0.1873,-9.7073,-0.002566,-0.002386,-0.002527,35.4699,0.0320,102,0,0,0.001008,0.001118,-0.090277,-0.000181,0.000294,0.006620,-1.1974,-1.0633,-0.2370
11614,11.0,0.000784,0.000667,-0.080356,0.000881,0.000555,0.030152,-1.2545,-1.1507,-0.1122,-0.00032518,-0.00022755,0.00000164,-0.00110713,0.00139755,0.02173816,-0.1751,0.1990,-9.7241,-0.003230,-0.002132,-0.004082,35.4699,0.0320,103,0,0,0.001019,0.001128,-0.086369,-0.000101,0.000135,0.017752,-1.1977,-1.0628,-0.2383
11625,11.0,0.000803,0.000673,-0.078665,0.002526,0.000528,0.034966,-1.2562,-1.1588,-0.1176,-0.00033401,-0.00016427,0.00000346,-0.00148333,0.00139817,0.01955786,-0.1763,0.1939,-9.7062,-0.004425,-0.003374,-0.002859,35.4699,0.0320,98,0,-1,0.001027,0.001135,-0.086190,-0.000045,0.000122,0.018123,-1.1971,-1.0634,-0.2395
11636,11.0,0.000824,0.000679,-0.078277,0.001423,0.000550,0.035496,-1.2529,-1.1537,-0.1136,-0.00034556,-0.00023155,0.00000209,-0.00126934,0.00141641,0.01955278,-0.1799,0.2039,-9.7386,0.002731,-0.003126,0.002239,35.4699,0.0300,106,0,0,0.001061,0.001141,-0.092593,0.000133,0.000064,0.000169,-1.1980,-1.0644,-0.2401
11647,11.0,0.000837,0.000686,-0.083226,0.000981,0.000597,0.020612,-1.2545,-1.1525,-0.1135,-0.00035029,-0.00025267,0.00000161,-0.00099743,0.00121216,0.02821510,-0.1959,0.2100,-9.7207,-0.003629,-0.001391,-0.001523,35.4699,0.0300,99,0,0,0.001075,0.001154,-0.082102,0.000116,0.000275,0.029401,-1.1986,-1.0637,-0.2381
11659,12.0,0.000848,0.000684,-0.076031,0.000861,-0.000932,0.041633,-1.2640,-1.1531,-0.1092,-0.00027150,-0.00027124,-0.00000051,-0.00122078,0.00178767,0.01696869,-0.1836,0.2239,-9.7139,-0.003078,-0.004255,0.000384,35.4699,0.0300,95,1,0,0.001080,0.001159,-0.088901,0.000114,0.000338,0.006389,-1.1997,-1.0634,-0.2379
11670,11.0,0.000858,0.000680,-0.080777,0.000870,0.000101,0.027005,-1.2611,-1.1526,-0.1118,-0.00031916,-0.00028248,0.00000027,-0.00100349,0.00137030,0.02541638,-0.1754,0.2168,-9.7363,-0.002714,-0.001074,-0.001701,35.4699,0.0310,104,0,0,0.001094,0.001147,-0.084898,0.000118,0.000408,0.019665,-1.1998,-1.0639,-0.2362
11681,11.0,0.000867,0.000693,-0.080477,0.000874,0.001988,0.027609,-1.2542,-1.1520,-0.1169,-0.00041470,-0.00030275,0.00000219,-0.00105184,0.00095443,0.02540684,-0.1767,0.2067,-9.7259,-0.003648,-0.003043,-0.001328,35.4699,0.0310,105,-1,0,0.001104,0.001157,-0.084700,0.000053,0.000348,0.019944,-1.2031,-1.0598,0.0327
11692,11.0,0.000876,0.000719,-0.082398,0.000854,0.002621,0.021796,-1.2518,-1.1531,-0.1194,-0.00045493,-0.00031218,0.00000290,-0.00093541,0.00067829,0.02901193,-0.1808,0.1930,-9.7187,-0.002412,-0.003308,-0.001759,35.5861,0.0310,105,-1,0,0.001111,0.001187,-0.084499,0.000080,0.000458,0.020282,-1.2034,-1.0598,0.0326
11703,11.0,0.000886,0.000739,-0.082155,0.000834,0.001326,0.022440,-1.2572,-1.1519,-0.1167,-0.00041001,-0.00032608,0.00000140,-0.00096800,0.00101887,0.02902032,-0.1840,0.1990,-9.7187,-0.003283,-0.001060,-0.000739,35.5861,0.0310,106,0,0,0.001122,0.001211,-0.086004,0.000110,0.000420,0.015788,-1.2020,-1.0593,0.0307
11714,11.0,0.000895,0.000751,-0.091230,0.000914,0.000808,-0.004268,-1.2609,-1.1526,-0.1168,-0.00039570,-0.00034052,0.00000071,-0.00061438,0.00077684,0.04412515,-0.1634,0.1976,-9.7313,-0.004286,-0.003432,-0.002129,35.5861,0.0310,100,0,0,0.001130,0.001218,-0.085844,0.000113,0.000423,0.016204,-1.2027,-1.0588,0.0306
11725,11.0,0.000905,0.000759,-0.083389,0.000869,0.000733,0.018959,-1.2631,-1.1518,-0.1164,-0.00038482,-0.00035955,0.00000037,-0.00088962,0.00104443,0.03138454,-0.1799,0.2227,-9.7403,-0.002042,-0.002643,0.001072,35.5861,0.0310,105,0,0,0.001145,0.001229,-0.098771,0.000309,0.000280,-0.022832,-1.2034,-1.0591,0.0296
11736,11.0,0.000914,0.000767,-0.092037,0.000870,0.000719,-0.006339,-1.2636,-1.1516,-0.1159,-0.00038190,-0.00037233,-0.00000009,-0.00056024,0.00076240,0.04568708,-0.1740,0.2221,-9.7251,-0.000896,-0.001755,-0.000923,35.5861,0.0310,101,0,0,0.001151,0.001235,-0.111984,0.000335,0.000397,-0.061550,-1.2046,-1.0579,0.0294
11747,11.0,0.000923,0.000775,-0.092105,0.000808,0.000711,-0.006013,-1.2659,-1.1522,-0.1176,-0.00037160,-0.00038163,-0.00000033,-0.00056241,0.00074065,0.04568665,-0.1910,0.2263,-9.7302,-0.002137,-0.002786,-0.002584,35.5280,0.0310,101,0,0,0.001158,0.001241,-0.097806,0.000411,0.000592,-0.017895,-1.2042,-1.0574,0.0296
11758,11.0,0.000932,0.000783,-0.090597,0.000797,0.000668,-0.000941,-1.2676,-1.1527,-0.1200,-0.00037134,-0.00038612,-0.00000047,-0.00058853,0.00079376,0.04316455,-0.1890,0.2127,-9.7148,-0.003176,-0.001740,-0.004389,35.5280,0.0310,101,0,0,0.001173,0.001255,-0.107188,0.000301,0.000807,-0.043438,-1.2050,-1.0568,0.0288
11769,11.0,0.000941,0.000790,-0.090605,0.000790,0.000575,-0.000550,-1.2662,-1.1530,-0.1208,-0.00038861,-0.00039594,-0.00000051,-0.00061131,0.00086665,0.04316634,-0.1881,0.1957,-9.7276,-0.001406,-0.002586,-0.001979,35.5280,0.0310,100,0,0,0.001180,0.001262,-0.094552,0.000300,0.000871,-0.005783,-1.2067,-1.0553,0.0272
11780,11.0,0.000949,0.000796,-0.097562,0.000771,0.000576,-0.020249,-1.2676,-1.1545,-0.1208,-0.00039425,-0.00039910,-0.00000045,-0.00038776,0.00061013,0.05428156,-0.1941,0.2072,-9.7131,-0.003359,-0.003126,0.000226,35.5280,0.0310,104,0,0,0.001185,0.001270,-0.104591,0.000236,0.000794,-0.034080,-1.2065,-1.0549,0.0270
11791,11.0,0.000958,0.000802,-0.089061,0.000851,0.000599,0.005367,-1.2687,-1.1532,-0.1225,-0.00040155,-0.00041984,-0.00000046,-0.00073081,0.00091402,0.04039838,-0.1729,0.2104,-9.7282,-0.003546,-0.002230,-0.001567,35.5280,0.0310,101,0,0,0.001199,0.001282,-0.114962,0.000443,0.000728,-0.061454,-1.2044,-1.0563,-0.0944
11803,12.0,0.000968,0.000810,-0.095723,0.000877,0.000591,-0.013733,-1.2694,-1.1539,-0.1219,-0.00040869,-0.00043120,-0.00000061,-0.00047799,0.00065924,0.05108035,-0.1770,0.2054,-9.7271,-0.002279,-0.002925,0.000323,35.5280,0.0320,98,0,0,0.001207,0.001289,-0.100342,0.000544,0.000746,-0.019052,-1.2048,-1.0554,-0.0948
11814,11.0,0.000978,0.000816,-0.095872,0.000893,0.000627,-0.013337,-1.2709,-1.1534,-0.1246,-0.00041019,-0.00045401,-0.00000074,-0.00053788,0.00065256,0.05108118,-0.1748,0.2176,-9.7190,-0.003027,-0.003570,-0.003353,35.5280,0.0320,98,0,0,0.001221,0.001303,-0.109765,0.000531,0.000812,-0.043780,-1.2048,-1.0550,-0.0960
11825,11.0,0.000988,0.000823,-0.095824,0.000901,0.000498,-0.012535,-1.2720,-1.1552,-0.1240,-0.00041997,-0.00046559,-0.00000082,-0.00049087,0.00061412,0.05077434,-0.1753,0.1878,-9.7337,-0.003451,-0.004923,0.000627,35.5861,0.0320,101,0,0,0.001229,0.001309,-0.110203,0.000597,0.000848,-0.043775,-1.2048,-1.0553,-0.0968
11836,11.0,0.000997,0.000828,-0.095961,0.000906,0.000483,-0.012292,-1.2690,-1.1521,-0.1241,-0.00045050,-0.00050010,-0.00000088,-0.00057154,0.00068908,0.05077698,-0.1646,0.1879,-9.7340,-0.000991,-0.001422,0.000236,35.5861,0.0300,102,0,0,0.001237,0.001315,-0.122669,0.000613,0.000741,-0.076814,-1.2043,-1.0560,-0.0949
11847,11.0,0.001007,0.000834,-0.104922,0.000794,0.000512,-0.037774,-1.2711,-1.1539,-0.1256,-0.00045769,-0.00050681,-0.00000088,-0.00028280,0.00037051,0.06456317,-0.1974,0.2087,-9.7468,-0.004885,-0.004215,-0.002350,35.5861,0.0300,100,0,0,0.001251,0.001327,-0.107287,0.000719,0.000619,-0.032277,-1.2027,-1.0571,-0.0941
11858,11.0,0.001015,0.000839,-0.095483,0.000828,0.000450,-0.009182,-1.2715,-1.1546,-0.1282,-0.00048060,-0.00052405,-0.00000086,-0.00062970,0.00076881,0.04925681,-0.1788,0.1924,-9.7335,-0.005304,-0.004684,-0.004315,35.5861,0.0300,99,0,0,0.001258,0.001333,-0.118309,0.000653,0.000634,-0.061391,-1.2029,-1.0581,-0.0944
11869,11.0,0.001025,0.000845,-0.104016,0.000866,0.000574,-0.033168,-1.2745,-1.1549,-0.1285,-0.00048743,-0.00053426,-0.00000099,-0.00033972,0.00046681,0.06231171,-0.1773,0.2179,-9.7197,-0.006152,-0.002340,-0.001029,35.5861,0.0310,98,0,0,0.001273,0.001345,-0.130315,0.000722,0.000542,-0.090713,-1.2045,-1.0588,-0.0932
11880,11.0,0.001034,0.000851,-0.104380,0.000848,0.000586,-0.032996,-1.2764,-1.1555,-0.1306,-0.00049066,-0.00055083,-0.00000112,-0.00037191,0.00047129,0.06231228,-0.1831,0.2159,-9.7280,-0.004047,-0.004179,-0.002916,35.5861,0.0310,100,0,0,0.001279,0.001351,-0.114611,0.000808,0.000661,-0.046608,-1.2046,-1.0603,-0.2579
11891,11.0,0.001043,0.000858,-0.103022,0.000846,0.000592,-0.027911,-1.2773,-1.1556,-0.1326,-0.00049700,-0.00056003,-0.00000124,-0.00038118,0.00049800,0.05967629,-0.1811,0.2074,-9.7326,-0.002802,-0.001828,-0.003712,35.5861,0.0310,102,0,0,0.001287,0.001357,-0.115077,0.000816,0.000686,-0.046714,-1.2055,-1.0607,-0.2584
11902,11.0,0.001052,0.000864,-0.103328,0.000907,0.000564,-0.027789,-1.2757,-1.1543,-0.1347,-0.00050663,-0.00059559,-0.00000141,-0.00048094,0.00052804,0.05967856,-0.1619,0.2084,-9.7357,0.000262,-0.004561,-0.002248,35.5861,0.0310,104,0,0,0.001302,0.001370,-0.111551,0.000779,0.000604,-0.034806,-1.2049,-1.0613,-0.2590
11913,11.0,0.001062,0.000871,-0.112152,0.000842,0.000617,-0.051965,-1.2768,-1.1548,-0.1364,-0.00051011,-0.00060582,-0.00000164,-0.00019471,0.00024333,0.07260425,-0.1868,0.2183,-9.7126,-0.002810,-0.002660,-0.003407,35.5861,0.0310,103,0,0,0.001310,0.001376,-0.121283,0.000904,0.000611,-0.059794,-1.2038,-1.0610,-0.2596
11924,11.0,0.001071,0.000877,-0.102081,0.000858,0.000569,-0.021369,-1.2762,-1.1545,-0.1384,-0.00052038,-0.00062740,-0.00000177,-0.00055708,0.00062275,0.05655954,-0.1759,0.2059,-9.7342,-0.001431,-0.003922,-0.002913,35.5861,0.0310,99,0,0,0.001317,0.001382,-0.121882,0.000879,0.000680,-0.059885,-1.2040,-1.0615,-0.2599
11935,11.0,0.001080,0.000884,-0.110485,0.000854,0.000670,-0.044690,-1.2785,-1.1540,-0.1389,-0.00052184,-0.00063777,-0.00000207,-0.00028353,0.00036029,0.06882361,-0.1816,0.2268,-9.7336,-0.004346,-0.001103,-0.001807,35.5861,0.0310,99,0,0,0.001333,0.001395,-0.117671,0.000896,0.000822,-0.046047,-1.2047,-1.0625,-0.2607
11946,11.0,0.001090,0.000891,-0.110975,0.000807,0.000543,-0.044310,-1.2783,-1.1542,-0.1397,-0.00054737,-0.00064543,-0.00000213,-0.00028810,0.00046007,0.06882562,-0.1925,0.1891,-9.7029,-0.004856,-0.002143,-0.002752,35.5861,0.0310,99,0,0,0.001340,0.001402,-0.118132,0.000842,0.000963,-0.046141,-1.2072,-1.0626,-0.2607
11957,11.0,0.001098,0.000897,-0.108675,0.000813,0.000554,-0.036078,-1.2791,-1.1555,-0.1405,-0.00055393,-0.00065175,-0.00000213,-0.00033842,0.00051824,0.06469333,-0.1850,0.2075,-9.7148,-0.002681,-0.003383,-0.001314,35.5861,0.0310,104,0,0,0.001348,0.001408,-0.130576,0.000761,0.000900,-0.077316,-1.2078,-1.0618,-0.2609
11968,11.0,0.001107,0.000904,-0.109072,0.000813,0.000587,-0.036047,-1.2785,-1.1530,-0.1412,-0.00057812,-0.00066368,-0.00000202,-0.00036261,0.00055890,0.06469440,-0.1868,0.1985,-9.7388,-0.003512,0.001292,-0.001092,35.6443,0.0310,107,0,0,0.001362,0.001422,-0.113089,0.000749,0.000876,-0.028737,-1.2069,-1.0617,-0.2605
11979,11.0,0.001116,0.000900,-0.119773,0.000842,-0.001018,-0.065599,-1.2852,-1.1542,-0.1390,-0.00050305,-0.00067530,-0.00000427,-0.00003466,0.00055503,0.07982546,-0.1766,0.2089,-9.7452,-0.001757,-0.004091,-0.002641,35.6443,0.0310,105,1,0,0.001370,0.001429,-0.130188,0.000773,0.000806,-0.071961,-1.2062,-1.0599,-0.2600
11990,11.0,0.001125,0.000895,-0.108896,0.000809,-0.000064,-0.032422,-1.2795,-1.1538,-0.1422,-0.00058473,-0.00068434,-0.00000279,-0.00036727,0.00078179,0.06291274,-0.1895,0.1889,-9.7247,-0.003165,-0.001450,-0.001911,35.6443,0.0310,101,0,0,0.001384,0.001417,-0.147655,0.000765,0.000710,-0.113535,-1.2053,-1.0605,-0.3382
12001,11.0,0.001134,0.000897,-0.119089,0.000873,0.000370,-0.060427,-1.2784,-1.1538,-0.1440,-0.00061165,-0.00069813,-0.00000255,-0.00004245,0.00037132,0.07717890,-0.1700,0.2132,-9.7330,-0.002403,-0.002323,-0.002435,35.6443,0.0310,100,0,0,0.001391,0.001424,-0.125608,0.000707,0.000548,-0.055236,-1.2058,-1.0590,-0.3381
12012,11.0,0.001143,0.000902,-0.119753,0.000744,0.000523,-0.060312,-1.2779,-1.1550,-0.1449,-0.00063067,-0.00069322,-0.00000234,0.00000874,0.00036192,0.07717755,-0.2081,0.2087,-9.7179,-0.002538,-0.001526,-0.001896,35.6443,0.0310,100,0,0,0.001398,0.001431,-0.126162,0.000711,0.000574,-0.055467,-1.2064,-1.0589,-0.3386
12023,11.0,0.001151,0.000908,-0.118068,0.000710,0.000465,-0.053550,-1.2763,-1.1554,-0.1465,-0.00065067,-0.00069153,-0.00000167,-0.00005974,0.00035066,0.07381418,-0.2032,0.1779,-9.7227,-0.000683,-0.001144,-0.000327,35.6443,0.0310,96,0,0,0.001413,0.001443,-0.144327,0.000500,0.000482,-0.107176,-1.2053,-1.0573,-0.3386
12034,11.0,0.001159,0.000924,-0.118656,0.000725,0.002134,-0.053400,-1.2690,-1.1561,-0.1516,-0.00075035,-0.00068960,0.00000116,-0.00005428,0.00002760,0.07380616,-0.1990,0.2057,-9.7183,-0.002271,-0.001293,0.000270,35.5280,0.0310,101,-1,0,0.001421,0.001450,-0.154365,0.000402,0.000312,-0.134569,-1.2043,-1.0567,-0.3377
12045,11.0,0.001167,0.000941,-0.125111,0.000788,0.001137,-0.069949,-1.2721,-1.1572,-0.1490,-0.00070560,-0.00069630,-0.00000030,0.00012610,0.00003562,0.08211855,-0.1813,0.2063,-9.7179,-0.000078,-0.003451,-0.000121,35.5280,0.0310,95,0,0,0.001434,0.001486,-0.130295,0.000349,0.000346,-0.056552,-1.2029,-1.0577,-0.3357
12056,11.0,0.001176,0.000961,-0.113643,0.000885,0.002351,-0.035160,-1.2674,-1.1555,-0.1523,-0.00078192,-0.00072378,0.00000124,-0.00029252,0.00017797,0.06491151,-0.1671,0.2041,-9.7231,-0.003443,-0.002591,-0.000451,35.5280,0.0310,99,-1,0,0.001439,0.001491,-0.139624,0.000359,0.000346,-0.082519,-1.2024,-1.0579,-0.3354
12067,11.0,0.001186,0.000980,-0.119800,0.000835,0.001253,-0.051230,-1.2727,-1.1553,-0.1504,-0.00073207,-0.00073090,-0.00000033,-0.00011503,0.00021081,0.07298752,-0.1906,0.2055,-9.7108,-0.002966,-0.001313,-0.001216,35.5280,0.0320,99,0,0,0.001447,0.001521,-0.140450,0.000426,0.000424,-0.082775,-1.2025,-1.0581,-0.3356
12078,11.0,0.001195,0.000971,-0.120362,0.000809,-0.002371,-0.051044,-1.2888,-1.1554,-0.1426,-0.00054188,-0.00074058,-0.00000574,-0.00014162,0.00096801,0.07300589,-0.1896,0.2209,-9.7159,-0.002136,-0.002574,-0.002317,35.5280,0.0320,103,2,0,0.001460,0.001484,-0.128099,0.000376,0.000398,-0.043774,-1.2020,-1.0590,-0.4044
12089,11.0,0.001204,0.000957,-0.115708,0.000864,-0.000479,-0.036157,-1.2812,-1.1551,-0.1493,-0.00064910,-0.00074979,-0.00000324,-0.00023489,0.00068687,0.06579934,-0.1758,0.2043,-9.7234,-0.002128,-0.001288,-0.004406,35.5518,0.0320,106,0,0,0.001467,0.001492,-0.128537,0.000372,0.000479,-0.043840,-1.2031,-1.0583,-0.4051
12101,12.0,0.001214,0.000955,-0.116142,0.000841,0.000092,-0.036193,-1.2780,-1.1562,-0.1507,-0.00071427,-0.00076523,-0.00000231,-0.00025461,0.00063049,0.06579787,-0.1858,0.1889,-9.7437,-0.004653,-0.004578,-0.000497,35.5518,0.0310,100,0,0,0.001473,0.001498,-0.139814,0.000410,0.000555,-0.074627,-1.2027,-1.0572,-0.4064
12112,11.0,0.001223,0.000968,-0.123330,0.000753,0.002046,-0.055583,-1.2696,-1.1566,-0.1582,-0.00081774,-0.00076850,0.00000075,-0.00006182,0.00002771,0.07503947,-0.2030,0.2179,-9.7554,-0.000622,-0.001647,-0.002811,35.5518,0.0310,103,-1,0,0.001488,0.001509,-0.128565,0.000391,0.000395,-0.040695,-1.2024,-1.0582,-0.4063
12124,12.0,0.001232,0.000987,-0.111949,0.000815,0.001072,-0.021672,-1.2744,-1.1560,-0.1561,-0.00078492,-0.00078106,-0.00000056,-0.00042128,0.00061146,0.05875930,-0.1829,0.2011,-9.7411,-0.004581,-0.001975,-0.000205,35.5518,0.0310,98,0,0,0.001494,0.001540,-0.128974,0.000305,0.000514,-0.040950,-1.2016,-1.0587,-0.4071
12135,11.0,0.001241,0.000997,-0.118834,0.000846,0.000721,-0.040143,-1.2764,-1.1566,-0.1559,-0.00077805,-0.00079167,-0.00000106,-0.00021195,0.00045089,0.06769554,-0.1780,0.1996,-9.7200,-0.003040,-0.003011,-0.000834,35.5518,0.0310,99,0,0,0.001507,0.001553,-0.119788,0.000322,0.000465,-0.013949,-1.2015,-1.0577,-0.4061
12146,11.0,0.001250,0.001014,-0.119274,0.000794,0.002151,-0.039889,-1.2681,-1.1572,-0.1612,-0.00088153,-0.00079934,0.00000119,-0.00020784,0.00021490,0.06768953,-0.1937,0.1918,-9.7154,-0.001831,-0.002793,-0.003303,35.5518,0.0310,102,-1,0,0.001514,0.001559,-0.119927,0.000354,0.000450,-0.013747,-1.2021,-1.0585,-0.4058
12157,11.0,0.001259,0.001031,-0.114547,0.000856,0.001107,-0.025154,-1.2729,-1.1580,-0.1608,-0.00083739,-0.00080910,-0.00000024,-0.00029968,0.00053250,0.06084898,-0.1737,0.1980,-9.7209,-0.002952,-0.003221,-0.002683,35.5518,0.0310,106,0,0,0.001529,0.001596,-0.130043,0.000276,0.000536,-0.039298,-1.1995,-1.0594,-0.4061
12168,11.0,0.001269,0.001042,-0.114823,0.000953,0.000803,-0.025075,-1.2737,-1.1527,-0.1627,-0.00083750,-0.00085168,-0.00000066,-0.00041535,0.00062804,0.06085312,-0.1550,0.2038,-9.7387,-0.002842,0.000589,-0.002070,35.5861,0.0310,104,0,0,0.001536,0.001602,-0.112398,0.000367,0.000464,0.008593,-1.1984,-1.0588,-0.4070
12179,11.0,0.001279,0.001049,-0.123104,0.000879,0.000649,-0.047532,-1.2730,-1.1534,-0.1622,-0.00083621,-0.00086762,-0.00000118,-0.00015630,0.00041250,0.07133361,-0.1785,0.2085,-9.7403,0.000529,-0.004116,-0.000602,35.5861,0.0310,100,0,0,0.001542,0.001607,-0.123006,0.000568,0.000415,-0.019409,-1.1985,-1.0578,-0.4077
12189,10.0,0.001287,0.001056,-0.111742,0.000830,0.000631,-0.014278,-1.2734,-1.1529,-0.1632,-0.00084079,-0.00087960,-0.00000131,-0.00046791,0.00076067,0.05593625,-0.1870,0.2115,-9.7331,-0.002562,-0.002040,-0.001864,35.5861,0.0310,98,0,0,0.001558,0.001621,-0.134149,0.000549,0.000380,-0.047419,-1.1994,-1.0556,-0.3136
12200,11.0,0.001296,0.001063,-0.119597,0.000763,0.000582,-0.035491,-1.2733,-1.1528,-0.1638,-0.00085101,-0.00088336,-0.00000111,-0.00026548,0.00051155,0.06589805,-0.1985,0.1973,-9.7125,-0.001933,-0.001164,-0.000396,35.5861,0.0310,101,0,0,0.001564,0.001628,-0.117144,0.000435,0.000471,-0.001987,-1.2003,-1.0564,-0.3138
12211,11.0,0.001304,0.001059,-0.119988,0.000764,-0.000999,-0.035551,-1.2783,-1.1522,-0.1612,-0.00078713,-0.00089036,-0.00000352,-0.00028556,0.00086831,0.06590661,-0.1909,0.2018,-9.7456,-0.001424,-0.001151,-0.002773,35.5861,0.0310,96,1,0,0.001571,0.001610,-0.117162,0.000238,0.000318,-0.001631,-1.1999,-1.0563,-0.3135
12222,11.0,0.001313,0.001054,-0.116246,0.000844,-0.000080,-0.023888,-1.2733,-1.1534,-0.1648,-0.00085117,-0.00090066,-0.00000211,-0.00034190,0.00072951,0.06062612,-0.1715,0.1904,-9.7329,-0.000961,-0.003870,-0.002535,35.5861,0.0310,100,0,0,0.001583,0.001609,-0.131221,0.000236,0.000209,-0.036539,-1.1984,-1.0574,-0.3134
12233,11.0,0.001322,0.001056,-0.116510,0.000863,0.000319,-0.024121,-1.2723,-1.1530,-0.1666,-0.00088372,-0.00092222,-0.00000161,-0.00038829,0.00066989,0.06062542,-0.1776,0.2080,-9.7667,-0.003967,-0.003866,-0.001034,35.5861,0.0310,101,0,0,0.001590,0.001615,-0.122302,0.000225,0.000113,-0.012992,-1.1970,-1.0582,-0.3133
12244,11.0,0.001331,0.001061,-0.124628,0.000861,0.000481,-0.045805,-1.2713,-1.1529,-0.1673,-0.00090096,-0.00093537,-0.00000157,-0.00015055,0.00039456,0.07053018,-0.1764,0.2043,-9.7178,-0.001429,-0.002351,-0.001206,35.5861,0.0310,98,0,0,0.001597,0.001621,-0.122433,0.000300,0.000155,-0.013129,-1.1978,-1.0584,-0.3132
12255,11.0,0.001340,0.001067,-0.113161,0.000801,0.000566,-0.012119,-1.2710,-1.1529,-0.1693,-0.00091294,-0.00094235,-0.00000151,-0.00043885,0.00071688,0.05554074,-0.1923,0.2093,-9.7145,-0.002397,-0.001883,-0.003022,35.5861,0.0310,100,0,0,0.001611,0.001631,-0.136515,0.000414,0.000208,-0.047393,-1.1969,-1.0563,-0.3141
12266,11.0,0.001349,0.001073,-0.120905,0.000848,0.000577,-0.033214,-1.2713,-1.1529,-0.1694,-0.00092100,-0.00095367,-0.00000166,-0.00021670,0.00048631,0.06502095,-0.1753,0.2066,-9.7338,-0.002353,-0.002384,-0.000637,35.5861,0.0310,104,0,0,0.001618,0.001638,-0.115122,0.000345,0.000281,0.006940,-1.1971,-1.0565,-0.3144
12277,11.0,0.001358,0.001079,-0.121270,0.000822,0.000550,-0.033077,-1.2696,-1.1518,-0.1695,-0.00094422,-0.00096790,-0.00000167,-0.00023765,0.00054026,0.06502235,-0.1857,0.1954,-9.7288,-0.002082,-0.001562,-0.000619,35.5861,0.0310,101,0,0,0.001625,0.001644,-0.126983,0.000397,0.000272,-0.022358,-1.1969,-1.0572,-0.3131
12289,12.0,0.001368,0.001086,-0.117333,0.000844,0.000550,-0.020806,-1.2703,-1.1523,-0.1714,-0.00095274,-0.00097724,-0.00000173,-0.00030131,0.00061846,0.05970118,-0.1793,0.2028,-9.7253,-0.002997,-0.002698,-0.002885,35.5861,0.0310,96,0,0,0.001639,0.001656,-0.127429,0.000495,0.000328,-0.022144,-1.1975,-1.0591,-0.3866
12300,11.0,0.001377,0.001092,-0.117561,0.000846,0.000522,-0.020507,-1.2688,-1.1507,-0.1722,-0.00098097,-0.00099619,-0.00000170,-0.00034103,0.00068371,0.05970315,-0.1798,0.1905,-9.7196,-0.003174,-0.001491,-0.001528,35.5861,0.0310,103,0,0,0.001646,0.001661,-0.139991,0.000531,0.000335,-0.052183,-1.1980,-1.0592,-0.3871
12311,11.0,0.001386,0.001098,-0.126411,0.000802,0.000445,-0.044471,-1.2685,-1.1519,-0.1749,-0.00099815,-0.00100323,-0.00000139,-0.00011638,0.00039830,0.07017023,-0.1911,0.1827,-9.7402,-0.002759,-0.003781,-0.003291,35.6099,0.0310,104,0,0,0.001661,0.001674,-0.131595,0.000560,0.000289,-0.030270,-1.1990,-1.0583,-0.3884
12322,11.0,0.001385,0.001103,-0.114720,-0.000784,0.000441,-0.010478,-1.2670,-1.1452,-0.1731,-0.00103663,-0.00109096,-0.00000324,-0.00009753,0.00079337,0.05548646,-0.1902,0.1803,-9.7269,-0.005003,-0.001743,-0.000960,35.6099,0.0310,99,0,1,0.001668,0.001681,-0.131898,0.000462,0.000122,-0.030309,-1.1983,-1.0587,-0.3891
12333,11.0,0.001383,0.001108,-0.123161,0.000241,0.000481,-0.033411,-1.2664,-1.1505,-0.1756,-0.00105058,-0.00104734,-0.00000159,-0.00007653,0.00053261,0.06547195,-0.1815,0.1987,-9.7288,-0.001917,-0.003939,-0.000707,35.6099,0.0310,99,0,0,0.001643,0.001690,-0.125205,0.000112,-0.000013,-0.012593,-1.1979,-1.0591,-0.3879
12344,11.0,0.001388,0.001124,-0.123528,0.000616,0.002142,-0.033365,-1.2601,-1.1513,-0.1843,-0.00114632,-0.00104162,0.00000154,-0.00017183,0.00022333,0.06546669,-0.1848,0.2078,-9.7363,-0.003889,-0.001745,-0.006039,35.6099,0.0310,96,-1,0,0.001650,0.001696,-0.125330,0.000141,0.000029,-0.012425,-1.1978,-1.0590,-0.3879
12355,11.0,0.001395,0.001141,-0.119859,0.000755,0.001193,-0.022077,-1.2647,-1.1523,-0.1852,-0.00109373,-0.00104502,-0.00000005,-0.00025108,0.00052354,0.06069672,-0.1772,0.2211,-9.7330,-0.001787,-0.003009,-0.005179,35.6099,0.0300,103,0,0,0.001658,0.001728,-0.136676,0.000162,0.000162,-0.039351,-1.1980,-1.0586,-0.3893
12366,11.0,0.001403,0.001152,-0.120100,0.000714,0.000776,-0.021761,-1.2654,-1.1538,-0.1838,-0.00108582,-0.00104430,-0.00000071,-0.00024141,0.00063261,0.06069893,-0.1997,0.2041,-9.7164,-0.001676,-0.003249,-0.000149,35.5518,0.0300,95,0,0,0.001672,0.001740,-0.119759,0.000168,0.000281,0.002486,-1.1967,-1.0608,-0.3906
12378,12.0,0.001412,0.001160,-0.126900,0.000771,0.000605,-0.039685,-1.2659,-1.1564,-0.1835,-0.00108272,-0.00105142,-0.00000105,-0.00007084,0.00048429,0.06834473,-0.1826,0.2091,-9.7265,-0.001397,-0.005680,-0.000452,35.5518,0.0300,102,0,0,0.001677,0.001744,-0.127873,0.000159,0.000213,-0.016687,-1.1956,-1.0608,-0.3904
12389,11.0,0.001421,0.001167,-0.114989,0.000753,0.000549,-0.005204,-1.2642,-1.1562,-0.1839,-0.00110166,-0.00105694,-0.00000106,-0.00035838,0.00084824,0.05401388,-0.1919,0.1950,-9.7129,-0.001747,-0.001649,-0.001221,35.5518,0.0300,100,0,0,0.001684,0.001751,-0.128039,0.000150,0.000206,-0.016470,-1.1953,-1.0611,-0.3396
12400,11.0,0.001429,0.001173,-0.121458,0.000798,0.000521,-0.022637,-1.2629,-1.1556,-0.1864,-0.00111799,-0.00106414,-0.00000077,-0.00019074,0.00063100,0.06141867,-0.1825,0.1867,-9.7216,-0.001204,-0.000942,-0.003142,35.5518,0.0310,102,0,0,0.001699,0.001764,-0.120076,0.000192,0.000252,0.004376,-1.1952,-1.0597,-0.3390
12411,11.0,0.001448,0.001179,-0.121706,0.002427,0.000465,-0.022566,-1.2606,-1.1619,-0.1907,-0.00114475,-0.00100533,0.00000157,-0.00055990,0.00070049,0.06142770,-0.1756,0.1894,-9.7389,-0.002030,-0.004309,-0.002709,35.5518,0.0310,96,0,-1,0.001730,0.001770,-0.120031,0.000271,0.000162,0.004552,-1.1940,-1.0599,-0.3390
12422,11.0,0.001468,0.001174,-0.116543,0.001374,-0.001037,-0.007344,-1.2673,-1.1580,-0.1857,-0.00107295,-0.00106241,-0.00000246,-0.00046316,0.00109927,0.05526196,-0.1913,0.2054,-9.7206,-0.002347,-0.002277,-0.001186,35.5518,0.0310,105,1,0,0.001755,0.001756,-0.129048,0.000357,-0.000017,-0.020446,-1.1944,-1.0599,-0.3390
12433,11.0,0.001481,0.001169,-0.116623,0.001051,-0.000052,-0.007161,-1.2632,-1.1557,-0.1877,-0.00113851,-0.00110468,-0.00000164,-0.00044798,0.00093521,0.05525759,-0.1747,0.2031,-9.7345,-0.003696,-0.003734,-0.000873,35.5518,0.0300,103,0,0,0.001763,0.001762,-0.138175,0.000398,0.000012,-0.045271,-1.1952,-1.0592,-0.3395
12444,11.0,0.001491,0.001171,-0.123317,0.000924,0.000268,-0.025420,-1.2624,-1.1561,-0.1901,-0.00116826,-0.00112387,-0.00000140,-0.00023369,0.00066609,0.06271483,-0.1774,0.1949,-9.7483,-0.003802,-0.004138,-0.003264,35.5518,0.0300,100,0,0,0.001777,0.001774,-0.121669,0.000466,-0.000047,0.002435,-1.1950,-1.0598,-0.3386
12455,11.0,0.001501,0.001175,-0.111804,0.000941,0.000475,0.007127,-1.2632,-1.1556,-0.1943,-0.00116636,-0.00116352,-0.00000140,-0.00057481,0.00088604,0.04950442,-0.1592,0.2263,-9.7441,-0.001772,-0.006904,-0.004613,35.5174,0.0300,106,0,0,0.001783,0.001777,-0.128713,0.000437,-0.000071,-0.016741,-1.1941,-1.0602,-0.3387
12466,11.0,0.001511,0.001181,-0.117088,0.000910,0.000530,-0.007078,-1.2643,-1.1561,-0.1962,-0.00117700,-0.00117636,-0.00000156,-0.00041307,0.00072007,0.05548436,-0.1785,0.2033,-9.7010,-0.004435,-0.003516,-0.003582,35.5174,0.0320,101,0,0,0.001790,0.001783,-0.113299,0.000586,0.000078,0.025564,-1.1938,-1.0618,-0.3397
12477,11.0,0.001521,0.001187,-0.117165,0.000884,0.000523,-0.006844,-1.2628,-1.1550,-0.1970,-0.00120247,-0.00119586,-0.00000159,-0.00044476,0.00077192,0.05548592,-0.1810,0.1925,-9.7297,-0.003141,-0.002531,-0.001595,35.5174,0.0320,101,0,0,0.001806,0.001796,-0.119640,0.000580,0.000226,0.008256,-1.1948,-1.0621,-0.4113
12488,11.0,0.001530,0.001193,-0.111652,0.000813,0.000554,0.008684,-1.2627,-1.1552,-0.1982,-0.00121310,-0.00119969,-0.00000136,-0.00054523,0.00085955,0.04933273,-0.1961,0.1989,-9.7387,-0.002402,-0.002022,-0.001324,35.5174,0.0320,95,0,0,0.001813,0.001802,-0.119556,0.000598,0.000202,0.008453,-1.1948,-1.0622,-0.4119
12499,11.0,0.001539,0.001199,-0.111554,0.000827,0.000595,0.009139,-1.2647,-1.1537,-0.2008,-0.00121249,-0.00122234,-0.00000142,-0.00059463,0.00084820,0.04933335,-0.1758,0.2188,-9.7153,-0.004312,-0.002520,-0.003099,35.5174,0.0290,106,0,0,0.001820,0.001806,-0.111603,0.000445,0.000124,0.029451,-1.1944,-1.0614,-0.4126
12510,11.0,0.001548,0.001205,-0.115088,0.000851,0.000577,-0.000830,-1.2678,-1.1549,-0.2019,-0.00121054,-0.00123521,-0.00000197,-0.00047189,0.00077235,0.05329458,-0.1736,0.2201,-9.7521,-0.005962,-0.004728,-0.003241,35.4593,0.0290,101,0,0,0.001834,0.001819,-0.115391,0.000505,0.000281,0.018457,-1.1966,-1.0605,-0.4130
12521,11.0,0.001557,0.001212,-0.104684,0.000821,0.000552,0.028134,-1.2675,-1.1541,-0.2022,-0.00123622,-0.00123973,-0.00000195,-0.00069378,0.00107407,0.04202058,-0.1933,0.1904,-9.7252,-0.005008,-0.000804,-0.001162,35.4593,0.0320,99,0,0,0.001841,0.001825,-0.115206,0.000536,0.000321,0.018603,-1.1989,-1.0605,-0.4134
12532,11.0,0.001566,0.001218,-0.108074,0.000861,0.000578,0.018267,-1.2684,-1.1537,-0.2043,-0.00124634,-0.00124808,-0.00000192,-0.00058663,0.00095223,0.04600873,-0.1800,0.2024,-9.7347,-0.004089,-0.001650,-0.003197,35.4593,0.0320,99,0,0,0.001849,0.001832,-0.102308,0.000455,0.000230,0.051815,-1.2001,-1.0600,-0.4136
12543,11.0,0.001576,0.001225,-0.107872,0.000840,0.000575,0.018435,-1.2677,-1.1536,-0.2051,-0.00126086,-0.00126034,-0.00000194,-0.00060449,0.00098003,0.04600957,-0.1871,0.2036,-9.7448,-0.002601,-0.002932,-0.001446,35.4593,0.0320,98,0,0,0.001863,0.001844,-0.106677,0.000350,0.000096,0.038735,-1.2004,-1.0585,-0.4159
12555,12.0,0.001586,0.001232,-0.101377,0.000874,0.000584,0.036214,-1.2686,-1.1532,-0.2043,-0.00126174,-0.00127645,-0.00000252,-0.00066869,0.00111426,0.03933389,-0.1658,0.2147,-9.7145,-0.002615,-0.002663,-0.000183,35.4593,0.0290,102,0,0,0.001871,0.001851,-0.111523,0.000328,0.000111,0.025547,-1.1998,-1.0588,-0.4159
12566,11.0,0.001595,0.001228,-0.100976,0.000836,-0.000985,0.036559,-1.2741,-1.1527,-0.2026,-0.00120330,-0.00130046,-0.00000482,-0.00071098,0.00145189,0.03934222,-0.1763,0.1991,-9.7357,-0.003036,-0.004491,-0.001459,35.4593,0.0290,103,1,0,0.001885,0.001840,-0.097115,0.000426,0.000116,0.060805,-1.1996,-1.0587,-0.4158
12577,11.0,0.001604,0.001223,-0.104571,0.000754,-0.000107,0.026050,-1.2688,-1.1544,-0.2059,-0.00126225,-0.00130781,-0.00000313,-0.00060035,0.00113910,0.04355194,-0.1926,0.1914,-9.7231,-0.000701,-0.004945,-0.001429,35.4593,0.0290,99,0,0,0.001891,0.001831,-0.101766,0.000451,0.000069,0.047869,-1.1999,-1.0594,-0.4166
12588,11.0,0.001612,0.001225,-0.094857,0.000796,0.000345,0.052218,-1.2672,-1.1529,-0.2084,-0.00128547,-0.00132693,-0.00000246,-0.00084123,0.00126735,0.03367724,-0.1762,0.2153,-9.7354,-0.001890,-0.002154,-0.001711,35.5174,0.0290,106,0,0,0.001897,0.001837,-0.101286,0.000423,0.000020,0.048168,-1.1973,-1.0620,-0.4769
12599,11.0,0.001621,0.001240,-0.100173,0.000825,0.002165,0.036412,-1.2592,-1.1525,-0.2137,-0.00138138,-0.00133346,0.00000035,-0.00069599,0.00077360,0.03981381,-0.1851,0.2077,-9.7383,-0.001498,-0.001521,-0.002305,35.5174,0.0320,99,-1,0,0.001912,0.001875,-0.096163,0.000500,0.000340,0.059416,-1.1977,-1.0613,-0.4775
12610,11.0,0.001630,0.001258,-0.099770,0.000826,0.001115,0.036934,-1.2618,-1.1519,-0.2120,-0.00135701,-0.00134360,-0.00000127,-0.00072195,0.00102688,0.03981986,-0.1872,0.1895,-9.7192,-0.003183,-0.002098,-0.001512,35.5174,0.0320,97,0,0,0.001920,0.001882,-0.095567,0.000486,0.000369,0.059718,-1.1976,-1.0612,-0.4777
12621,11.0,0.001639,0.001268,-0.096552,0.000870,0.000860,0.045151,-1.2639,-1.1506,-0.2135,-0.00134466,-0.00135208,-0.00000197,-0.00074448,0.00113384,0.03692514,-0.1764,0.2149,-9.7189,-0.003107,-0.000270,-0.003829,35.5174,0.0320,100,0,0,0.001934,0.001895,-0.102225,0.000533,0.000349,0.041498,-1.1971,-1.0596,-0.4782
12632,11.0,0.001648,0.001277,-0.096054,0.000874,0.000688,0.045479,-1.2633,-1.1464,-0.2145,-0.00134782,-0.00138413,-0.00000231,-0.00080820,0.00118819,0.03692743,-0.1658,0.2054,-9.7398,-0.001325,-0.000222,-0.001179,35.5174,0.0290,99,0,0,0.001941,0.001902,-0.097347,0.000596,0.000398,0.052822,-1.1978,-1.0582,-0.4789
12643,11.0,0.001657,0.001284,-0.101642,0.000789,0.000580,0.029319,-1.2643,-1.1486,-0.2152,-0.00134453,-0.00139355,-0.00000278,-0.00065600,0.00107100,0.04314937,-0.1880,0.2143,-9.7199,-0.002468,-0.006088,-0.002258,35.5174,0.0290,96,0,0,0.001948,0.001908,-0.096817,0.000699,0.000407,0.053099,-1.1971,-1.0570,-0.4792
