timestamp_ms,dt_ms,pos_x,pos_y,pos_z,vel_x,vel_y,vel_z,roll_deg,pitch_deg,yaw_deg,gyro_bias_x,gyro_bias_y,gyro_bias_z,accel_bias_x,accel_bias_y,accel_bias_z,raw_accel_x,raw_accel_y,raw_accel_z,raw_gyro_x,raw_gyro_y,raw_gyro_z,raw_baro_alt,raw_tof,raw_flow_squal,raw_flow_dx,raw_flow_dy,dev_pos_x,dev_pos_y,dev_pos_z,dev_vel_x,dev_vel_y,dev_vel_z,dev_roll_deg,dev_pitch_deg,dev_yaw_deg
9408,10.0,0.000017,-0.000001,-0.029988,0.000699,0.000682,-0.000775,-0.0015,-0.0019,-0.0010,0.00000000,0.00000000,0.00406002,-0.00000107,0.00000033,0.00000000,-0.1989,0.1498,-9.8800,-0.002302,-0.002197,0.002410,7.6917,0.0300,93,0,0,0.004283,0.003954,-0.007304,0.001341,0.000419,0.023530,-0.8401,-1.1661,-0.0981
9419,11.0,0.000006,0.000018,-0.030000,0.000380,0.000871,-0.001422,-0.4333,-0.7247,0.0028,0.00000134,0.00000226,0.00406002,-0.00036058,0.00021565,0.00000002,-0.2165,0.1288,-9.8619,-0.004816,-0.000605,0.005563,7.6917,0.0300,93,0,0,0.004287,0.003961,-0.023409,0.001182,0.000462,-0.043981,-0.8460,-1.1578,-0.0990
9430,11.0,0.000006,0.000030,-0.029645,0.000308,0.000915,0.014859,-0.5207,-0.8656,0.0047,0.00000162,0.00000272,0.00406002,-0.00085122,0.00051420,-0.00000243,-0.2287,0.1379,-9.8085,-0.002791,-0.000551,0.005129,7.6917,0.0300,94,0,0,0.004298,0.003973,-0.021321,0.000948,0.000432,-0.022189,-0.8184,-1.1764,-0.0979
9441,11.0,0.000005,0.000039,-0.028016,0.000441,-0.000782,0.058231,-0.7801,-0.9999,0.0157,0.00000383,0.00000436,0.00405996,-0.00095504,0.00137534,-0.00002707,-0.2071,0.1373,-9.8503,-0.001765,-0.003143,0.004535,7.6679,0.0280,94,1,0,0.004303,0.003951,-0.021540,0.000685,0.000050,-0.021741,-0.8177,-1.1771,-0.0948
9452,11.0,0.000009,0.000033,-0.027340,0.000503,0.000213,0.058876,-0.7041,-1.0303,0.0091,0.00000269,0.00000482,0.00406001,-0.00111888,0.00096870,-0.00004338,-0.2020,0.1391,-9.8406,-0.003958,0.001838,0.002275,7.6679,0.0280,98,0,0,0.004310,0.003951,-0.020148,0.000699,0.000059,-0.003974,-0.8025,-1.2002,-0.0938
9463,11.0,0.000014,0.000039,-0.026694,0.000558,0.000586,0.058564,-0.7198,-1.0612,0.0071,0.00000349,0.00000594,0.00406004,-0.00112184,0.00078461,-0.00004421,-0.1985,0.1494,-9.8352,-0.001401,0.003277,0.003928,7.6679,0.0280,98,0,0,0.004322,0.003968,-0.013243,0.000637,0.000253,0.076131,-0.8048,-1.2261,-0.0976
9474,11.0,0.000021,0.000046,-0.028480,0.000675,0.000752,0.013431,-0.7323,-1.0638,0.0075,0.00000383,0.00000600,0.00406003,-0.00111033,0.00083255,0.00133200,-0.1761,0.1546,-9.8523,-0.004359,0.000039,0.003825,7.6679,0.0290,91,0,0,0.004386,0.003977,-0.020775,0.001331,0.000485,-0.014411,-0.8031,-1.2313,-0.1066
9485,11.0,0.000023,0.000055,-0.028335,-0.000816,0.000712,0.012904,-0.7388,-0.9789,0.0092,0.00000413,0.00000121,0.00405994,-0.00052175,0.00083925,0.00131796,-0.1676,0.1289,-9.8546,-0.002998,-0.001210,0.001578,7.6679,0.0290,92,0,1,0.004409,0.003991,-0.015185,0.001535,0.000435,0.044519,-0.8415,-1.1784,-0.1121
9496,11.0,0.000011,0.000063,-0.028157,-0.001364,0.000795,0.013298,-0.7510,-0.9568,0.0115,0.00000494,-0.00000051,0.00405988,-0.00032641,0.00093377,0.00125532,-0.1698,0.1582,-9.8217,-0.002149,-0.001314,0.004199,7.6679,0.0290,92,0,1,0.004384,0.003997,-0.014739,0.001153,0.000488,0.044788,-0.8246,-1.1398,-0.1070
9507,11.0,-0.000006,0.000072,-0.028708,-0.001624,0.000758,0.003221,-0.7724,-0.9704,0.0132,0.00000706,0.00000100,0.00405985,-0.00015629,0.00088956,0.00255147,-0.1911,0.1511,-9.8448,-0.003843,-0.002415,0.005250,7.6679,0.0290,87,0,1,0.004361,0.004005,-0.008236,0.001093,0.000737,0.100224,-0.8240,-1.1355,-0.1010
9517,10.0,-0.000015,0.000086,-0.028657,-0.000228,0.002162,0.003328,-0.7248,-1.0291,0.0061,0.00000096,0.00000813,0.00406016,-0.00075153,0.00038254,0.00249833,-0.1941,0.1307,-9.8208,-0.002900,-0.001825,0.007398,7.6679,0.0290,95,-1,0,0.004346,0.004047,-0.017726,0.000823,0.000801,0.009522,-0.8537,-1.1044,-0.1032
9528,11.0,-0.000016,0.000105,-0.028622,0.000256,0.001154,0.003041,-0.7567,-1.0679,0.0101,0.00000555,0.00001430,0.00406007,-0.00085707,0.00074894,0.00250703,-0.2117,0.1241,-9.8304,-0.002414,-0.001119,0.002802,7.6679,0.0290,95,0,0,0.004354,0.004055,-0.009707,0.000854,0.000846,0.094914,-0.8388,-1.1276,-0.0992
9539,11.0,-0.000005,0.000117,-0.029452,0.002034,0.000867,-0.008315,-0.7712,-1.1284,0.0086,0.00000775,0.00002524,0.00406021,-0.00150169,0.00084696,0.00587752,-0.2111,0.1433,-9.8856,-0.003527,-0.001411,0.005933,7.6679,0.0300,96,0,-1,0.004359,0.004060,-0.008755,0.000638,0.000636,0.095421,-0.8398,-1.1243,-0.0990
9550,11.0,0.000012,0.000127,-0.029545,0.001131,0.000853,-0.008644,-0.7938,-1.1137,0.0101,0.00001289,0.00002176,0.00406005,-0.00115021,0.00076819,0.00586938,-0.2062,0.1699,-9.8305,-0.001174,-0.002798,0.002141,7.6679,0.0300,90,0,0,0.004396,0.004074,-0.010654,0.000653,0.000842,0.064018,-0.8342,-1.1590,-0.0995
9561,11.0,0.000023,0.000136,-0.029619,0.000792,0.000709,-0.008653,-0.7972,-1.1098,0.0097,0.00001346,0.00002078,0.00406002,-0.00110141,0.00080017,0.00573296,-0.2092,0.1321,-9.8272,-0.002036,0.000324,0.002364,7.6679,0.0300,98,0,0,0.004399,0.004083,-0.010011,0.000684,0.000820,0.064530,-0.8500,-1.1835,-0.0982
9572,11.0,0.000023,0.000143,-0.029295,-0.000858,0.000661,-0.004323,-0.7988,-1.0828,0.0138,0.00001356,0.00001297,0.00405981,-0.00052996,0.00084908,0.00306267,-0.2117,0.1359,-9.8565,-0.002241,0.000570,0.003394,7.6679,0.0290,91,0,1,0.004405,0.004091,0.000918,0.000566,0.000675,0.129920,-0.8512,-1.1834,-0.0988
9584,12.0,0.000018,0.000151,-0.029334,0.000154,0.000688,-0.004682,-0.8031,-1.1046,0.0113,0.00001398,0.00002082,0.00405995,-0.00087624,0.00086947,0.00294537,-0.1904,0.1452,-9.8506,-0.004505,0.000956,0.003710,7.6679,0.0290,94,0,0,0.004392,0.004103,-0.012299,0.000315,0.000694,0.041280,-0.8281,-1.1930,-0.0908
9595,11.0,0.000022,0.000159,-0.029386,0.000568,0.000717,-0.004788,-0.8116,-1.1063,0.0112,0.00001605,0.00002104,0.00406000,-0.00104919,0.00082867,0.00294842,-0.1731,0.1509,-9.8140,-0.005357,-0.001651,0.007206,7.6679,0.0290,93,0,0,0.004400,0.004110,-0.011885,0.000302,0.000694,0.041578,-0.8349,-1.1818,-0.0939
9606,11.0,0.000029,0.000167,-0.029762,0.000703,0.000766,-0.009047,-0.8150,-1.1089,0.0124,0.00001759,0.00002122,0.00405996,-0.00100484,0.00084978,0.00562003,-0.1810,0.1614,-9.8504,0.000181,-0.003184,0.005185,7.7577,0.0300,94,0,0,0.004412,0.004126,-0.025985,0.000346,0.000822,-0.037418,-0.8525,-1.1458,-0.1001
9618,12.0,0.000038,0.000176,-0.029875,0.000743,0.000658,-0.009786,-0.8172,-1.1098,0.0130,0.00001740,0.00002006,0.00405995,-0.00102490,0.00089017,0.00562088,-0.1841,0.1352,-9.8633,-0.003694,-0.004615,0.004492,7.7577,0.0300,93,0,0,0.004420,0.004132,-0.026361,0.000589,0.000846,-0.037807,-0.8530,-1.1461,-0.1001
9628,10.0,0.000045,0.000182,-0.029989,0.000768,0.000615,-0.010466,-0.8192,-1.1094,0.0127,0.00001727,0.00001919,0.00405993,-0.00099416,0.00088389,0.00575505,-0.1807,0.1358,-9.8528,-0.003947,-0.001873,0.003265,7.7577,0.0300,88,0,0,0.004427,0.004138,-0.032483,0.000522,0.000876,-0.068272,-0.8411,-1.1190,-0.1015
9639,11.0,0.000054,0.000189,-0.029485,0.000767,0.000638,-0.003282,-0.8224,-1.1026,0.0125,0.00001792,0.00001641,0.00405992,-0.00113099,0.00094757,-0.00020834,-0.1780,0.1448,-9.8170,-0.003642,0.003350,0.004638,7.7577,0.0290,92,0,0,0.004443,0.004151,-0.032269,0.000763,0.000749,-0.061318,-0.8362,-1.1024,-0.1016
9650,11.0,0.000062,0.000196,-0.029533,0.000660,0.000622,-0.003745,-0.8236,-1.1042,0.0121,0.00001757,0.00001709,0.00405994,-0.00114855,0.00093575,-0.00009836,-0.2060,0.1377,-9.8373,-0.002697,-0.000960,0.003825,7.7577,0.0290,92,0,0,0.004451,0.004158,-0.036898,0.000801,0.000792,-0.082231,-0.8361,-1.0988,-0.1004
9663,13.0,0.000069,0.000205,-0.029586,0.000587,0.000712,-0.004328,-0.8312,-1.1127,0.0118,0.00002103,0.00002294,0.00405996,-0.00106860,0.00087016,-0.00010036,-0.2146,0.1584,-9.8514,-0.003964,-0.000929,0.003553,7.7577,0.0290,89,0,0,0.004465,0.004171,-0.042434,0.000641,0.000774,-0.103685,-0.8312,-1.1132,-0.0970
9674,11.0,0.000076,0.000212,-0.029845,0.000605,0.000667,-0.007087,-0.8329,-1.1168,0.0133,0.00002068,0.00002537,0.00406001,-0.00109112,0.00083146,0.00201722,-0.2091,0.1368,-9.8319,-0.003064,-0.001872,0.007439,7.7577,0.0300,95,0,0,0.004472,0.004177,-0.039397,0.000697,0.000769,-0.083552,-0.8324,-1.1337,-0.0917
9685,11.0,0.000082,0.000220,-0.029926,0.000573,0.000661,-0.007633,-0.8348,-1.1253,0.0147,0.00002063,0.00003284,0.00406004,-0.00099712,0.00082887,0.00201568,-0.2209,0.1430,-9.8541,-0.003138,-0.000115,0.004783,7.7577,0.0300,95,0,0,0.004479,0.004183,-0.040236,0.000498,0.000704,-0.084059,-0.8326,-1.1327,-0.0903
9696,11.0,0.000089,0.000227,-0.030026,0.000590,0.000614,-0.008231,-0.8355,-1.1278,0.0133,0.00001923,0.00003583,0.00406014,-0.00106377,0.00079449,0.00216284,-0.2138,0.1302,-9.8438,-0.003335,0.000769,0.003301,7.7577,0.0300,93,0,0,0.004494,0.004198,-0.045228,0.000221,0.000729,-0.102388,-0.8288,-1.1626,-0.0845
9707,11.0,0.000096,0.000234,-0.029490,0.000671,0.000619,-0.001110,-0.8361,-1.1294,0.0124,0.00001826,0.00003588,0.00406016,-0.00121505,0.00088736,-0.00420021,-0.1906,0.1406,-9.8371,-0.002486,-0.002577,0.002917,7.7577,0.0290,95,0,0,0.004503,0.004205,-0.049249,0.000285,0.000753,-0.119318,-0.8209,-1.1775,-0.0808
9718,11.0,0.000103,0.000241,-0.029514,0.000679,0.000691,-0.001539,-0.8388,-1.1311,0.0121,0.00001954,0.00003616,0.00406013,-0.00121893,0.00091316,-0.00408836,-0.1962,0.1593,-9.8380,-0.002555,-0.002386,0.003110,7.7577,0.0290,92,0,0,0.004516,0.004218,-0.044764,0.000355,0.000798,-0.085586,-0.8210,-1.1660,-0.0861
9729,11.0,0.000111,0.000248,-0.029533,0.000736,0.000613,-0.001924,-0.8376,-1.1289,0.0112,0.00001716,0.00003295,0.00406012,-0.00126120,0.00096009,-0.00408703,-0.1820,0.1333,-9.8466,-0.001381,-0.000795,0.002364,7.7577,0.0290,97,0,0,0.004521,0.004226,-0.048427,0.000564,0.000928,-0.105153,-0.8209,-1.1658,-0.0858
9740,11.0,0.000119,0.000254,-0.029251,0.000808,0.000576,0.001227,-0.8388,-1.1267,0.0116,0.00001565,0.00002968,0.00406010,-0.00125681,0.00097353,-0.00711665,-0.1692,0.1325,-9.8564,-0.003739,-0.000360,0.004413,7.7577,0.0290,93,0,0,0.004532,0.004240,-0.047501,0.000793,0.000929,-0.088251,-0.8148,-1.1437,-0.0890
9752,12.0,0.000129,0.000262,-0.029239,0.000792,0.000614,0.000801,-0.8398,-1.1244,0.0126,0.00001536,0.00002408,0.00406007,-0.00127928,0.00095428,-0.00711666,-0.1791,0.1453,-9.8499,-0.001707,-0.002629,0.006155,7.7577,0.0290,98,0,0,0.004537,0.004246,-0.048387,0.000735,0.000915,-0.088919,-0.8105,-1.1254,-0.0922
9762,10.0,0.000136,0.000268,-0.029247,0.000665,0.000551,0.000345,-0.8389,-1.1255,0.0118,0.00001292,0.00002463,0.00406015,-0.00128634,0.00090808,-0.00697776,-0.2104,0.1238,-9.8426,-0.001017,-0.001225,0.003661,7.7577,0.0290,92,0,0,0.004544,0.004253,-0.049279,0.000830,0.000937,-0.089562,-0.8092,-1.1246,-0.0910
9773,11.0,0.000143,0.000273,-0.029104,0.000613,0.000525,0.001695,-0.8349,-1.1293,0.0143,0.00000549,0.00003024,0.00406021,-0.00124159,0.00098680,-0.00831803,-0.2114,0.1227,-9.8430,-0.001443,-0.000041,0.005996,7.7577,0.0290,94,0,0,0.004560,0.004269,-0.045490,0.000721,0.000831,-0.048408,-0.7996,-1.1296,-0.0852
9783,10.0,0.000150,0.000279,-0.029099,0.000589,0.000609,0.001411,-0.8352,-1.1322,0.0138,0.00000473,0.00003292,0.00406028,-0.00128496,0.00097261,-0.00821531,-0.2128,0.1481,-9.8304,-0.001389,-0.002325,0.003890,7.7577,0.0290,92,0,0,0.004567,0.004275,-0.049774,0.000713,0.000821,-0.088308,-0.8048,-1.1493,-0.0812
9794,11.0,0.000156,0.000286,-0.029085,0.000584,0.000573,0.001079,-0.8353,-1.1376,0.0154,0.00000021,0.00003976,0.00406033,-0.00122840,0.00101420,-0.00821577,-0.2129,0.1305,-9.8453,-0.004293,-0.002006,0.005111,7.7577,0.0290,93,0,0,0.004573,0.004281,-0.050660,0.000526,0.000905,-0.088831,-0.8037,-1.1492,-0.0819
9805,11.0,0.000163,0.000292,-0.029038,0.000621,0.000585,0.001095,-0.8361,-1.1388,0.0145,-0.00000158,0.00004195,0.00406042,-0.00126990,0.00099089,-0.00856650,-0.2044,0.1367,-9.8550,-0.002821,-0.000256,0.003542,7.7577,0.0290,94,0,0,0.004585,0.004296,-0.045131,0.000381,0.000831,-0.026516,-0.8015,-1.1647,-0.0771
9816,11.0,0.000170,0.000299,-0.029027,0.000655,0.000683,0.000870,-0.8419,-1.1397,0.0140,0.00000329,0.00004428,0.00406044,-0.00126041,0.00091522,-0.00856765,-0.2000,0.1605,-9.8357,-0.004798,0.000719,0.004491,7.7577,0.0290,93,0,0,0.004593,0.004303,-0.045393,0.000396,0.000815,-0.025849,-0.7974,-1.1736,-0.0732
9827,11.0,0.000177,0.000306,-0.029053,0.000660,0.000596,0.000319,-0.8436,-1.1408,0.0130,0.00000153,0.00004555,0.00406051,-0.00127274,0.00088445,-0.00823764,-0.2021,0.1290,-9.8260,-0.003932,-0.000886,0.003267,7.8158,0.0290,98,0,0,0.004600,0.004309,-0.056575,0.000355,0.000908,-0.110605,-0.7978,-1.1736,-0.0730
9838,11.0,0.000185,0.000313,-0.029018,0.000721,0.000640,0.000553,-0.8444,-1.1395,0.0114,0.00000123,0.00004268,0.00406053,-0.00131417,0.00086846,-0.00852850,-0.1867,0.1463,-9.8297,-0.001450,-0.000190,0.002263,7.8158,0.0290,94,0,0,0.004616,0.004321,-0.047141,0.000489,0.000926,-0.028849,-0.7963,-1.1770,-0.0732
9849,11.0,0.000193,0.000320,-0.029040,0.000756,0.000682,0.000091,-0.8475,-1.1400,0.0119,0.00000245,0.00004047,0.00406046,-0.00127812,0.00088214,-0.00828085,-0.1835,0.1550,-9.8270,-0.004171,-0.002110,0.004077,7.8158,0.0290,93,0,0,0.004619,0.004330,-0.056253,0.000463,0.000928,-0.088954,-0.8016,-1.1683,-0.0788
9861,12.0,0.000192,0.000328,-0.029041,-0.000806,0.000643,-0.000225,-0.8478,-1.1284,0.0170,0.00000197,0.00000875,0.00405981,-0.00081995,0.00089259,-0.00829043,-0.1972,0.1431,-9.8417,-0.000771,-0.000705,0.005717,7.8158,0.0290,91,0,1,0.004627,0.004335,-0.057144,0.000584,0.001011,-0.089345,-0.8014,-1.1696,-0.0786
9872,11.0,0.000189,0.000335,-0.029037,0.000189,0.000631,-0.000578,-0.8489,-1.1352,0.0132,0.00000117,0.00002781,0.00406019,-0.00107216,0.00088397,-0.00836331,-0.1855,0.1420,-9.8574,-0.002248,0.000305,0.001356,7.8158,0.0290,99,0,0,0.004613,0.004347,-0.054972,0.000463,0.000958,-0.064798,-0.8039,-1.1636,-0.0788
9883,11.0,0.000193,0.000342,-0.029044,0.000446,0.000646,-0.000782,-0.8504,-1.1408,0.0127,0.00000158,0.00004131,0.00406035,-0.00109413,0.00087123,-0.00836288,-0.2119,0.1476,-9.8336,-0.001985,-0.000693,0.003834,7.7789,0.0290,89,0,0,0.004620,0.004353,-0.055620,0.000467,0.000932,-0.064910,-0.8026,-1.1625,-0.0797
9894,11.0,0.000199,0.000349,-0.029077,0.000524,0.000653,-0.001383,-0.8531,-1.1444,0.0115,0.00000178,0.00004781,0.00406048,-0.00117130,0.00087128,-0.00817181,-0.2163,0.1483,-9.8453,-0.004275,-0.002241,0.003115,7.7789,0.0290,90,0,0,0.004662,0.004368,-0.061103,0.000538,0.000925,-0.089101,-0.8075,-1.1765,-0.0812
9905,11.0,0.000204,0.000357,-0.029037,0.000540,0.000697,-0.001167,-0.8575,-1.1490,0.0117,0.00000694,0.00006031,0.00406053,-0.00111046,0.00082723,-0.00864477,-0.2215,0.1595,-9.8560,-0.003731,0.000180,0.004416,7.7789,0.0290,96,0,0,0.004669,0.004374,-0.054610,0.000381,0.000932,-0.047567,-0.8070,-1.1771,-0.0808
9916,11.0,0.000211,0.000364,-0.029068,0.000563,0.000603,-0.001578,-0.8594,-1.1516,0.0119,0.00000541,0.00006577,0.00406068,-0.00117219,0.00080728,-0.00850174,-0.2174,0.1333,-9.8341,-0.003770,-0.001376,0.005673,7.7789,0.0290,92,0,0,0.004675,0.004381,-0.055085,0.000378,0.000915,-0.047284,-0.8180,-1.1862,-0.0817
9927,11.0,0.000217,0.000371,-0.029087,0.000620,0.000608,-0.001840,-0.8601,-1.1545,0.0107,0.00000355,0.00007113,0.00406075,-0.00116100,0.00081065,-0.00850187,-0.2059,0.1444,-9.8392,-0.002181,-0.001709,0.001915,7.7789,0.0290,94,0,0,0.004686,0.004396,-0.059549,0.000305,0.000918,-0.066640,-0.8134,-1.1938,-0.0784
9938,11.0,0.000233,0.000377,-0.029056,0.002188,0.000618,-0.001437,-0.8620,-1.1638,0.0059,0.00000198,0.00010694,0.00406146,-0.00157327,0.00080040,-0.00891006,-0.1901,0.1433,-9.8345,-0.003751,0.001291,0.001836,7.7789,0.0290,89,0,-1,0.004693,0.004403,-0.051401,0.000291,0.001008,-0.016886,-0.8127,-1.1951,-0.0784
9949,11.0,0.000252,0.000384,-0.029075,0.001313,0.000670,-0.001896,-0.8634,-1.1567,0.0064,0.00000658,0.00007399,0.00406093,-0.00137828,0.00074925,-0.00891523,-0.1797,0.1593,-9.8578,0.000253,-0.003451,0.002477,7.7789,0.0290,92,0,0,0.004735,0.004414,-0.055156,0.000565,0.000987,-0.033370,-0.8151,-1.1918,-0.0842
9960,11.0,0.000264,0.000391,-0.029098,0.000945,0.000565,-0.002105,-0.8642,-1.1554,0.0077,0.00000363,0.00006224,0.00406079,-0.00125177,0.00071706,-0.00891050,-0.1912,0.1287,-9.8342,-0.002478,-0.002839,0.005099,7.7234,0.0290,93,0,0,0.004742,0.004419,-0.055486,0.000564,0.000959,-0.032706,-0.8172,-1.1853,-0.0874
9971,11.0,0.000265,0.000398,-0.029050,-0.000720,0.000595,-0.001528,-0.8648,-1.1469,0.0109,0.00000160,0.00002184,0.00406002,-0.00078658,0.00071733,-0.00948935,-0.2033,0.1463,-9.8409,-0.001742,-0.002097,0.003209,7.7234,0.0290,90,0,1,0.004749,0.004428,-0.054346,0.000747,0.000879,-0.024210,-0.8172,-1.1869,-0.0862
9982,11.0,0.000262,0.000404,-0.029069,0.000131,0.000473,-0.001848,-0.8656,-1.1536,0.0096,-0.00000515,0.00004783,0.00406059,-0.00105296,0.00064881,-0.00947873,-0.2098,0.1149,-9.8450,-0.003794,-0.000781,0.005177,7.7234,0.0290,93,0,0,0.004735,0.004439,-0.046393,0.000661,0.000690,0.020161,-0.8170,-1.1857,-0.0846
9993,11.0,0.000266,0.000409,-0.029091,0.000533,0.000488,-0.002122,-0.8627,-1.1561,0.0100,-0.00001701,0.00005195,0.00406083,-0.00118817,0.00069362,-0.00947549,-0.1870,0.1289,-9.8418,-0.000721,-0.002924,0.005202,7.7234,0.0290,96,0,0,0.004742,0.004446,-0.046183,0.000651,0.000684,0.021790,-0.8063,-1.1861,-0.0800
10004,11.0,0.000272,0.000415,-0.029048,0.000563,0.000523,-0.001518,-0.8632,-1.1585,0.0096,-0.00002201,0.00005792,0.00406107,-0.00125725,0.00065234,-0.00999771,-0.2166,0.1352,-9.8343,-0.002543,-0.001634,0.005019,7.7234,0.0290,99,0,0,0.004749,0.004452,-0.045957,0.000715,0.000626,0.023425,-0.8055,-1.1864,-0.0801
10015,11.0,0.000278,0.000421,-0.029066,0.000552,0.000571,-0.001832,-0.8641,-1.1638,0.0091,-0.00002560,0.00007200,0.00406120,-0.00118404,0.00064550,-0.00999920,-0.2234,0.1447,-9.8450,-0.002824,-0.002350,0.002328,7.7234,0.0290,96,0,0,0.004764,0.004465,-0.040132,0.000544,0.000611,0.052842,-0.8054,-1.1911,-0.0783
10026,11.0,0.000285,0.000427,-0.029090,0.000605,0.000575,-0.002299,-0.8653,-1.1656,0.0083,-0.00002793,0.00007612,0.00406134,-0.00122240,0.00062374,-0.00999107,-0.2097,0.1420,-9.8581,-0.002823,-0.001399,0.003859,7.7234,0.0290,94,0,0,0.004771,0.004471,-0.039555,0.000533,0.000610,0.055148,-0.8076,-1.1999,-0.0782
10037,11.0,0.000291,0.000433,-0.029047,0.000625,0.000529,-0.001539,-0.8628,-1.1679,0.0090,-0.00003928,0.00008205,0.00406144,-0.00121100,0.00069419,-0.01050525,-0.2089,0.1280,-9.8212,-0.000612,-0.001136,0.003719,7.7234,0.0290,91,0,0,0.004778,0.004478,-0.036297,0.000449,0.000647,0.070061,-0.8076,-1.2001,-0.0783
10048,11.0,0.000299,0.000440,-0.029055,0.000715,0.000632,-0.001435,-0.8650,-1.1685,0.0098,-0.00003924,0.00008061,0.00406141,-0.00119919,0.00069541,-0.01057001,-0.1885,0.1578,-9.8173,-0.003416,-0.001429,0.005111,7.6917,0.0290,93,0,0,0.004789,0.004490,-0.032903,0.000340,0.000613,0.084381,-0.8000,-1.2054,-0.0759
10059,11.0,0.000307,0.000446,-0.029072,0.000735,0.000612,-0.001567,-0.8646,-1.1686,0.0098,-0.00004182,0.00007504,0.00406139,-0.00122472,0.00071020,-0.01056937,-0.1913,0.1436,-9.8297,-0.000465,-0.002224,0.004110,7.6917,0.0290,90,0,0,0.004796,0.004496,-0.032045,0.000344,0.000617,0.087108,-0.8079,-1.1992,-0.0805
10071,12.0,0.000315,0.000454,-0.029584,0.000726,0.000616,-0.007679,-0.8674,-1.1685,0.0088,-0.00004463,0.00007418,0.00406145,-0.00114329,0.00063514,-0.00696518,-0.2003,0.1421,-9.8461,-0.004907,0.000170,0.002942,7.6917,0.0300,91,0,0,0.004811,0.004509,-0.028457,0.000514,0.000721,0.100710,-0.8107,-1.1919,-0.0842
10082,11.0,0.000324,0.000461,-0.029672,0.000787,0.000619,-0.008190,-0.8680,-1.1677,0.0107,-0.00004823,0.00006496,0.00406145,-0.00119573,0.00064391,-0.00696412,-0.1844,0.1440,-9.8606,-0.002194,-0.002119,0.007528,7.6917,0.0300,98,0,0,0.004818,0.004516,-0.027436,0.000561,0.000680,0.103515,-0.8115,-1.1917,-0.0847
10094,12.0,0.000333,0.000468,-0.029760,0.000718,0.000647,-0.008229,-0.8694,-1.1680,0.0105,-0.00004774,0.00006313,0.00406140,-0.00118223,0.00064913,-0.00704989,-0.2022,0.1531,-9.8286,-0.001920,-0.000830,0.003448,7.6917,0.0290,94,0,0,0.004830,0.004529,-0.023502,0.000685,0.000652,0.117313,-0.8129,-1.1828,-0.0860
10105,11.0,0.000340,0.000475,-0.029373,0.000660,0.000598,-0.002999,-0.8687,-1.1692,0.0115,-0.00005468,0.00006890,0.00406143,-0.00119960,0.00074021,-0.01048146,-0.2121,0.1368,-9.8479,-0.001394,0.000170,0.004275,7.7471,0.0290,97,0,0,0.004836,0.004535,-0.027660,0.000692,0.000658,0.095912,-0.8165,-1.1803,-0.0887
10116,11.0,0.000347,0.000481,-0.029413,0.000632,0.000497,-0.003136,-0.8691,-1.1711,0.0102,-0.00006287,0.00007196,0.00406171,-0.00122279,0.00067364,-0.01042635,-0.2126,0.1172,-9.8217,-0.002714,-0.002012,0.003491,7.7471,0.0290,94,0,0,0.004843,0.004542,-0.026689,0.000660,0.000636,0.098319,-0.8153,-1.1792,-0.0884
10127,11.0,0.000354,0.000488,-0.029449,0.000585,0.000652,-0.003382,-0.8724,-1.1748,0.0107,-0.00005687,0.00008561,0.00406182,-0.00114704,0.00058926,-0.01042897,-0.2231,0.1652,-9.8390,-0.002999,-0.001299,0.005438,7.7471,0.0290,95,0,0,0.004856,0.004555,-0.029388,0.000567,0.000586,0.082628,-0.8083,-1.1793,-0.0870
10139,12.0,0.000362,0.000495,-0.029774,0.000684,0.000615,-0.006659,-0.8741,-1.1756,0.0082,-0.00006014,0.00008738,0.00406194,-0.00112011,0.00053557,-0.00843808,-0.1985,0.1387,-9.8140,-0.003339,-0.000730,0.001151,7.7471,0.0300,97,0,0,0.004864,0.004560,-0.028768,0.000560,0.000608,0.083596,-0.8204,-1.1860,-0.0900
10150,11.0,0.000370,0.000502,-0.029849,0.000783,0.000634,-0.006966,-0.8756,-1.1742,0.0081,-0.00006209,0.00007669,0.00406194,-0.00118991,0.00053283,-0.00843681,-0.1827,0.1485,-9.8436,-0.003045,-0.001017,0.004752,7.7471,0.0300,94,0,0,0.004879,0.004574,-0.030279,0.000604,0.000629,0.074038,-0.8168,-1.1867,-0.0899
10161,11.0,0.000378,0.000509,-0.029937,0.000767,0.000561,-0.007365,-0.8749,-1.1757,0.0074,-0.00006766,0.00007336,0.00406202,-0.00116325,0.00049006,-0.00836912,-0.1953,0.1293,-9.8414,-0.000241,-0.003211,0.003339,7.7471,0.0300,92,0,0,0.004887,0.004581,-0.029531,0.000810,0.000712,0.075591,-0.8165,-1.1873,-0.0895
10172,11.0,0.000386,0.000515,-0.029452,0.000725,0.000532,-0.000975,-0.8737,-1.1764,0.0077,-0.00008007,0.00007059,0.00406206,-0.00123177,0.00059949,-0.01227391,-0.2003,0.1319,-9.8379,-0.001922,-0.001614,0.003375,7.7471,0.0290,93,0,0,0.004894,0.004589,-0.031113,0.000820,0.000710,0.067269,-0.8134,-1.1844,-0.0899
10183,11.0,0.000394,0.000521,-0.029471,0.000704,0.000595,-0.001136,-0.8742,-1.1766,0.0067,-0.00008245,0.00006931,0.00406210,-0.00122126,0.00058139,-0.01222137,-0.2014,0.1498,-9.8255,-0.001473,-0.000528,0.002781,7.7471,0.0290,94,0,0,0.004908,0.004602,-0.032834,0.000900,0.000610,0.057121,-0.8156,-1.1831,-0.0928
10194,11.0,0.000402,0.000528,-0.029484,0.000774,0.000605,-0.001232,-0.8735,-1.1742,0.0079,-0.00009265,0.00006185,0.00406216,-0.00126682,0.00061018,-0.01222019,-0.1889,0.1371,-9.8282,-0.001767,0.001512,0.005881,7.7471,0.0310,95,0,0,0.004914,0.004608,-0.032256,0.000909,0.000662,0.058462,-0.8153,-1.1837,-0.0930
10205,11.0,0.000411,0.000535,-0.030323,0.000831,0.000673,-0.011064,-0.8749,-1.1742,0.0098,-0.00009475,0.00005545,0.00406208,-0.00110829,0.00051549,-0.00663226,-0.1814,0.1519,-9.8331,-0.002594,-0.001313,0.006714,7.7471,0.0310,92,0,0,0.004932,0.004623,-0.033157,0.001069,0.000739,0.052193,-0.8130,-1.1770,-0.0928
10216,11.0,0.000420,0.000542,-0.030447,0.000789,0.000654,-0.011466,-0.8750,-1.1755,0.0074,-0.00009982,0.00005023,0.00406205,-0.00110400,0.00053548,-0.00663214,-0.1974,0.1430,-9.8503,-0.001747,-0.003241,-0.000325,7.7471,0.0310,92,0,0,0.004939,0.004630,-0.032631,0.001055,0.000736,0.053029,-0.8121,-1.1763,-0.0920
10227,11.0,0.000428,0.000549,-0.030583,0.000765,0.000582,-0.011759,-0.8778,-1.1809,0.0043,-0.00010085,0.00004535,0.00406199,-0.00106922,0.00052737,-0.00656871,-0.1928,0.1414,-9.8301,-0.004900,-0.009355,-0.001208,7.7471,0.0290,93,0,0,0.004946,0.004637,-0.034688,0.001100,0.000717,0.043196,-0.8123,-1.1789,-0.0952
10238,11.0,0.000446,0.000555,-0.029768,0.002213,0.000573,-0.000797,-0.8776,-1.1921,-0.0029,-0.00009754,0.00009566,0.00406303,-0.00157050,0.00061232,-0.01285352,-0.1990,0.1539,-9.8265,0.000961,-0.007588,-0.001685,7.7471,0.0290,90,0,-1,0.004984,0.004647,-0.032205,0.001056,0.000851,0.051209,-0.8085,-1.1851,-0.1016
10249,11.0,0.000464,0.000561,-0.029785,0.001260,0.000520,-0.001065,-0.8790,-1.1945,-0.0037,-0.00009601,0.00005762,0.00406222,-0.00131600,0.00062008,-0.01280856,-0.2003,0.1500,-9.8359,-0.002144,-0.011223,-0.001425,7.7471,0.0290,92,0,0,0.004995,0.004655,-0.034486,0.001066,0.000854,0.040667,-0.8097,-1.1866,-0.1085
10261,12.0,0.000477,0.000568,-0.029801,0.000894,0.000524,-0.001552,-0.8829,-1.1991,-0.0096,-0.00008741,0.00004282,0.00406183,-0.00122289,0.00059103,-0.01281097,-0.2050,0.1617,-9.8600,-0.003941,-0.009194,-0.005778,7.7471,0.0290,91,0,0,0.005001,0.004660,-0.034077,0.001067,0.000945,0.041275,-0.8093,-1.1919,-0.1117
10272,11.0,0.000486,0.000573,-0.030473,0.000815,0.000394,-0.009485,-0.8836,-1.2055,-0.0144,-0.00009392,0.00003693,0.00406190,-0.00110064,0.00048694,-0.00856219,-0.2007,0.1253,-9.8461,-0.002669,-0.011185,-0.003422,7.7471,0.0310,95,0,0,0.005014,0.004668,-0.034535,0.000994,0.000892,0.037367,-0.8192,-1.2059,-0.1247
10283,11.0,0.000495,0.000577,-0.030580,0.000808,0.000403,-0.009860,-0.8850,-1.2097,-0.0165,-0.00010332,0.00002865,0.00406193,-0.00111987,0.00051066,-0.00856163,-0.1981,0.1410,-9.8497,-0.004545,-0.008499,0.000482,7.7471,0.0310,94,0,0,0.005021,0.004672,-0.034159,0.000978,0.000865,0.037849,-0.8149,-1.2102,-0.1266
10294,11.0,0.000495,0.000582,-0.030700,-0.000650,0.000427,-0.010409,-0.8862,-1.2078,-0.0142,-0.00010531,-0.00003885,0.00406066,-0.00069570,0.00049465,-0.00850972,-0.1849,0.1502,-9.8554,-0.002355,-0.009479,0.001825,7.7471,0.0290,88,0,1,0.005009,0.004685,-0.034081,0.000948,0.000891,0.036237,-0.8210,-1.2188,-0.1305
10305,11.0,0.000491,0.000583,-0.029814,-0.000282,-0.000370,0.000363,-0.8702,-1.2480,-0.0163,-0.00022802,0.00008114,0.00406104,-0.00060671,0.00124344,-0.01493291,-0.3346,-0.0302,-9.9066,-0.005915,-0.035963,-0.022408,7.7471,0.0290,95,0,0,0.004992,0.004696,-0.036774,0.001577,0.002330,0.024073,-0.8198,-1.2283,-0.1318
10316,11.0,0.000494,0.000578,-0.029812,0.000835,-0.000574,0.001226,-0.8620,-1.2492,-0.0208,-0.00029285,0.00007100,0.00406228,-0.00054102,0.00083814,-0.01489278,-0.0876,-0.0181,-9.7401,0.001068,-0.003661,0.000625,7.7471,0.0290,87,0,0,0.004989,0.004689,-0.036534,0.001223,0.002141,0.023952,-0.7950,-1.3157,-0.1183
10327,11.0,0.000485,0.000585,-0.029798,-0.001974,0.001448,0.001347,-0.8481,-1.2140,-0.0243,-0.00041965,-0.00011252,0.00406349,-0.00003628,0.00047528,-0.01491303,-0.1297,0.0941,-9.8130,-0.002898,0.020008,0.012180,7.7471,0.0300,87,-1,2,0.005044,0.004694,-0.036201,0.003578,0.000758,0.024957,-0.7869,-1.3307,-0.1168
10338,11.0,0.000475,0.000607,-0.029916,-0.000051,0.002383,-0.000754,-0.8459,-1.1991,-0.0227,-0.00047551,-0.00005726,0.00406482,-0.00035227,0.00012925,-0.01409158,-0.1579,0.1070,-9.8754,-0.006693,0.033104,0.005679,7.8053,0.0300,88,-1,0,0.004988,0.004735,-0.035950,0.003274,0.000981,0.025168,-0.7860,-1.3184,-0.1097
10349,11.0,0.000478,0.000627,-0.029926,0.000510,0.001464,-0.001046,-0.8496,-1.1882,-0.0198,-0.00045462,-0.00004905,0.00406435,-0.00052214,0.00040102,-0.01408382,-0.1879,0.1262,-9.8482,-0.003469,0.017879,0.006837,7.8053,0.0300,91,0,0,0.004993,0.004790,-0.043244,0.003216,0.001101,-0.013456,-0.7852,-1.2747,-0.1076
10360,11.0,0.000484,0.000642,-0.029970,0.000617,0.001267,-0.001618,-0.8516,-1.1839,-0.0206,-0.00044433,-0.00004152,0.00406422,-0.00056272,0.00045920,-0.01388218,-0.2112,0.1509,-9.8384,-0.001992,0.008061,0.002391,7.8053,0.0300,91,0,0,0.004996,0.004800,-0.043381,0.003103,0.001097,-0.014114,-0.7871,-1.2595,-0.1092
10371,11.0,0.000491,0.000655,-0.029442,0.000726,0.001099,0.004573,-0.8539,-1.1818,-0.0188,-0.00043361,-0.00004941,0.00406402,-0.00068810,0.00052940,-0.01725890,-0.1887,0.1494,-9.8410,-0.001889,0.001258,0.007041,7.8053,0.0290,93,0,0,0.005027,0.004812,-0.045022,0.003151,0.001296,-0.021811,-0.7870,-1.2560,-0.1104
10382,11.0,0.000499,0.000657,-0.029417,0.000710,-0.000521,0.004078,-0.8610,-1.1868,-0.0128,-0.00035723,-0.00005145,0.00406196,-0.00067620,0.00096332,-0.01709920,-0.2004,0.1651,-9.8424,0.000892,-0.008483,0.005247,7.8053,0.0290,91,1,0,0.005031,0.004794,-0.051488,0.003002,0.001271,-0.050902,-0.7913,-1.2536,-0.1083
10393,11.0,0.000507,0.000656,-0.029373,0.000789,0.000259,0.003948,-0.8571,-1.1859,-0.0126,-0.00038754,-0.00006746,0.00406269,-0.00074498,0.00076324,-0.01710109,-0.1823,0.1507,-9.8360,0.001083,-0.002068,0.007949,7.8053,0.0300,92,0,0,0.005032,0.004797,-0.052003,0.002870,0.001245,-0.052220,-0.7975,-1.2546,-0.1102
10404,11.0,0.000516,0.000660,-0.029698,0.000761,0.000449,-0.000636,-0.8566,-1.1829,-0.0154,-0.00040421,-0.00007242,0.00406302,-0.00067496,0.00064683,-0.01487704,-0.1969,0.1309,-9.8503,-0.002409,0.003785,0.001014,7.7471,0.0300,93,0,0,0.005036,0.004802,-0.046542,0.002927,0.001326,-0.027218,-0.7960,-1.2557,-0.1074
10415,11.0,0.000524,0.000666,-0.029706,0.000764,0.000575,-0.000835,-0.8585,-1.1807,-0.0159,-0.00041207,-0.00008071,0.00406312,-0.00069323,0.00062184,-0.01487716,-0.1938,0.1446,-9.8399,-0.004790,0.001853,0.003843,7.7471,0.0300,92,0,0,0.005043,0.004814,-0.063810,0.001055,0.001016,-0.028905,-0.7464,-1.1623,-0.1110
10426,11.0,0.000532,0.000664,-0.029727,0.000720,-0.000854,-0.001332,-0.8666,-1.1799,-0.0116,-0.00034838,-0.00008142,0.00406137,-0.00069060,0.00096764,-0.01481220,-0.2060,0.1517,-9.8563,-0.003152,0.001041,0.003972,7.7471,0.0300,95,1,0,0.005048,0.004823,-0.063898,0.000889,0.000916,-0.029303,-0.7963,-1.1575,-0.1117
10437,11.0,0.000549,0.000660,-0.029331,0.002215,0.000082,0.003281,-0.8622,-1.1877,-0.0170,-0.00039794,-0.00002349,0.00406376,-0.00111160,0.00079880,-0.01726332,-0.1947,0.1391,-9.8410,-0.001579,-0.003880,0.004414,7.7471,0.0290,95,0,-1,0.005053,0.004792,-0.039500,0.000709,0.000160,0.057317,-0.7981,-1.1568,-0.1105
10448,11.0,0.000568,0.000663,-0.029303,0.001296,0.000405,0.002962,-0.8624,-1.1833,-0.0137,-0.00041740,-0.00007035,0.00406336,-0.00085847,0.00069245,-0.01722467,-0.1917,0.1378,-9.8452,-0.003462,-0.000292,0.007715,7.7471,0.0290,96,0,0,0.005099,0.004804,-0.042643,0.001181,0.000188,0.023527,-0.8193,-1.1635,-0.1106
10459,11.0,0.000580,0.000668,-0.029270,0.000930,0.000475,0.003106,-0.8625,-1.1810,-0.0151,-0.00044078,-0.00009055,0.00406329,-0.00077919,0.00072814,-0.01722611,-0.1986,0.1265,-9.8114,-0.005148,0.000458,0.000470,7.7471,0.0290,89,0,0,0.005105,0.004810,-0.042412,0.001066,0.000258,0.022690,-0.8060,-1.1565,-0.1100
10470,11.0,0.000589,0.000674,-0.030202,0.000787,0.000532,-0.008457,-0.8606,-1.1800,-0.0163,-0.00045426,-0.00009530,0.00406359,-0.00064603,0.00058591,-0.01156995,-0.2082,0.1280,-9.8482,0.000346,0.000721,0.003505,7.7471,0.0310,97,0,0,0.005116,0.004824,-0.038076,0.000883,0.000298,0.073546,-0.7948,-1.1737,-0.1105
10481,11.0,0.000598,0.000680,-0.030295,0.000720,0.000587,-0.008532,-0.8613,-1.1839,-0.0150,-0.00046687,-0.00008939,0.00406374,-0.00060644,0.00059746,-0.01157068,-0.2120,0.1372,-9.8252,-0.003918,-0.005012,0.005530,7.7471,0.0310,92,0,0,0.005122,0.004832,-0.037345,0.000686,0.000302,0.072827,-0.7936,-1.1753,-0.1096
10492,11.0,0.000605,0.000687,-0.030400,0.000694,0.000611,-0.008932,-0.8636,-1.1851,-0.0168,-0.00047220,-0.00008557,0.00406397,-0.00062485,0.00056948,-0.01151493,-0.2140,0.1399,-9.8444,-0.004862,-0.001359,0.001976,7.7471,0.0310,92,0,0,0.005128,0.004835,-0.041905,0.000663,0.000301,0.010201,-0.7902,-1.2042,-0.1083
10503,11.0,0.000613,0.000693,-0.029674,0.000709,0.000610,0.000593,-0.8644,-1.1852,-0.0152,-0.00047450,-0.00008857,0.00406397,-0.00073106,0.00064054,-0.01627477,-0.1991,0.1453,-9.8311,-0.002119,-0.000829,0.006656,7.7471,0.0290,92,0,0,0.005143,0.004849,-0.041244,0.000488,0.000371,0.013552,-0.7852,-1.2024,-0.1115
10514,11.0,0.000621,0.000700,-0.029676,0.000719,0.000591,0.000293,-0.8648,-1.1835,-0.0138,-0.00047813,-0.00009074,0.00406403,-0.00071907,0.00062154,-0.01623162,-0.1989,0.1400,-9.8424,-0.001525,0.002163,0.006454,7.7471,0.0290,91,0,0,0.005151,0.004856,-0.041112,0.000582,0.000402,0.012865,-0.7844,-1.2058,-0.1120
10525,11.0,0.000620,0.000706,-0.029673,-0.000742,0.000535,0.000146,-0.8637,-1.1765,-0.0112,-0.00050061,-0.00016651,0.00406296,-0.00039557,0.00069313,-0.01623786,-0.1941,0.1229,-9.8370,-0.003170,-0.000157,0.004117,7.7471,0.0290,94,0,1,0.005164,0.004868,-0.047111,0.000677,0.000363,-0.044015,-0.7809,-1.2011,-0.1134
10536,11.0,0.000627,0.000713,-0.030399,0.001806,0.000610,-0.008628,-0.8646,-1.1890,-0.0154,-0.00050804,-0.00005168,0.00406532,-0.00088584,0.00060366,-0.01211019,-0.1965,0.1420,-9.8489,-0.003055,-0.003669,0.005099,7.7471,0.0310,94,0,-1,0.005141,0.004876,-0.037876,0.000413,0.000408,0.035714,-0.7677,-1.2052,-0.1086
10547,11.0,0.000643,0.000720,-0.030494,0.001096,0.000631,-0.008722,-0.8633,-1.1879,-0.0120,-0.00051683,-0.00007787,0.00406480,-0.00070059,0.00061386,-0.01211408,-0.2110,0.1404,-9.8274,0.000067,-0.001634,0.006837,7.7471,0.0310,94,0,0,0.005181,0.004883,-0.041445,0.000728,0.000554,0.003358,-0.7655,-1.2096,-0.1151
10558,11.0,0.000653,0.000727,-0.030635,0.000827,0.000622,-0.009564,-0.8652,-1.1857,-0.0131,-0.00052259,-0.00008538,0.00406484,-0.00065852,0.00058219,-0.01186890,-0.2145,0.1370,-9.8486,-0.004376,0.002257,0.002612,7.8370,0.0310,95,0,0,0.005195,0.004899,-0.041393,0.000643,0.000712,0.001861,-0.7675,-1.2215,-0.1160
10569,11.0,0.000662,0.000734,-0.029784,0.000717,0.000664,0.001359,-0.8674,-1.1846,-0.0133,-0.00051926,-0.00008408,0.00406477,-0.00072241,0.00063529,-0.01721373,-0.2098,0.1535,-9.8438,-0.003207,0.002183,0.003589,7.8370,0.0290,91,0,0,0.005201,0.004905,-0.048551,0.000621,0.000664,-0.049736,-0.7869,-1.2238,-0.1178
10580,11.0,0.000660,0.000741,-0.029803,-0.000823,0.000623,0.000743,-0.8700,-1.1807,-0.0092,-0.00052244,-0.00015120,0.00406352,-0.00039438,0.00061479,-0.01703189,-0.2151,0.1396,-9.8436,-0.004990,-0.003298,0.006171,7.8370,0.0290,87,0,1,0.005208,0.004913,-0.049054,0.000620,0.000823,-0.050741,-0.7869,-1.2258,-0.1188
10591,11.0,0.000657,0.000748,-0.029796,0.000188,0.000644,0.000641,-0.8689,-1.1854,-0.0115,-0.00053108,-0.00010654,0.00406455,-0.00063307,0.00062679,-0.01702668,-0.1993,0.1418,-9.8333,-0.000446,-0.001592,0.003586,7.8370,0.0310,91,0,0,0.005194,0.004925,-0.065064,0.000379,0.000816,-0.147144,-0.7964,-1.2177,-0.1143
10602,11.0,0.000662,0.000765,-0.030471,0.000515,0.002229,-0.007609,-0.8609,-1.1898,-0.0156,-0.00060908,-0.00008840,0.00406720,-0.00063820,0.00020567,-0.01329063,-0.2091,0.1460,-9.8498,0.001515,-0.004491,0.006956,7.8370,0.0310,91,-1,0,0.005203,0.004962,-0.052682,0.000350,0.001026,-0.061442,-0.8037,-1.2057,-0.1271
10613,11.0,0.000668,0.000783,-0.030556,0.000646,0.001209,-0.007893,-0.8653,-1.1931,-0.0126,-0.00056098,-0.00008063,0.00406593,-0.00066399,0.00043661,-0.01328625,-0.2060,0.1470,-9.8458,-0.000981,-0.004199,0.004258,7.8370,0.0310,86,0,0,0.005206,0.004972,-0.064234,0.000305,0.001102,-0.129959,-0.8032,-1.2084,-0.1261
10624,11.0,0.000676,0.000794,-0.030646,0.000727,0.000831,-0.008355,-0.8681,-1.1933,-0.0129,-0.00054212,-0.00008490,0.00406534,-0.00064465,0.00052400,-0.01328301,-0.1904,0.1503,-9.8619,-0.002579,-0.001016,0.001717,7.7234,0.0290,90,0,0,0.005222,0.004983,-0.063659,0.000388,0.001001,-0.113805,-0.8109,-1.2089,-0.1260
10635,11.0,0.000674,0.000802,-0.029783,-0.000774,0.000625,0.002754,-0.8678,-1.1871,-0.0080,-0.00054952,-0.00015945,0.00406378,-0.00041490,0.00068432,-0.01845452,-0.2026,0.1317,-9.8257,-0.001710,-0.000399,0.005841,7.7234,0.0290,88,0,1,0.005233,0.004991,-0.052117,0.000382,0.000967,-0.041343,-0.8265,-1.1948,-0.1327
10646,11.0,0.000672,0.000809,-0.029754,0.000197,0.000562,0.002531,-0.8685,-1.1913,-0.0092,-0.00055536,-0.00011761,0.00406470,-0.00060838,0.00065862,-0.01844766,-0.1940,0.1329,-9.8453,-0.002492,-0.001226,0.004800,7.7234,0.0290,95,0,0,0.005222,0.005005,-0.050637,0.000172,0.000917,-0.029512,-0.8175,-1.1687,-0.1287
10657,11.0,0.000676,0.000815,-0.029728,0.000569,0.000541,0.002205,-0.8678,-1.1940,-0.0085,-0.00057436,-0.00011075,0.00406508,-0.00071586,0.00070630,-0.01844487,-0.1939,0.1301,-9.8554,-0.002703,-0.003962,0.005517,7.7234,0.0300,90,0,0,0.005229,0.005011,-0.050935,0.000171,0.000817,-0.029912,-0.8189,-1.1691,-0.1286
10669,12.0,0.000683,0.000822,-0.029862,0.000664,0.000589,0.000057,-0.8694,-1.1957,-0.0071,-0.00057954,-0.00010632,0.00406531,-0.00071826,0.00067080,-0.01760532,-0.2053,0.1449,-9.8506,-0.003426,-0.002151,0.006801,7.7234,0.0300,94,0,0,0.005244,0.005024,-0.040525,0.000162,0.000810,0.025122,-0.8240,-1.1624,-0.1303
10680,11.0,0.000691,0.000828,-0.029863,0.000701,0.000496,-0.000174,-0.8669,-1.1954,-0.0061,-0.00060968,-0.00010531,0.00406546,-0.00072441,0.00076689,-0.01760402,-0.2045,0.1162,-9.8459,-0.001995,0.000543,0.004036,7.7234,0.0300,93,0,0,0.005251,0.005033,-0.040273,0.000216,0.000774,0.025297,-0.8504,-1.1692,-0.1353
10691,11.0,0.000699,0.000834,-0.029867,0.000748,0.000543,-0.000441,-0.8676,-1.1960,-0.0056,-0.00061680,-0.00011045,0.00406556,-0.00070099,0.00073482,-0.01760133,-0.1921,0.1408,-9.8482,-0.002639,-0.001705,0.005095,7.7234,0.0290,92,0,0,0.005253,0.005040,-0.039905,0.000175,0.000615,0.026096,-0.8529,-1.1673,-0.1351
10702,11.0,0.000707,0.000840,-0.029389,0.000699,0.000596,0.005002,-0.8678,-1.1974,-0.0055,-0.00062038,-0.00010966,0.00406561,-0.00073264,0.00075950,-0.02012860,-0.2084,0.1479,-9.8415,-0.001425,-0.002046,0.004188,7.7577,0.0290,93,0,0,0.005268,0.005054,-0.038594,0.000248,0.000721,0.029550,-0.8535,-1.1642,-0.1361
10714,12.0,0.000725,0.000847,-0.029341,0.002248,0.000642,0.004612,-0.8711,-1.2036,-0.0116,-0.00062044,-0.00003882,0.00406719,-0.00104543,0.00076169,-0.02006398,-0.1958,0.1533,-9.8487,-0.005669,-0.000625,0.000285,7.7577,0.0290,99,0,-1,0.005275,0.005061,-0.038297,0.000286,0.000743,0.029840,-0.8472,-1.1675,-0.1337
10725,11.0,0.000753,0.000854,-0.029291,0.002863,0.000593,0.004526,-0.8717,-1.2057,-0.0132,-0.00063209,-0.00002364,0.00406775,-0.00121314,0.00080266,-0.02005991,-0.1922,0.1364,-9.8352,-0.003563,-0.001954,0.003012,7.7577,0.0300,99,0,-1,0.005306,0.005067,-0.037997,0.000528,0.000763,0.030147,-0.8498,-1.1681,-0.1398
10737,12.0,0.000779,0.000861,-0.029665,0.001448,0.000512,-0.000476,-0.8723,-1.1972,-0.0061,-0.00064816,-0.00009197,0.00406712,-0.00086609,0.00069980,-0.01788055,-0.2121,0.1168,-9.8313,-0.003306,0.004076,0.013773,7.7577,0.0300,87,0,0,0.005321,0.005082,-0.037754,0.000835,0.000723,0.029242,-0.8449,-1.1685,-0.1351
10748,11.0,0.000792,0.000867,-0.029670,0.001065,0.000642,-0.000389,-0.8769,-1.1906,0.0042,-0.00065402,-0.00013129,0.00406678,-0.00082070,0.00067007,-0.01788218,-0.1862,0.1507,-9.8170,-0.008273,0.004218,0.020135,7.7577,0.0300,95,0,0,0.005327,0.005091,-0.040709,0.000813,0.000756,0.012691,-0.8419,-1.1619,-0.1298
10761,13.0,0.000815,0.000876,-0.029691,0.002527,0.000690,-0.000838,-0.8831,-1.1897,0.0127,-0.00065734,-0.00008138,0.00406794,-0.00103525,0.00065681,-0.01780318,-0.1689,0.1497,-9.8469,-0.009092,0.006352,0.018708,7.7577,0.0290,99,0,-1,0.005369,0.005105,-0.036830,0.001212,0.000687,0.032073,-0.8512,-1.1634,-0.1166
10772,11.0,0.000836,0.000883,-0.029302,0.001353,0.000549,0.003605,-0.8835,-1.1842,0.0186,-0.00069729,-0.00013593,0.00406712,-0.00080368,0.00081775,-0.01980224,-0.2084,0.1079,-9.8382,-0.008069,0.001780,0.009115,7.7577,0.0290,93,0,0,0.005381,0.005112,-0.039274,0.001211,0.000629,0.011704,-0.8559,-1.1593,-0.1082
10782,10.0,0.000847,0.000889,-0.029292,0.001232,0.000741,0.003529,-0.8833,-1.1845,0.0287,-0.00069242,-0.00017981,0.00406595,-0.00061201,0.00083450,-0.01966653,-0.1285,0.1805,-9.8030,0.000523,-0.007027,0.017220,7.8158,0.0290,94,0,0,0.005396,0.005128,-0.047277,0.001756,0.000913,-0.048499,-0.8563,-1.1570,-0.0924
10793,11.0,0.000854,0.000879,-0.029265,0.000272,-0.002270,0.001388,-0.8888,-1.1807,0.0120,-0.00047634,-0.00047835,0.00406444,-0.00094340,0.00134075,-0.01965131,0.0228,0.2092,-10.0247,0.020556,-0.041918,0.006278,7.8158,0.0300,95,2,1,0.005358,0.005062,-0.042700,0.001093,0.000062,-0.013642,-0.9813,-1.0516,-0.1377
10804,11.0,0.000865,0.000864,-0.029664,0.002806,0.000054,0.000283,-0.9355,-1.1262,0.0697,-0.00031390,-0.00086936,0.00404402,0.00083763,0.00199380,-0.01750573,0.7462,0.6547,-9.4777,-0.053158,0.036129,0.008924,7.8158,0.0300,98,1,1,0.005348,0.005034,-0.042838,0.002843,0.000213,-0.014005,-0.9759,-1.0704,-0.1206
10815,11.0,0.000867,0.000852,-0.029654,-0.001417,-0.001621,0.001496,-0.9850,-1.0853,0.0985,0.00009291,-0.00153906,0.00402769,0.00079229,0.00168277,-0.01750444,0.2334,0.4615,-9.7149,-0.014314,-0.039225,0.019268,7.8158,0.0300,90,2,3,0.005294,0.004990,-0.053239,0.004955,0.004569,-0.086182,-1.0606,-0.5002,-0.2648
10826,11.0,0.000821,0.000794,-0.029664,-0.006578,-0.008321,0.002614,-0.9952,-1.0889,0.1264,0.00036369,-0.00171375,0.00401993,0.00156583,0.00287647,-0.01731718,-0.3376,0.0475,-9.6830,0.018538,-0.029806,0.039449,7.8158,0.0290,90,5,4,0.005206,0.004901,-0.063556,0.003821,0.003406,-0.151528,-1.1808,-0.3940,-0.2820
10837,11.0,0.000702,0.000647,-0.029281,-0.014625,-0.017576,0.007868,-0.9778,-1.1492,0.2911,0.00046011,-0.00146969,0.00398105,0.00456728,0.00558921,-0.01905155,-0.7869,-0.1730,-9.7109,0.028086,-0.043667,0.027815,7.8158,0.0290,88,9,7,0.005092,0.004746,-0.052688,0.000423,0.000139,-0.074075,-1.1838,-0.3874,-0.2435
10848,11.0,0.000525,0.000426,-0.029232,-0.018263,-0.022718,0.008203,-1.0003,-1.1379,0.4213,0.00048484,-0.00121661,0.00395932,0.00340126,0.00559131,-0.01881005,-0.9758,-0.2492,-9.7396,-0.029519,0.045570,0.056112,7.8713,0.0290,85,10,7,0.004645,0.004201,-0.187064,-0.013901,-0.016976,-0.079301,0.9873,-3.9278,-0.2048
10860,12.0,0.000280,0.000105,-0.029153,-0.022436,-0.030330,0.004992,-1.0841,-1.0891,0.6397,0.00127138,-0.00141779,0.00389725,0.00419823,0.00620776,-0.01880208,-0.2080,0.5192,-10.0866,-0.013222,0.043036,0.037870,7.8713,0.0290,78,16,11,0.004456,0.003928,-0.060043,-0.014123,-0.019125,0.049327,1.2480,-4.5159,-0.1740
10871,11.0,0.000107,-0.000149,-0.029073,-0.010804,-0.017596,0.004770,-1.0342,-1.1424,0.4251,0.00064522,-0.00076895,0.00396704,0.00171533,0.00388475,-0.01894479,-0.2529,0.2435,-9.8728,-0.002185,0.000185,-0.006372,7.8713,0.0290,91,5,2,0.004286,0.003482,-0.094378,-0.009905,-0.016637,-0.010245,0.4125,-3.2874,-0.1219
10882,11.0,0.000015,-0.000294,-0.029021,-0.006520,-0.009890,0.004684,-1.0081,-1.1592,0.3378,0.00030559,-0.00050419,0.00399545,0.00092916,0.00219166,-0.01896434,-0.2318,0.2301,-9.8315,0.000093,0.009063,-0.010344,7.8713,0.0290,79,3,2,0.004291,0.003473,-0.094491,-0.004531,-0.011792,-0.012372,0.3723,-3.2199,-0.1521
10893,11.0,-0.000037,-0.000369,-0.029025,-0.003519,-0.004264,0.004040,-0.9874,-1.1725,0.2815,0.00003951,-0.00032399,0.00401413,0.00022717,0.00113921,-0.01869311,-0.2388,0.2162,-9.8211,-0.001338,0.001923,-0.008808,7.8713,0.0280,77,1,1,0.004285,0.003402,-0.065001,-0.001351,-0.008503,0.291060,-0.1289,-2.4229,-0.2032
10904,11.0,-0.000060,-0.000396,-0.028438,-0.000875,-0.001083,0.010185,-0.9779,-1.1884,0.2565,-0.00011433,-0.00018199,0.00402446,-0.00037041,0.00051525,-0.02129354,-0.2059,0.1792,-9.8406,-0.004389,-0.007128,0.002392,7.8713,0.0280,89,0,0,0.004333,0.003458,-0.083168,-0.000566,-0.006743,0.071500,-0.3467,-1.9203,-0.2387
10916,12.0,-0.000064,-0.000402,-0.028361,0.000177,0.000050,0.009493,-0.9779,-1.1963,0.2572,-0.00017022,-0.00013453,0.00402751,-0.00055455,0.00028851,-0.02107608,-0.1923,0.1722,-9.8412,-0.006391,-0.006256,0.013869,7.8713,0.0280,81,0,0,0.004352,0.003494,-0.082463,0.001154,-0.004694,0.069373,-0.4315,-1.7749,-0.2573
10926,10.0,-0.000057,-0.000406,-0.028268,0.001346,-0.000115,0.009182,-0.9974,-1.1899,0.2377,0.00012667,-0.00031995,0.00402891,-0.00137481,-0.00034658,-0.02106705,0.0278,0.4417,-9.8587,0.018989,-0.024998,0.011428,7.8370,0.0290,89,1,0,0.004394,0.003496,-0.061832,0.003002,-0.002688,0.265707,-0.7647,-1.3385,-0.2763
10937,11.0,-0.000035,-0.000406,-0.028637,0.003168,0.000056,0.005277,-1.0265,-1.1774,0.2536,0.00009576,-0.00053750,0.00401831,-0.00042932,-0.00056277,-0.01882317,0.3502,0.1270,-9.6868,-0.049613,-0.007515,-0.022326,7.8370,0.0290,85,0,0,0.004405,0.003491,-0.059187,0.002890,-0.002651,0.263680,-1.1500,-0.8790,-0.2949
10950,13.0,-0.000012,-0.000415,-0.028579,0.000515,-0.001546,0.003619,-1.0167,-1.2041,0.2509,0.00010330,-0.00038755,0.00401471,0.00057174,-0.00014011,-0.01883564,-0.4425,0.1137,-9.9490,0.011593,-0.011907,-0.020793,7.8370,0.0290,82,1,0,0.004412,0.003468,-0.072934,0.006522,-0.000763,0.087380,-1.2712,-0.5311,-0.3034
10961,11.0,-0.000011,-0.000445,-0.028582,-0.000880,-0.003876,0.003520,-1.0298,-1.2167,0.2210,0.00012407,-0.00023878,0.00401154,-0.00003923,-0.00007956,-0.01860326,-0.5923,-0.0018,-9.7798,-0.019238,-0.000767,-0.070766,7.8370,0.0280,89,2,0,0.004379,0.003405,-0.047157,0.001407,-0.003182,0.313241,-1.3801,-0.3522,-0.3232
10972,11.0,-0.000042,-0.000491,-0.028237,-0.004205,-0.004657,0.006159,-1.0183,-1.1956,0.1598,-0.00004799,-0.00038553,0.00401677,0.00070984,0.00057267,-0.02005420,-0.2329,-0.0140,-9.9154,-0.013004,0.017500,-0.061676,7.8370,0.0280,80,2,3,0.004400,0.003372,-0.059526,0.003584,-0.002091,0.174998,-1.0463,-1.1183,-0.2874
10983,11.0,-0.000104,-0.000557,-0.028205,-0.006803,-0.007089,0.005548,-1.0275,-1.1879,0.1506,0.00006724,-0.00051975,0.00401075,0.00124038,0.00101771,-0.01989527,-0.2075,0.1554,-9.8454,-0.000637,-0.004567,-0.025496,7.8370,0.0280,84,4,4,0.004187,0.003218,-0.072905,0.000786,-0.004030,0.033700,-1.0289,-1.0058,-0.2605
10994,11.0,-0.000159,-0.000604,-0.028144,-0.003723,-0.001974,0.005376,-1.0138,-1.2144,0.0986,-0.00014740,-0.00029176,0.00402789,0.00075587,-0.00011486,-0.01990601,-0.2645,0.2227,-9.8396,-0.004142,-0.010654,-0.015510,7.8370,0.0290,83,0,1,0.004020,0.003094,-0.051863,-0.000977,-0.004916,0.192189,-1.0944,-0.8981,-0.2344
11005,11.0,-0.000195,-0.000610,-0.028596,-0.003128,0.000878,-0.001058,-1.0213,-1.2318,0.0206,-0.00012317,-0.00015081,0.00403810,0.00028205,-0.00002711,-0.01757216,-0.3981,0.4754,-9.8675,-0.011153,-0.008175,-0.068548,7.7789,0.0290,85,0,1,0.003967,0.003076,-0.053617,-0.002699,-0.002298,0.146336,-1.2343,-0.8680,-0.2813
11016,11.0,-0.000216,-0.000591,-0.028627,-0.001162,0.002499,-0.004679,-1.0270,-1.2545,-0.1229,-0.00014976,0.00002687,0.00405187,-0.00033669,-0.00007997,-0.01755921,-0.3417,0.2819,-10.1482,-0.016832,-0.010035,-0.159278,7.7789,0.0290,82,-1,0,0.003937,0.003102,-0.052160,-0.001977,-0.002157,0.145108,-1.5057,-1.1289,-0.3482
11027,11.0,-0.000222,-0.000564,-0.028695,0.000069,0.002500,-0.003944,-0.9772,-1.3089,-0.2378,-0.00013765,0.00007556,0.00405363,-0.00051785,-0.00002993,-0.01745208,-0.1855,0.1952,-9.7334,0.076292,-0.076993,-0.171726,7.7789,0.0280,80,-1,0,0.003945,0.003142,-0.056954,-0.002821,-0.001246,0.097682,-1.5777,-1.0757,-0.4756
11038,11.0,-0.000272,-0.000523,-0.028327,-0.008089,0.004341,0.001501,-0.9055,-1.2960,-0.3789,-0.00049066,-0.00038871,0.00406355,0.00105711,0.00019549,-0.01933809,-0.1919,-0.0691,-9.7638,0.055321,-0.035873,-0.159183,7.7789,0.0280,85,-3,6,0.003799,0.003218,-0.042277,-0.004105,-0.002258,0.175560,-1.4876,-1.0648,-0.6735
11049,11.0,-0.000356,-0.000471,-0.028330,-0.006762,0.004558,0.000825,-0.8909,-1.2867,-0.4069,-0.00070220,-0.00054370,0.00406370,0.00165225,-0.00062728,-0.01928852,0.1673,-0.1890,-9.8829,-0.005098,-0.004255,-0.048542,7.7789,0.0280,85,-3,4,0.003752,0.003196,-0.048974,-0.004605,-0.000858,0.121058,-0.9765,-0.8050,-0.7103
11061,12.0,-0.000445,-0.000418,-0.028324,-0.008073,0.004399,0.000214,-0.8740,-1.2860,-0.3760,-0.00078144,-0.00061658,0.00406459,0.00190723,-0.00043500,-0.01929205,-0.2168,0.0764,-9.8777,0.013094,-0.008883,0.053448,7.7789,0.0290,83,-2,4,0.003675,0.003267,-0.047775,-0.002160,-0.003743,0.118568,-1.0073,-0.7293,-0.7732
11072,11.0,-0.000507,-0.000380,-0.028705,-0.003568,0.002504,-0.005430,-0.8305,-1.3439,-0.2825,-0.00077770,-0.00045373,0.00406086,0.00132591,-0.00047122,-0.01759473,-0.0891,-0.0113,-9.9467,0.071857,-0.073763,0.119806,7.7789,0.0290,76,-1,1,0.003555,0.003310,-0.046396,-0.002679,-0.003650,0.106843,-0.8328,-0.6210,-0.7189
11083,11.0,-0.000527,-0.000348,-0.028765,-0.000305,0.002825,-0.005478,-0.8009,-1.3793,-0.1716,-0.00107244,-0.00046597,0.00405520,0.00023037,0.00000018,-0.01756297,-0.0683,-0.1068,-9.8351,0.002545,-0.067200,0.125572,7.7789,0.0290,83,-2,0,0.003563,0.003298,-0.045342,-0.002436,-0.002631,0.104316,-0.5587,-0.5775,-0.6258
11094,11.0,-0.000531,-0.000328,-0.028830,-0.000906,0.000997,-0.002520,-0.8018,-1.3776,-0.0169,-0.00098505,-0.00033646,0.00404743,-0.00031579,0.00032406,-0.01744513,-0.5113,0.1217,-9.5248,0.013805,0.015218,0.206411,7.7789,0.0290,83,0,0,0.003515,0.003260,-0.041364,-0.001094,-0.004863,0.113607,-0.6019,-0.8373,-0.4308
11105,11.0,-0.000510,-0.000323,-0.028938,0.003835,0.000515,-0.006788,-0.8512,-1.3633,0.0597,-0.00075580,0.00001504,0.00405482,-0.00156083,0.00117638,-0.01712954,-0.4119,0.4899,-10.1380,-0.046943,0.065109,0.163552,7.7789,0.0290,79,1,-3,0.003530,0.003276,-0.047280,-0.004712,-0.003522,0.076583,-0.6124,-0.7463,-0.3342
11116,11.0,-0.000431,-0.000350,-0.029061,0.009344,-0.004609,-0.012706,-0.9702,-1.3519,0.1135,-0.00041071,0.00054885,0.00404347,-0.00334317,0.00226140,-0.01699060,-0.6324,0.2634,-10.3319,-0.143371,0.086368,0.024713,7.7789,0.0290,82,4,-6,0.003584,0.003296,-0.046538,-0.002686,-0.003785,0.071564,-0.9516,-1.0197,-0.2907
11128,12.0,-0.000347,-0.000387,-0.029239,0.004934,-0.001516,-0.016985,-0.9805,-1.3246,0.2068,-0.00047005,0.00014526,0.00401539,-0.00209562,0.00197618,-0.01702955,0.0058,0.3437,-10.1824,-0.020285,-0.009441,0.020377,7.7789,0.0290,88,1,0,0.003664,0.003167,-0.043402,-0.006072,-0.004760,0.074847,-1.4452,-1.0914,-0.3088
11139,11.0,-0.000315,-0.000392,-0.029192,0.000953,0.000435,-0.019590,-0.9086,-1.3671,0.2094,-0.00052378,0.00013288,0.00401977,-0.00207766,0.00183600,-0.01818463,-0.5823,0.2676,-10.3292,0.106847,-0.069102,0.026668,7.6917,0.0290,86,0,0,0.003682,0.003151,-0.042671,-0.005200,-0.003894,0.071264,-1.4858,-1.0666,-0.3375
11150,11.0,-0.000298,-0.000383,-0.029402,0.001836,0.000764,-0.018495,-0.8481,-1.4183,0.2369,-0.00086458,0.00029969,0.00402790,-0.00199395,0.00248398,-0.01817574,-0.3431,-0.1330,-9.7264,0.041334,-0.056279,0.060356,7.6917,0.0290,87,-1,-1,0.003690,0.003154,-0.037392,-0.011751,-0.004425,0.084169,-1.4642,-1.0961,-0.3838
11161,11.0,-0.000279,-0.000365,-0.029623,0.001926,0.001936,-0.023580,-0.8354,-1.4360,0.2750,-0.00110425,0.00016014,0.00403689,-0.00152498,0.00173265,-0.01824951,-0.0159,-0.1389,-10.3084,-0.010134,-0.047086,0.099593,7.6917,0.0290,89,-2,0,0.003712,0.003213,-0.033575,-0.010535,-0.001675,0.099772,-1.0216,-1.1195,-0.2409
11172,11.0,-0.000261,-0.000229,-0.029388,0.001724,0.020038,-0.016290,-0.7486,-1.4858,0.5085,-0.00230058,-0.00010054,0.00402685,-0.00224222,-0.00129329,-0.02036527,-0.0249,-0.0740,-9.6800,-0.016926,-0.126348,0.233404,7.6917,0.0290,90,-14,0,0.003612,0.003183,-0.030283,-0.009578,-0.004311,0.108290,-1.0518,-1.1166,-0.1703
11183,11.0,-0.000226,-0.000008,-0.029580,0.004369,0.020032,-0.020029,-0.7054,-1.6271,0.6823,-0.00229025,-0.00002958,0.00402660,-0.00248509,-0.00126177,-0.02039499,-0.1452,0.1465,-10.1782,0.074947,-0.218626,0.271857,7.6917,0.0300,80,-9,-2,0.003712,0.003785,-0.026052,-0.005860,0.000971,0.108913,-0.7057,-1.0765,-0.1073
11194,11.0,-0.000174,0.000191,-0.029832,0.004971,0.016632,-0.025822,-0.7984,-1.7241,0.8037,-0.00208233,0.00001054,0.00401938,-0.00262114,-0.00063084,-0.02038421,-0.3107,0.1610,-10.3514,-0.116906,-0.150887,0.172477,7.6917,0.0300,90,-7,-2,0.003757,0.004032,-0.026207,-0.004612,0.003137,0.103786,-0.6289,-1.3286,0.0071
11205,11.0,-0.000088,0.000409,-0.030047,0.010228,0.022420,-0.028816,-0.6627,-1.9035,0.9774,-0.00238367,0.00019164,0.00402788,-0.00319123,-0.00155924,-0.02076665,-0.1251,0.1606,-10.1996,0.182205,-0.264403,0.282841,7.6917,0.0300,100,-12,-5,0.003764,0.004229,-0.021673,-0.004723,0.006249,0.109027,-0.6282,-1.4772,0.2241
11216,11.0,0.000015,0.000646,-0.030396,0.008937,0.021066,-0.034797,-0.7340,-2.1276,1.0821,-0.00220788,0.00004428,0.00401617,-0.00277482,-0.00106547,-0.02078130,-0.2241,0.2858,-10.3703,-0.086601,-0.376798,0.129629,7.7471,0.0300,95,-10,-3,0.003893,0.004486,-0.020597,-0.002308,0.007993,0.106273,-0.6429,-1.6221,0.2482
11227,11.0,0.000116,0.000858,-0.030808,0.009222,0.018098,-0.038519,-0.6572,-2.4371,1.2323,-0.00195385,0.00009133,0.00400052,-0.00294750,-0.00033967,-0.02072670,-0.4350,0.2803,-10.1473,0.162516,-0.487189,0.175100,7.7471,0.0300,90,-9,-4,0.003984,0.004664,-0.027421,-0.001036,0.011084,0.059048,-0.6746,-1.8137,0.2777
11238,11.0,0.000213,0.001059,-0.030531,0.008166,0.018334,-0.026777,-0.7168,-2.7719,1.3191,-0.00194550,0.00022540,0.00400418,-0.00349016,-0.00027704,-0.02356070,-0.7310,0.1437,-9.4590,-0.088972,-0.515398,0.146215,7.7471,0.0300,95,-11,-4,0.004193,0.004950,-0.026325,0.000387,0.014293,0.052647,-0.5826,-2.6210,0.5029
11249,11.0,0.000317,0.001370,-0.030805,0.010508,0.035684,-0.021896,-0.5763,-2.9980,1.2069,-0.00292606,0.00032080,0.00411528,-0.00361407,-0.00368583,-0.02354457,-0.3823,-0.0630,-9.3760,0.089465,-0.347755,0.289705,7.7471,0.0300,97,-23,-5,0.004185,0.005094,-0.029834,-0.001596,0.014637,0.032811,-0.6052,-2.8615,0.6080
11260,11.0,0.000404,0.001677,-0.031053,0.006120,0.021736,-0.023280,-0.6267,-3.1723,1.4761,-0.00249545,-0.00014435,0.00408311,-0.00340361,-0.00051060,-0.02358480,-0.3422,-0.1631,-9.9580,-0.014944,-0.349280,0.335815,7.7471,0.0300,92,-10,-1,0.004293,0.005595,-0.029546,-0.001263,0.018339,0.032974,-0.3136,-2.8878,0.7096
11271,11.0,0.000457,0.001881,-0.030571,0.003905,0.015694,-0.014362,-0.6496,-3.3658,1.7307,-0.00232136,-0.00025914,0.00406934,-0.00313587,0.00008534,-0.02667408,-0.5593,-0.1373,-9.7881,0.006782,-0.326461,0.357106,7.7471,0.0300,93,-9,-1,0.004345,0.005918,-0.032004,0.000435,0.016705,0.011676,-0.1614,-3.0776,1.1916
11282,11.0,0.000490,0.002024,-0.030760,0.002001,0.010684,-0.020094,-0.6072,-3.6383,2.0501,-0.00221975,-0.00021733,0.00404649,-0.00331588,0.00031186,-0.02665988,-0.8653,-0.1594,-10.3275,0.108797,-0.431770,0.398107,7.7471,0.0300,90,-7,-1,0.004367,0.006016,-0.031921,-0.000528,0.015519,0.004955,-0.1531,-3.2338,1.4267
11294,12.0,0.000543,0.002154,-0.031034,0.006516,0.010871,-0.024054,-0.5753,-4.0790,2.2965,-0.00220957,0.00009753,0.00404036,-0.00426197,0.00030615,-0.02652172,-0.7496,0.1285,-10.1292,0.069245,-0.605676,0.310861,7.7471,0.0300,90,-8,-4,0.004499,0.006393,-0.033873,-0.003104,0.014632,-0.018558,-0.0620,-3.7216,1.7965
11305,11.0,0.000626,0.002275,-0.030543,0.008301,0.011707,-0.018658,-0.4700,-4.4344,2.5725,-0.00203335,0.00018162,0.00401391,-0.00472126,0.00073562,-0.02965896,-0.6976,0.4664,-10.1345,0.220654,-0.556103,0.315179,7.7789,0.0300,85,-8,-4,0.004593,0.006473,-0.040490,-0.002540,0.016894,-0.073339,-0.0073,-4.0466,2.0169
11316,11.0,0.000729,0.002414,-0.030826,0.010353,0.013926,-0.030120,-0.0946,-4.7719,2.9330,-0.00182328,0.00018029,0.00397979,-0.00479225,0.00112460,-0.02959117,-0.6434,0.6250,-10.8423,0.667915,-0.536593,0.422554,7.7789,0.0300,87,-9,-5,0.004778,0.006747,-0.038065,0.001393,0.027876,-0.067040,0.4376,-4.6218,2.5565
11327,11.0,0.000828,0.002575,-0.031183,0.007991,0.015834,-0.034804,0.4640,-5.1250,3.4173,-0.00165333,0.00001931,0.00392519,-0.00450779,0.00139097,-0.02966115,-0.7968,0.4932,-10.2342,0.972736,-0.577048,0.530305,7.7789,0.0300,97,-10,-4,0.004803,0.007053,-0.046479,0.003850,0.033659,-0.133606,0.8911,-4.9014,2.8081
11338,11.0,0.000928,0.002822,-0.030641,0.009491,0.027601,-0.023047,1.2075,-5.5406,3.2186,-0.00224268,0.00038203,0.00412298,-0.00537839,0.00025405,-0.03316112,-1.2953,-0.0829,-9.6620,1.074032,-0.626728,0.579066,7.7789,0.0300,96,-18,-8,0.004845,0.007236,-0.047859,0.004440,0.037454,-0.142510,1.4488,-5.2222,3.2701
11349,11.0,0.000993,0.003028,-0.030838,0.002557,0.011151,-0.012847,1.6434,-5.9526,4.1467,-0.00175888,0.00029963,0.00392496,-0.00554469,0.00152929,-0.03328335,-1.4243,-0.6738,-8.8083,0.894466,-0.617223,0.586846,7.7789,0.0310,102,-6,-3,0.004934,0.007637,-0.047935,-0.002436,0.034948,-0.125599,2.5205,-5.9038,4.2561
11360,11.0,0.001011,0.003106,-0.030963,0.000754,0.002884,-0.009828,1.8802,-6.4403,4.3078,-0.00180216,0.00022874,0.00396526,-0.00519092,0.00150052,-0.03331295,-1.0834,-1.1059,-9.4800,0.396806,-0.776396,0.473492,7.7234,0.0310,100,-6,-2,0.004936,0.007643,-0.049175,-0.004240,0.027850,-0.123018,2.8506,-6.2814,4.9195
11371,11.0,0.001020,0.003114,-0.030887,0.000696,-0.001743,-0.005751,1.8916,-7.1499,4.5090,-0.00230508,0.00040882,0.00395679,-0.00516363,0.00407456,-0.03386963,-1.3299,-0.9655,-9.5369,-0.040685,-1.085991,0.289440,7.7234,0.0310,96,-6,-2,0.004876,0.008033,-0.049398,-0.004708,0.031606,-0.117916,3.6201,-6.7121,6.1755
11382,11.0,0.001019,0.003029,-0.030971,-0.001076,-0.012879,-0.009546,1.7000,-7.9830,5.1614,-0.00191931,0.00048841,0.00374588,-0.00591847,0.00453441,-0.03392204,-1.6728,-0.5436,-10.0492,-0.119224,-1.272357,0.108564,7.7234,0.0310,101,-1,0,0.005038,0.007690,-0.050532,-0.001669,0.020876,-0.120007,3.5056,-8.2659,7.9029
11393,11.0,0.001019,0.002847,-0.031121,0.000866,-0.019267,-0.017857,1.6642,-8.8124,5.8068,-0.00148704,0.00057082,0.00354000,-0.00661376,0.00490517,-0.03397282,-1.5124,-0.0665,-10.4966,0.149690,-1.267030,0.124371,7.7234,0.0310,99,0,0,0.005086,0.007397,-0.044746,-0.002046,0.018789,-0.088566,3.3706,-9.0122,8.6712
11404,11.0,0.001016,0.002600,-0.030923,-0.001249,-0.024516,-0.023191,1.8596,-9.6360,6.5787,-0.00102091,0.00041503,0.00332455,-0.00705816,0.00511110,-0.03597648,-1.6808,0.1208,-10.6863,0.570230,-1.283202,0.297194,7.7234,0.0310,93,1,2,0.005089,0.007103,-0.045674,0.000020,0.020550,-0.099664,3.3596,-9.7539,9.4672
11415,11.0,0.001016,0.002310,-0.031239,0.000936,-0.027667,-0.034373,2.2065,-10.5324,7.1962,-0.00076969,0.00049256,0.00319282,-0.00751203,0.00514522,-0.03597374,-1.7950,-0.1563,-10.7144,0.756322,-1.369376,0.426389,7.7234,0.0310,101,1,0,0.005156,0.006931,-0.047256,0.004676,0.027903,-0.120170,3.7922,-11.2703,10.8660
11426,11.0,0.001042,0.002007,-0.031708,0.003836,-0.027477,-0.050992,2.3689,-11.3816,7.4584,-0.00074465,0.00048769,0.00318079,-0.00753260,0.00514149,-0.03598415,-1.8122,-0.3938,-11.2084,0.339665,-1.329756,0.412211,7.7234,0.0310,104,0,-1,0.005194,0.006578,-0.042555,0.008361,0.026981,-0.102025,3.9530,-12.1020,12.0944
11437,11.0,0.001084,0.001699,-0.031247,0.004238,-0.028597,-0.059870,2.1484,-12.0767,7.3132,-0.00082044,0.00029193,0.00326365,-0.00797899,0.00516427,-0.04057449,-2.0301,-0.7700,-11.6706,-0.406201,-1.146229,0.197656,7.7022,0.0310,107,0,0,0.005433,0.005964,-0.044911,0.022829,0.023394,-0.141996,3.6216,-13.6343,14.2554
11448,11.0,0.001198,0.001412,-0.032026,0.015608,-0.024114,-0.082604,1.5528,-12.5449,7.2670,-0.00103651,0.00076632,0.00329527,-0.00830110,0.00507210,-0.04012550,-2.1041,-0.4961,-11.7303,-0.993908,-0.672217,0.059684,7.7022,0.0320,108,-1,-6,0.005693,0.006201,-0.042537,0.030886,0.024892,-0.145879,3.1965,-14.1494,14.2759
11459,11.0,0.001357,0.001188,-0.033043,0.014037,-0.017091,-0.102339,1.2839,-12.6267,6.8182,-0.00128681,0.00045955,0.00347757,-0.00763916,0.00551246,-0.04036923,-2.1048,-0.2007,-11.4602,-0.614744,-0.195399,0.126158,7.7022,0.0320,105,-2,-2,0.005988,0.006034,-0.039422,0.039055,0.024527,-0.144116,2.4973,-14.4993,14.9369
11470,11.0,0.001493,0.001059,-0.032604,0.011472,-0.007386,-0.098946,1.4103,-12.4597,5.9499,-0.00179267,0.00013873,0.00382432,-0.00800440,0.00573125,-0.04693718,-2.0216,-0.4799,-11.1029,-0.157955,0.168342,0.167049,7.7022,0.0320,109,-4,-1,0.006156,0.006094,-0.040404,0.049857,0.028210,-0.169757,1.9063,-14.5253,15.2094
11481,11.0,0.001605,0.001029,-0.033768,0.009579,0.000748,-0.112602,1.5600,-12.1922,4.9948,-0.00231807,-0.00011179,0.00419454,-0.00687883,0.00624861,-0.04712170,-1.9835,-0.7490,-10.9072,-0.148559,0.339599,0.121687,7.7022,0.0320,104,-4,-1,0.006158,0.006254,-0.042139,0.055501,0.028143,-0.185075,1.8929,-14.3304,15.0365
11492,11.0,0.001667,0.001176,-0.035067,0.002541,0.023335,-0.124733,1.9034,-11.7474,3.0275,-0.00335591,-0.00041589,0.00490908,-0.00488552,0.00695642,-0.04731585,-2.0221,-0.7024,-10.7545,-0.221455,0.552136,-0.000075,7.7022,0.0320,107,-13,1,0.006736,0.006516,-0.038457,0.063834,0.025651,-0.172414,1.8051,-14.0971,15.1047
11504,12.0,0.001695,0.001421,-0.033734,0.002239,0.017651,-0.103279,1.9357,-11.2708,3.1284,-0.00319729,-0.00059085,0.00485172,-0.00768273,0.00617027,-0.05840736,-2.0001,-0.5321,-10.6731,0.097560,0.658852,-0.099698,7.7022,0.0320,103,-2,0,0.006480,0.007172,-0.039745,0.065258,0.026291,-0.185101,2.0144,-13.2567,13.5642
