timestamp_ms,dt_ms,pos_x,pos_y,pos_z,vel_x,vel_y,vel_z,roll_deg,pitch_deg,yaw_deg,gyro_bias_x,gyro_bias_y,gyro_bias_z,accel_bias_x,accel_bias_y,accel_bias_z,raw_accel_x,raw_accel_y,raw_accel_z,raw_gyro_x,raw_gyro_y,raw_gyro_z,raw_baro_alt,raw_tof,raw_flow_squal,raw_flow_dx,raw_flow_dy,dev_pos_x,dev_pos_y,dev_pos_z,dev_vel_x,dev_vel_y,dev_vel_z,dev_roll_deg,dev_pitch_deg,dev_yaw_deg
11023,10.0,0.000016,-0.000027,-0.032968,0.000779,-0.001916,0.000741,-0.0019,-0.0014,-0.0002,0.00000000,0.00000000,-0.00184470,-0.00001423,-0.00008598,0.00000000,-0.1566,0.1526,-9.7277,-0.002055,-0.001463,-0.002257,36.4687,0.0330,88,1,0,0.000158,0.000221,-0.032411,-0.000184,0.002859,-0.008445,-0.9492,-0.8688,0.2740
11035,12.0,-0.000000,-0.000055,-0.032953,-0.001418,-0.005565,0.001626,-1.0512,-0.2809,0.0198,0.00000175,0.00000169,-0.00184474,0.00051114,0.00185967,0.00000005,-0.1499,0.1733,-9.7293,-0.002773,-0.000891,-0.004440,36.4687,0.0330,95,3,1,0.000166,0.000205,-0.032492,-0.000255,0.002560,-0.007706,-0.9498,-0.8688,0.2739
11046,11.0,-0.000017,-0.000107,-0.031848,-0.000209,-0.001074,0.048168,-0.4506,-0.6025,-0.0069,-0.00000034,0.00000280,-0.00184463,-0.00061670,-0.00025454,-0.00005901,-0.1636,0.1642,-9.7313,-0.000983,-0.001629,-0.002837,36.4687,0.0310,93,0,0,0.000106,0.000120,-0.032585,-0.000696,0.002076,-0.005735,-0.9524,-0.8682,0.2740
11057,11.0,-0.000025,-0.000110,-0.031001,-0.000644,-0.000407,0.058000,-0.5772,-0.6856,-0.0079,0.00000179,0.00000421,-0.00184462,-0.00044548,-0.00051221,-0.00006944,-0.1633,0.1679,-9.7409,-0.002868,-0.000320,-0.003564,36.4687,0.0310,93,0,0,0.000113,0.000127,-0.031521,-0.000669,0.002049,0.006889,-0.9544,-0.8739,0.2740
11068,11.0,-0.000024,-0.000094,-0.030302,0.000403,0.002656,0.060085,-0.4021,-0.8071,-0.0215,-0.00000008,0.00000549,-0.00184452,-0.00107248,-0.00143158,-0.00009160,-0.1579,0.1768,-9.7532,-0.001261,-0.002716,-0.001708,36.4687,0.0310,81,-1,0,0.000126,0.000167,-0.031368,-0.000691,0.002075,0.008419,-0.9612,-0.8782,0.2735
11079,11.0,-0.000009,-0.000057,-0.029637,0.002386,0.003365,0.060922,-0.5185,-0.9629,-0.0317,0.00000433,0.00000905,-0.00184440,-0.00192381,-0.00179687,-0.00008007,-0.1606,0.1843,-9.7302,-0.004032,-0.002243,-0.000136,36.4687,0.0320,89,-1,-1,0.000133,0.000197,-0.031239,-0.000738,0.002293,0.009565,-0.9601,-0.8776,0.2733
11090,11.0,0.000020,-0.000026,-0.031443,0.003029,0.001910,0.016922,-0.6664,-1.0000,-0.0238,0.00000977,0.00001037,-0.00184450,-0.00215118,-0.00080375,0.00141464,-0.1637,0.1887,-9.7114,-0.003170,-0.001770,-0.000552,36.4687,0.0320,91,0,-1,0.000164,0.000230,-0.031667,-0.000542,0.002396,0.004564,-0.9669,-0.8839,0.1861
11101,11.0,0.000054,0.000003,-0.031252,0.003226,0.003023,0.017765,-0.6847,-1.0134,-0.0308,0.00001160,0.00001110,-0.00184443,-0.00222226,-0.00132532,0.00141129,-0.1752,0.1796,-9.7288,-0.004902,-0.001027,-0.003950,36.4687,0.0320,94,-1,-1,0.000227,0.000245,-0.031531,-0.000436,0.002450,0.006528,-0.9706,-0.8898,0.1873
11112,11.0,0.000083,0.000031,-0.031038,0.001634,0.001710,0.018790,-0.7737,-0.9380,-0.0178,0.00001810,0.00000541,-0.00184475,-0.00156681,-0.00057561,0.00138094,-0.1580,0.1795,-9.7321,-0.004225,-0.000266,-0.001807,36.5268,0.0310,87,0,0,0.000260,0.000277,-0.031461,-0.000480,0.002568,0.007309,-0.9711,-0.8903,0.1863
11123,11.0,0.000101,0.000053,-0.030944,0.001618,0.002131,0.018036,-0.7943,-0.9409,-0.0211,0.00002044,0.00000550,-0.00184473,-0.00155458,-0.00079920,0.00160518,-0.1626,0.1737,-9.7267,-0.003448,-0.003318,-0.004178,36.5268,0.0310,80,0,0,0.000274,0.000292,-0.031028,-0.000489,0.002292,0.011679,-0.9733,-0.8938,0.1866
11134,11.0,0.000120,0.000079,-0.030733,0.001836,0.002655,0.018974,-0.7959,-0.9437,-0.0217,0.00002044,0.00000550,-0.00184473,-0.00155493,-0.00079886,0.00158221,-0.1416,0.1817,-9.7300,-0.002497,-0.004544,-0.002733,36.5268,0.0310,90,0,0,0.000280,0.000299,-0.030900,-0.000475,0.002254,0.012557,-0.9773,-0.8999,0.1864
11145,11.0,0.000068,0.000084,-0.030520,-0.003329,0.001077,0.019879,-0.8692,-0.7897,0.0002,0.00002997,-0.00001355,-0.00184546,0.00033643,-0.00027914,0.00155138,-0.1630,0.1708,-9.7230,-0.003050,-0.001391,-0.000811,36.5268,0.0320,84,0,2,0.000287,0.000306,-0.030770,-0.000373,0.002322,0.013334,-0.9774,-0.9012,0.1864
11156,11.0,0.000058,0.000093,-0.031355,-0.000656,0.000853,0.007797,-0.8823,-0.8762,-0.0074,0.00003169,0.00000093,-0.00184516,-0.00062673,-0.00022143,0.00580621,-0.1626,0.1596,-9.7401,-0.003113,-0.001969,-0.003773,36.5268,0.0320,91,0,0,0.000251,0.000320,-0.031401,-0.000467,0.002319,0.005507,-0.9799,-0.9038,0.1877
11167,11.0,0.000050,0.000103,-0.031265,-0.000791,0.001046,0.008616,-0.8896,-0.8798,-0.0079,0.00003304,0.00000193,-0.00184516,-0.00055365,-0.00031962,0.00580406,-0.1627,0.1685,-9.7269,-0.002984,0.000796,-0.002456,36.5268,0.0320,89,0,0,0.000258,0.000327,-0.031342,-0.000448,0.002260,0.006158,-0.9794,-0.9072,0.1873
11178,11.0,0.000041,0.000117,-0.031156,-0.000940,0.001363,0.009642,-0.8918,-0.8808,-0.0073,0.00003304,0.00000193,-0.00184516,-0.00055449,-0.00031879,0.00575081,-0.1635,0.1795,-9.7177,-0.003476,-0.001675,-0.000948,36.5268,0.0320,89,0,0,0.000266,0.000335,-0.031267,-0.000519,0.002204,0.006991,-0.9806,-0.9066,0.1870
11189,11.0,0.000051,0.000090,-0.031597,0.000472,-0.001264,0.003977,-0.9603,-0.9093,-0.0041,0.00005055,0.00000896,-0.00184532,-0.00100612,0.00050281,0.00929171,-0.1433,0.1685,-9.7321,-0.002290,-0.001165,-0.002104,36.5268,0.0320,85,1,0,0.000281,0.000351,-0.031652,-0.000570,0.002106,0.003066,-0.9868,-0.9070,0.3870
11201,12.0,0.000041,0.000088,-0.031538,-0.001028,0.000119,0.004790,-0.9356,-0.8748,-0.0043,0.00004158,-0.00000260,-0.00184542,-0.00046296,0.00008115,0.00922241,-0.1426,0.1719,-9.7372,-0.003704,-0.000712,-0.004264,36.5268,0.0320,93,0,1,0.000288,0.000334,-0.031610,-0.000515,0.001985,0.003799,-0.9889,-0.9049,0.3863
11212,11.0,0.000038,0.000093,-0.031481,0.000132,0.000625,0.005686,-0.9403,-0.9004,-0.0105,0.00004328,0.00000704,-0.00184512,-0.00084649,-0.00015435,0.00922559,-0.1538,0.1905,-9.7163,-0.001137,-0.001745,-0.002131,36.5268,0.0330,89,0,0,0.000270,0.000341,-0.031569,-0.000471,0.002054,0.004401,-0.9901,-0.9035,0.3850
11223,11.0,0.000039,0.000102,-0.032304,0.000021,0.001063,-0.003865,-0.9419,-0.9026,-0.0100,0.00004325,0.00000701,-0.00184512,-0.00072870,-0.00027518,0.01670746,-0.1640,0.1996,-9.7186,-0.001308,-0.003288,-0.001210,36.5268,0.0330,95,0,0,0.000286,0.000357,-0.032452,-0.000481,0.001998,-0.004315,-0.9952,-0.9026,0.3845
11234,11.0,0.000086,0.000131,-0.032343,0.004628,0.002797,-0.003246,-0.9159,-0.9816,-0.0288,0.00002915,0.00004472,-0.00184376,-0.00226092,-0.00084243,0.01672317,-0.1483,0.1638,-9.7346,-0.004831,-0.002037,0.000968,36.5268,0.0330,83,-1,-2,0.000293,0.000365,-0.032492,-0.000477,0.001999,-0.003589,-0.9986,-0.9056,0.3852
11245,11.0,0.000143,0.000151,-0.032367,0.005507,0.001497,-0.002411,-0.9442,-0.9946,-0.0258,0.00004355,0.00005175,-0.00184389,-0.00250069,-0.00035310,0.01665574,-0.1573,0.1763,-9.7238,-0.003944,-0.000632,0.000001,36.5268,0.0320,90,0,-2,0.000407,0.000406,-0.032208,-0.000076,0.001993,0.001461,-0.9968,-0.9105,0.3841
11256,11.0,0.000184,0.000164,-0.032167,0.002502,0.000964,0.000926,-0.9564,-0.9431,-0.0169,0.00004944,0.00001824,-0.00184473,-0.00159957,-0.00014321,0.01449520,-0.1543,0.1639,-9.7267,-0.004655,-0.003028,-0.001871,36.4343,0.0320,93,0,0,0.000415,0.000413,-0.032155,-0.000056,0.002010,0.002587,-0.9978,-0.9102,0.3849
11267,11.0,0.000195,0.000164,-0.032120,-0.000302,-0.000841,0.002050,-0.9852,-0.9022,-0.0051,0.00006944,-0.00001126,-0.00184586,-0.00073836,0.00044959,0.01414572,-0.1649,0.1690,-9.7276,-0.000073,-0.002130,-0.003092,36.4343,0.0320,85,1,1,0.000405,0.000426,-0.032089,-0.000212,0.002228,0.003961,-0.9978,-0.9100,0.3840
11278,11.0,0.000186,0.000161,-0.032093,-0.001358,0.000155,0.002892,-0.9703,-0.8895,-0.0060,0.00005700,-0.00002203,-0.00184586,-0.00039475,0.00015125,0.01413315,-0.1579,0.1625,-9.7168,-0.002148,-0.001939,-0.003100,36.4343,0.0340,94,0,1,0.000387,0.000408,-0.033193,-0.000287,0.002113,-0.008228,-0.9994,-0.9097,0.3839
11290,12.0,0.000170,0.000163,-0.033113,-0.001349,0.000290,-0.008817,-0.9722,-0.8917,-0.0044,0.00005697,-0.00002210,-0.00184586,-0.00022490,-0.00002974,0.02488723,-0.1508,0.1764,-9.7171,-0.001774,-0.003268,0.000224,36.4343,0.0340,94,0,1,0.000368,0.000415,-0.033272,-0.000359,0.002034,-0.007592,-0.9990,-0.9098,0.3479
11301,11.0,0.000193,0.000191,-0.033207,0.002356,0.002757,-0.008238,-0.9453,-0.9407,-0.0232,0.00003173,0.00002124,-0.00184419,-0.00138763,-0.00083103,0.02489149,-0.1525,0.1795,-9.7297,-0.002285,-0.000412,-0.003847,36.4343,0.0340,88,-1,-1,0.000331,0.000430,-0.033361,-0.000475,0.002138,-0.005806,-0.9989,-0.9072,0.3499
11312,11.0,0.000210,0.000210,-0.033250,0.001303,0.001494,-0.007012,-0.9660,-0.9290,-0.0157,0.00005085,0.00000849,-0.00184494,-0.00108760,-0.00036123,0.02442916,-0.1651,0.1830,-9.7200,-0.002014,-0.001937,-0.001915,36.4343,0.0330,88,0,0,0.000364,0.000464,-0.033160,-0.000346,0.002210,-0.002407,-0.9998,-0.9064,0.3484
11323,11.0,0.000225,0.000229,-0.033138,0.001372,0.001812,-0.004085,-0.9723,-0.9272,-0.0177,0.00005521,0.00000752,-0.00184489,-0.00115414,-0.00049451,0.02255271,-0.1526,0.1937,-9.7165,-0.002817,0.001172,-0.001932,36.4343,0.0330,93,0,0,0.000379,0.000479,-0.033156,-0.000366,0.002314,-0.000704,-1.0037,-0.9074,0.3481
11334,11.0,0.000241,0.000250,-0.033163,0.001542,0.002090,-0.003219,-0.9741,-0.9273,-0.0180,0.00005521,0.00000752,-0.00184489,-0.00115688,-0.00049154,0.02237937,-0.1435,0.1902,-9.7245,-0.002876,-0.000095,-0.002425,36.4924,0.0330,90,0,0,0.000387,0.000486,-0.033133,-0.000344,0.002471,0.000219,-1.0040,-0.9065,0.3483
11345,11.0,0.000249,0.000186,-0.033195,0.000917,-0.003428,-0.002509,-1.0406,-0.9248,-0.0008,0.00013270,0.00000221,-0.00184671,-0.00094573,0.00117152,0.02240695,-0.1687,0.1788,-9.7198,-0.001163,-0.003135,-0.001076,36.4924,0.0340,93,2,0,0.000395,0.000494,-0.033128,-0.000284,0.002464,0.000802,-1.0071,-0.9045,0.3478
11356,11.0,0.000258,0.000178,-0.033634,0.000876,-0.000739,-0.006971,-1.0109,-0.9257,-0.0082,0.00009190,0.00000007,-0.00184594,-0.00083556,0.00026059,0.02649432,-0.1492,0.1669,-9.7417,-0.001880,-0.003896,-0.003771,36.4924,0.0340,89,0,0,0.000411,0.000456,-0.033714,-0.000340,0.002293,-0.003965,-1.0102,-0.9065,0.3482
11367,11.0,0.000267,0.000191,-0.033709,0.000803,0.001951,-0.006652,-0.9861,-0.9263,-0.0153,0.00005376,0.00000020,-0.00184508,-0.00080017,-0.00056842,0.02647720,-0.1624,0.1810,-9.7516,-0.002519,-0.000661,-0.001680,36.4924,0.0330,86,-1,0,0.000392,0.000464,-0.033752,-0.000373,0.002104,-0.003647,-1.0092,-0.9074,0.3478
11379,12.0,0.000277,0.000209,-0.033762,0.000763,0.001184,-0.005737,-0.9960,-0.9288,-0.0114,0.00006912,0.00000027,-0.00184542,-0.00080571,-0.00028121,0.02626050,-0.1622,0.1835,-9.7270,0.000164,-0.003527,-0.000176,36.4924,0.0330,82,0,0,0.000406,0.000530,-0.033308,-0.000272,0.002315,0.002181,-1.0091,-0.9074,0.3477
11391,12.0,0.000286,0.000225,-0.033355,0.000830,0.001457,0.000510,-1.0012,-0.9294,-0.0125,0.00007317,-0.00000086,-0.00184537,-0.00091224,-0.00032940,0.02179545,-0.1531,0.1925,-9.7246,-0.003293,-0.002177,-0.001236,36.5849,0.0330,86,0,0,0.000414,0.000538,-0.033283,-0.000308,0.002234,0.002710,-1.0099,-0.9081,0.4148
11402,11.0,0.000295,0.000256,-0.033357,0.000811,0.002896,0.000862,-0.9918,-0.9307,-0.0157,0.00005030,-0.00000094,-0.00184488,-0.00090829,-0.00073052,0.02188826,-0.1608,0.1765,-9.7418,-0.006164,-0.001976,-0.001210,36.5849,0.0330,91,-1,0,0.000421,0.000545,-0.033269,-0.000258,0.002362,0.003085,-1.0107,-0.9082,0.4150
11413,11.0,0.000304,0.000290,-0.033344,0.000751,0.003182,0.001462,-0.9971,-0.9310,-0.0169,0.00005520,0.00000020,-0.00184485,-0.00087466,-0.00087407,0.02188531,-0.1650,0.1947,-9.7302,-0.003144,0.000678,-0.002243,36.5849,0.0330,94,-1,0,0.000437,0.000610,-0.033074,-0.000400,0.002744,0.005526,-1.0147,-0.9107,0.4134
11424,11.0,0.000313,0.000278,-0.033147,0.000758,-0.000611,0.004235,-1.0350,-0.9314,-0.0068,0.00012435,0.00000195,-0.00184637,-0.00093244,0.00029042,0.02029182,-0.1674,0.1810,-9.7234,-0.003462,0.000610,-0.003711,36.5849,0.0330,90,1,0,0.000444,0.000644,-0.033016,-0.000421,0.002844,0.006127,-1.0175,-0.9119,0.4129
11435,11.0,0.000322,0.000270,-0.033097,0.000837,-0.000823,0.004871,-1.0356,-0.9313,-0.0068,0.00011992,0.00000036,-0.00184640,-0.00097664,0.00041346,0.02029460,-0.1521,0.1566,-9.7294,-0.005090,-0.001248,-0.002866,36.5849,0.0330,88,1,0,0.000452,0.000626,-0.032951,-0.000567,0.002781,0.006767,-1.0183,-0.9119,0.4129
11446,11.0,0.000330,0.000275,-0.033053,0.000805,0.000369,0.005360,-1.0287,-0.9324,-0.0085,0.00010142,-0.00000091,-0.00184604,-0.00095421,0.00012594,0.02041229,-0.1562,0.1947,-9.7272,-0.002521,-0.002732,-0.000922,36.5849,0.0330,87,0,0,0.000443,0.000565,-0.032880,-0.000748,0.002549,0.007348,-1.0182,-0.9102,0.4105
11457,11.0,0.000339,0.000279,-0.032990,0.000741,0.000414,0.006154,-1.0318,-0.9344,-0.0094,0.00010196,0.00000031,-0.00184605,-0.00092199,0.00011156,0.02041478,-0.1654,0.1790,-9.7140,-0.004315,-0.002123,-0.003656,36.5849,0.0330,87,0,0,0.000450,0.000572,-0.032816,-0.000718,0.002582,0.007809,-1.0214,-0.9110,0.4107
11468,11.0,0.000397,0.000334,-0.032929,0.004788,0.004693,0.006751,-1.0012,-0.9689,-0.0340,0.00002524,0.00007774,-0.00184237,-0.00204061,-0.00100062,0.02050557,-0.1509,0.2091,-9.7205,-0.002269,-0.003320,-0.003604,36.5849,0.0330,89,-2,-2,0.000465,0.000587,-0.032648,-0.000698,0.002533,0.009061,-1.0213,-0.9134,0.4112
11479,11.0,0.000457,0.000378,-0.032850,0.005688,0.003875,0.007482,-1.0119,-0.9734,-0.0329,0.00004731,0.00008874,-0.00184232,-0.00233974,-0.00078532,0.02051508,-0.1502,0.1827,-9.7202,-0.002818,-0.000953,0.002530,36.6087,0.0330,87,-1,-2,0.000523,0.000644,-0.032849,-0.000441,0.002961,0.006493,-1.0208,-0.9153,0.4103
11490,11.0,0.000497,0.000406,-0.032902,0.002541,0.001935,0.006383,-1.0306,-0.9502,-0.0137,0.00009450,0.00002163,-0.00184515,-0.00143058,-0.00018180,0.02167689,-0.1660,0.1977,-9.7385,-0.001760,-0.002493,0.001033,36.6087,0.0330,88,0,0,0.000583,0.000679,-0.032781,-0.000322,0.002956,0.007163,-1.0247,-0.9130,0.5643
11501,11.0,0.000525,0.000427,-0.032829,0.002629,0.001984,0.006872,-1.0316,-0.9507,-0.0153,0.00009533,0.00001979,-0.00184513,-0.00147436,-0.00020153,0.02167723,-0.1553,0.1800,-9.7410,-0.000887,-0.002110,-0.003433,36.6087,0.0330,99,0,0,0.000597,0.000694,-0.032653,-0.000260,0.003056,0.007987,-1.0263,-0.9131,0.5670
11511,10.0,0.000517,0.000438,-0.032781,-0.000662,0.001028,0.006873,-1.0398,-0.9263,-0.0035,0.00011537,-0.00005508,-0.00184733,-0.00051731,0.00004754,0.02185360,-0.1509,0.1716,-9.7587,-0.002179,-0.002052,-0.001721,36.6087,0.0330,91,0,1,0.000605,0.000702,-0.032827,-0.000331,0.002975,0.005701,-1.0262,-0.9132,0.5670
11522,11.0,0.000518,0.000447,-0.032859,0.000333,0.000825,0.005779,-1.0427,-0.9321,-0.0061,0.00012104,-0.00004029,-0.00184694,-0.00082211,0.00008216,0.02316728,-0.1432,0.1797,-9.7150,-0.001577,-0.002421,-0.001421,36.6087,0.0330,90,0,0,0.000595,0.000717,-0.032727,-0.000380,0.002816,0.006236,-1.0265,-0.9135,0.5680
11533,11.0,0.000523,0.000444,-0.032792,0.000658,-0.001004,0.006441,-1.0555,-0.9355,-0.0034,0.00016055,-0.00003556,-0.00184758,-0.00088019,0.00055771,0.02318150,-0.1484,0.1663,-9.7236,-0.000895,-0.003148,-0.002282,36.5506,0.0330,94,1,0,0.000602,0.000699,-0.032663,-0.000333,0.002661,0.006784,-1.0257,-0.9136,0.5679
11544,11.0,0.000521,0.000440,-0.032719,-0.000786,0.000066,0.006756,-1.0498,-0.9210,-0.0015,0.00013927,-0.00009312,-0.00184822,-0.00059849,0.00023605,0.02316967,-0.1151,0.1885,-9.7558,-0.000276,-0.005901,-0.001609,36.5506,0.0330,89,0,1,0.000610,0.000681,-0.032832,-0.000290,0.002489,0.004694,-1.0251,-0.9145,0.5678
11555,11.0,0.000512,0.000439,-0.032832,-0.000893,-0.000116,0.005561,-1.0505,-0.9212,-0.0046,0.00013929,-0.00009316,-0.00184822,-0.00057365,0.00020731,0.02472781,-0.1665,0.1616,-9.6847,-0.000982,-0.000414,-0.006806,36.5506,0.0330,92,0,1,0.000574,0.000696,-0.032732,-0.000413,0.002431,0.005440,-1.0282,-0.9122,0.5666
11566,11.0,0.000474,0.000444,-0.032767,-0.003538,0.000453,0.006235,-1.0472,-0.9028,0.0005,0.00012418,-0.00016784,-0.00184946,0.00010777,0.00005775,0.02471295,-0.1373,0.1769,-9.7214,-0.001261,-0.004415,-0.000900,36.5506,0.0330,89,0,2,0.000582,0.000704,-0.032673,-0.000474,0.002356,0.006190,-1.0277,-0.9139,0.5648
11577,11.0,0.000436,0.000450,-0.032694,-0.003442,0.000661,0.007184,-1.0490,-0.9021,-0.0002,0.00012418,-0.00016784,-0.00184946,0.00010785,0.00005766,0.02471803,-0.1444,0.1966,-9.6953,-0.002756,0.001088,-0.002874,36.5506,0.0340,89,0,2,0.000537,0.000710,-0.032610,-0.000497,0.002354,0.006726,-1.0273,-0.9147,0.5654
11588,11.0,0.000436,0.000458,-0.033368,-0.000232,0.000764,-0.000861,-1.0507,-0.9220,-0.0135,0.00012667,-0.00009115,-0.00184738,-0.00071078,-0.00009333,0.03069889,-0.1479,0.1881,-9.6983,-0.001365,-0.000839,-0.005939,36.5506,0.0340,89,0,0,0.000553,0.000725,-0.033509,-0.000645,0.002537,-0.002228,-1.0295,-0.9162,0.4459
11599,11.0,0.000455,0.000466,-0.033375,0.002432,0.000797,-0.000315,-1.0523,-0.9350,-0.0189,0.00012736,-0.00003755,-0.00184605,-0.00127334,-0.00008364,0.03071080,-0.1034,0.1844,-9.7273,-0.002090,0.000116,-0.000334,36.5506,0.0340,94,0,-1,0.000561,0.000734,-0.033528,-0.000620,0.002552,-0.001653,-1.0302,-0.9163,0.4436
11610,11.0,0.000475,0.000475,-0.033376,0.001453,0.000672,0.000080,-1.0511,-0.9262,-0.0162,0.00011799,-0.00007502,-0.00184668,-0.00105604,0.00001284,0.03070852,-0.1404,0.1578,-9.7411,-0.002487,-0.000980,-0.001286,36.4924,0.0330,92,0,0,0.000593,0.000742,-0.033543,-0.000151,0.002622,-0.001202,-1.0301,-0.9157,0.4438
11621,11.0,0.000493,0.000482,-0.033151,0.001791,0.000619,0.002968,-1.0531,-0.9275,-0.0166,0.00011799,-0.00007494,-0.00184668,-0.00108217,0.00004435,0.02899120,-0.1286,0.1747,-9.7543,-0.003078,-0.001989,-0.002440,36.4924,0.0330,94,0,0,0.000608,0.000757,-0.033162,-0.000177,0.002457,0.003465,-1.0288,-0.9158,0.4427
11632,11.0,0.000513,0.000489,-0.033113,0.001926,0.000646,0.003775,-1.0535,-0.9273,-0.0161,0.00011833,-0.00007885,-0.00184664,-0.00115380,0.00003839,0.02899221,-0.1460,0.1815,-9.7048,-0.000317,-0.001868,0.000094,36.4924,0.0330,92,0,0,0.000616,0.000765,-0.033125,-0.000065,0.002404,0.003770,-1.0293,-0.9144,0.4423
11643,11.0,0.000553,0.000465,-0.033047,0.003142,-0.001386,0.004646,-1.0672,-0.9338,-0.0156,0.00017281,-0.00004673,-0.00184688,-0.00147288,0.00057829,0.02884216,-0.1553,0.1761,-9.7226,-0.002866,0.000731,-0.001701,36.4924,0.0330,86,1,-1,0.000623,0.000772,-0.033058,-0.000069,0.002494,0.004567,-1.0284,-0.9146,0.4440
11654,11.0,0.000570,0.000465,-0.032991,0.001630,-0.000038,0.005223,-1.0606,-0.9249,-0.0136,0.00013116,-0.00009596,-0.00184717,-0.00109144,0.00023267,0.02881514,-0.1492,0.1764,-9.7279,-0.003322,-0.002669,-0.000381,36.4924,0.0330,87,0,0,0.000665,0.000763,-0.032927,0.000012,0.002106,0.005781,-1.0301,-0.9148,0.4437
11665,11.0,0.000587,0.000464,-0.032914,0.001566,-0.000066,0.006058,-1.0615,-0.9269,-0.0142,0.00013116,-0.00009596,-0.00184717,-0.00109330,0.00023495,0.02868955,-0.1643,0.1782,-9.7204,-0.001303,-0.003203,-0.002779,36.4924,0.0330,90,0,0,0.000672,0.000770,-0.032866,0.000017,0.002059,0.006283,-1.0305,-0.9151,0.4434
11676,11.0,0.000620,0.000491,-0.032845,0.002892,0.002408,0.006538,-1.0514,-0.9360,-0.0249,0.00006482,-0.00005911,-0.00184473,-0.00145058,-0.00044430,0.02868223,-0.1567,0.1900,-9.7346,-0.004131,-0.003155,-0.002657,36.4924,0.0320,89,-1,-1,0.000680,0.000777,-0.032801,0.000035,0.002089,0.006829,-1.0310,-0.9160,0.4427
11687,11.0,0.000624,0.000508,-0.032329,-0.000134,0.001296,0.012273,-1.0580,-0.9196,-0.0104,0.00009898,-0.00015339,-0.00184771,-0.00066313,-0.00008663,0.02543189,-0.1478,0.1815,-9.7290,-0.000041,-0.002236,0.003117,36.4924,0.0320,84,0,1,0.000694,0.000840,-0.032146,0.000132,0.002294,0.012818,-1.0300,-0.9179,0.3326
11698,11.0,0.000627,0.000508,-0.032191,0.000434,-0.000661,0.012842,-1.0736,-0.9236,-0.0072,0.00016829,-0.00013436,-0.00184858,-0.00081033,0.00040156,0.02544424,-0.1602,0.1961,-9.7295,-0.003965,-0.000961,-0.001280,36.4924,0.0320,84,1,0,0.000659,0.000854,-0.031857,0.000043,0.002404,0.014084,-1.0303,-0.9172,0.3345
11709,11.0,0.000633,0.000506,-0.032026,0.000642,0.000078,0.013721,-1.0699,-0.9267,-0.0116,0.00013493,-0.00012629,-0.00184768,-0.00087973,0.00012137,0.02528341,-0.1628,0.1523,-9.7253,-0.003411,-0.002754,-0.003419,36.4924,0.0330,90,0,0,0.000666,0.000836,-0.032480,0.000049,0.002323,0.006010,-1.0321,-0.9170,0.3349
11720,11.0,0.000641,0.000498,-0.032486,0.000727,-0.001237,0.006861,-1.0781,-0.9286,-0.0092,0.00017108,-0.00012225,-0.00184850,-0.00083090,0.00041021,0.02971282,-0.1613,0.1758,-9.7489,-0.003380,-0.002042,-0.004033,36.4924,0.0330,90,1,0,0.000674,0.000844,-0.032401,0.000000,0.002074,0.006641,-1.0323,-0.9177,0.3343
11731,11.0,0.000649,0.000492,-0.032391,0.000758,0.000022,0.007632,-1.0741,-0.9296,-0.0133,0.00013141,-0.00012024,-0.00184757,-0.00084730,0.00008849,0.02958715,-0.1620,0.1854,-9.7250,-0.003943,-0.001125,-0.002712,36.4924,0.0330,86,0,0,0.000690,0.000833,-0.032261,-0.000080,0.001982,0.007479,-1.0323,-0.9189,0.3331
11742,11.0,0.000658,0.000505,-0.032303,0.000811,0.002065,0.008404,-1.0631,-0.9279,-0.0163,0.00005680,-0.00012812,-0.00184623,-0.00089570,-0.00041043,0.02957752,-0.1452,0.1707,-9.7077,-0.002197,-0.000051,0.000869,36.4924,0.0320,89,-1,0,0.000698,0.000841,-0.032054,-0.000086,0.001958,0.009432,-1.0336,-0.9187,0.3327
11753,11.0,0.000666,0.000522,-0.032069,0.000791,0.001144,0.010450,-1.0681,-0.9299,-0.0157,0.00008579,-0.00013059,-0.00184687,-0.00089229,-0.00016407,0.02859552,-0.1541,0.1773,-9.7409,-0.000714,-0.003940,-0.004366,36.4581,0.0320,89,0,0,0.000704,0.000873,-0.031957,0.000003,0.001964,0.010054,-1.0334,-0.9175,0.3336
11764,11.0,0.000675,0.000543,-0.031951,0.000743,0.002462,0.010990,-1.0597,-0.9324,-0.0180,0.00002499,-0.00012425,-0.00184576,-0.00084959,-0.00043965,0.02858911,-0.1705,0.1584,-9.7296,-0.002599,-0.001900,-0.001083,36.4581,0.0330,89,-1,0,0.000719,0.000913,-0.031710,0.000047,0.001857,0.011219,-1.0326,-0.9178,0.3337
11775,11.0,0.000693,0.000573,-0.031792,0.002331,0.002998,0.012191,-1.0579,-0.9428,-0.0249,0.00000295,-0.00005917,-0.00184378,-0.00135137,-0.00060220,0.02835296,-0.1907,0.1689,-9.7060,-0.002461,-0.001110,-0.002761,36.4581,0.0330,88,-1,-1,0.000752,0.000946,-0.032411,0.000087,0.001860,0.002652,-1.0315,-0.9189,0.3340
11786,11.0,0.000713,0.000597,-0.032387,0.001362,0.001498,0.004229,-1.0650,-0.9384,-0.0195,0.00004598,-0.00009640,-0.00184565,-0.00103655,-0.00027043,0.03343229,-0.1559,0.1697,-9.7193,-0.001735,-0.002059,-0.003513,36.4581,0.0330,85,0,0,0.000786,0.000980,-0.032381,-0.000101,0.001875,0.003267,-1.0311,-0.9189,0.3335
11797,11.0,0.000727,0.000614,-0.032312,0.001351,0.001503,0.004970,-1.0678,-0.9391,-0.0193,0.00004598,-0.00009640,-0.00184565,-0.00103951,-0.00026711,0.03324787,-0.1621,0.1818,-9.7348,-0.004369,-0.001201,-0.001488,36.4581,0.0330,93,0,0,0.000802,0.001021,-0.032263,-0.000165,0.001916,0.004667,-1.0330,-0.9179,0.5045
11808,11.0,0.000743,0.000631,-0.032255,0.001441,0.001610,0.005382,-1.0695,-0.9398,-0.0195,0.00004928,-0.00009950,-0.00184559,-0.00108316,-0.00031369,0.03324770,-0.1528,0.1917,-9.7363,-0.001533,-0.002252,-0.000807,36.4343,0.0320,91,0,0,0.000810,0.001028,-0.032080,-0.000162,0.001911,0.006606,-1.0349,-0.9181,0.5045
11819,11.0,0.000749,0.000607,-0.032057,0.000947,-0.001235,0.007529,-1.0858,-0.9372,-0.0120,0.00013955,-0.00012320,-0.00184800,-0.00092774,0.00036466,0.03233116,-0.1437,0.1602,-9.7251,-0.005601,-0.001343,-0.002002,36.4343,0.0320,93,1,0,0.000824,0.001043,-0.031902,-0.000023,0.001958,0.007827,-1.0360,-0.9165,0.5053
11831,12.0,0.000760,0.000593,-0.031965,0.000779,-0.001132,0.007718,-1.0890,-0.9391,-0.0126,0.00014272,-0.00011756,-0.00184804,-0.00084895,0.00032013,0.03232913,-0.1754,0.1946,-9.7585,-0.003497,-0.001149,-0.003382,36.4343,0.0320,85,1,0,0.000831,0.001025,-0.031822,0.000105,0.001794,0.008182,-1.0370,-0.9165,0.5054
11842,11.0,0.000769,0.000581,-0.031834,0.000917,-0.001158,0.008789,-1.0900,-0.9408,-0.0121,0.00014273,-0.00011755,-0.00184804,-0.00085386,0.00032552,0.03202961,-0.1482,0.1835,-9.7252,-0.001475,-0.002770,-0.001130,36.4343,0.0330,91,1,0,0.000839,0.001007,-0.031671,0.000055,0.001779,0.009125,-1.0391,-0.9178,0.5046
11853,11.0,0.000774,0.000596,-0.032430,0.000884,0.000418,0.000845,-1.0865,-0.9362,-0.0165,0.00009163,-0.00014314,-0.00184715,-0.00084540,-0.00017061,0.03662607,-0.1299,0.1934,-9.7588,-0.004853,0.000520,-0.002380,36.4343,0.0330,89,0,0,0.000854,0.000996,-0.032459,0.000173,0.001714,0.000552,-1.0397,-0.9185,0.5036
11864,11.0,0.000740,0.000581,-0.032386,-0.002683,-0.001132,0.001672,-1.0950,-0.9218,-0.0027,0.00015154,-0.00027312,-0.00185186,0.00003378,0.00023645,0.03639377,-0.1621,0.1927,-9.7313,-0.001072,-0.003871,-0.004060,36.4343,0.0330,93,1,2,0.000861,0.001003,-0.032453,0.000370,0.001821,0.000686,-1.0411,-0.9177,0.5033
11875,11.0,0.000744,0.000578,-0.032364,0.001206,0.000017,0.002246,-1.0899,-0.9422,-0.0163,0.00010467,-0.00012432,-0.00184719,-0.00093373,-0.00003018,0.03640480,-0.1628,0.1820,-9.7184,-0.001432,-0.002979,-0.001369,36.4343,0.0330,92,0,-1,0.000851,0.000992,-0.032740,0.000374,0.001816,-0.001746,-1.0430,-0.9186,0.5029
11886,11.0,0.000756,0.000581,-0.032670,0.001018,0.000406,-0.000905,-1.0908,-0.9424,-0.0158,0.00008710,-0.00013904,-0.00184721,-0.00080081,-0.00018646,0.03857912,-0.1430,0.1786,-9.7014,-0.004662,-0.003304,-0.001158,36.4343,0.0330,89,0,0,0.000858,0.001024,-0.032755,0.000386,0.001903,-0.001318,-1.0422,-0.9201,0.4707
11897,11.0,0.000767,0.000586,-0.032679,0.001004,0.000369,-0.000730,-1.0922,-0.9449,-0.0154,0.00008538,-0.00013848,-0.00184723,-0.00079378,-0.00016421,0.03857941,-0.1631,0.1828,-9.7525,-0.002627,-0.003836,-0.001807,36.5162,0.0330,89,0,0,0.000865,0.001031,-0.032750,0.000485,0.001899,-0.000519,-1.0427,-0.9210,0.4714
11908,11.0,0.000778,0.000590,-0.032672,0.000984,0.000424,-0.000005,-1.0940,-0.9458,-0.0158,0.00008538,-0.00013848,-0.00184723,-0.00079509,-0.00016271,0.03849836,-0.1636,0.1909,-9.7157,-0.002874,-0.001504,-0.002499,36.5162,0.0330,89,0,0,0.000932,0.001071,-0.032908,0.000619,0.001916,-0.001476,-1.0411,-0.9235,0.4709
11919,11.0,0.000789,0.000593,-0.032845,0.001107,0.000121,-0.001556,-1.0934,-0.9475,-0.0158,0.00007287,-0.00014354,-0.00184729,-0.00083964,-0.00002942,0.03962814,-0.1504,0.1579,-9.7227,-0.002593,-0.004424,-0.003012,36.5162,0.0330,94,0,0,0.000939,0.001079,-0.032908,0.000598,0.001944,-0.000857,-1.0424,-0.9236,0.4711
11931,12.0,0.000746,0.000513,-0.032852,-0.001350,-0.003845,-0.001219,-1.1120,-0.9358,0.0005,0.00021991,-0.00024970,-0.00185278,-0.00016496,0.00091258,0.03957225,-0.1359,0.1767,-9.7496,-0.001712,-0.001445,0.000477,36.5162,0.0330,90,2,1,0.000947,0.001087,-0.032914,0.000678,0.001790,-0.000421,-1.0425,-0.9247,0.4708
11942,11.0,0.000702,0.000489,-0.032864,-0.003423,-0.002629,-0.000815,-1.1062,-0.9273,0.0034,0.00016133,-0.00033564,-0.00185367,0.00033058,0.00064252,0.03955763,-0.1544,0.1775,-9.7309,-0.001714,-0.002488,-0.001002,36.5162,0.0330,83,1,2,0.000911,0.000998,-0.032957,0.000697,0.001347,-0.000113,-1.0420,-0.9248,0.4713
11953,11.0,0.000689,0.000479,-0.032924,-0.000718,-0.000582,-0.001127,-1.0978,-0.9406,-0.0078,0.00006923,-0.00022772,-0.00184937,-0.00031693,0.00007942,0.03988999,-0.1569,0.1667,-9.7397,-0.002851,-0.002236,-0.002893,36.4924,0.0330,90,0,0,0.000868,0.000980,-0.032956,0.000571,0.001222,0.000271,-1.0412,-0.9243,0.4720
11964,11.0,0.000676,0.000478,-0.032934,-0.001400,0.000116,-0.000676,-1.0923,-0.9388,-0.0083,0.00001825,-0.00025876,-0.00184922,-0.00016119,-0.00002311,0.03988473,-0.1570,0.1614,-9.7266,-0.001304,-0.002895,-0.002584,36.4924,0.0320,87,0,1,0.000857,0.000995,-0.032913,0.000615,0.000966,0.001363,-1.0412,-0.9237,0.4740
11975,11.0,0.000670,0.000482,-0.032917,0.000004,0.000446,0.000196,-1.0922,-0.9464,-0.0122,0.00000267,-0.00020415,-0.00184763,-0.00048676,-0.00011140,0.03975249,-0.1535,0.1813,-9.7112,-0.002449,-0.003054,-0.001849,36.4924,0.0320,88,0,0,0.000864,0.001002,-0.032293,0.000646,0.000888,0.008204,-1.0408,-0.9237,0.4734
11985,10.0,0.000703,0.000507,-0.032411,0.005318,0.003705,0.006437,-1.0765,-0.9700,-0.0299,-0.00014629,0.00000276,-0.00184003,-0.00187093,-0.00079298,0.03665405,-0.1476,0.1691,-9.7329,-0.001224,-0.003655,-0.002508,36.4924,0.0320,85,-2,-3,0.000872,0.001009,-0.032209,0.000680,0.000909,0.008703,-1.0408,-0.9236,0.4734
11996,11.0,0.000764,0.000546,-0.032322,0.005701,0.003388,0.007012,-1.0797,-0.9729,-0.0288,-0.00013472,0.00001636,-0.00183996,-0.00195155,-0.00072380,0.03655543,-0.1621,0.1792,-9.7357,-0.003388,-0.002437,0.000064,36.4924,0.0320,90,-1,-2,0.001010,0.001098,-0.031997,0.001156,0.001069,0.009930,-1.0396,-0.9255,0.4478
12007,11.0,0.000808,0.000572,-0.032242,0.002645,0.001683,0.007635,-1.0887,-0.9581,-0.0194,-0.00006579,-0.00012881,-0.00184464,-0.00125653,-0.00029751,0.03655075,-0.1478,0.1813,-9.7140,-0.003216,-0.001127,-0.004053,36.4924,0.0330,91,0,0,0.001018,0.001106,-0.032564,0.001212,0.000973,0.003197,-1.0399,-0.9256,0.4475
12018,11.0,0.000820,0.000587,-0.032599,-0.000209,0.001032,0.002666,-1.0949,-0.9467,-0.0085,-0.00004097,-0.00025053,-0.00184815,-0.00052879,-0.00020971,0.03923502,-0.1638,0.1801,-9.7494,-0.005745,-0.001937,0.001828,36.4924,0.0330,94,0,1,0.001033,0.001120,-0.032473,0.001293,0.000970,0.004074,-1.0402,-0.9253,0.4465
12029,11.0,0.000817,0.000599,-0.032566,-0.000287,0.001095,0.003244,-1.0967,-0.9487,-0.0077,-0.00003906,-0.00024761,-0.00184816,-0.00049554,-0.00023169,0.03923410,-0.1689,0.1920,-9.7149,-0.002327,-0.002743,-0.000887,36.4924,0.0330,93,0,1,0.001016,0.001127,-0.032431,0.001189,0.001005,0.004301,-1.0419,-0.9260,0.4486
12040,11.0,0.000822,0.000608,-0.032509,0.000498,0.000746,0.003721,-1.1008,-0.9532,-0.0082,-0.00003083,-0.00021273,-0.00184749,-0.00069253,-0.00018211,0.03910891,-0.1656,0.1729,-9.7475,-0.005249,-0.001851,-0.000132,36.4924,0.0320,93,0,0,0.000999,0.001133,-0.032135,0.001013,0.001186,0.007492,-1.0418,-0.9259,0.4495
12051,11.0,0.000815,0.000616,-0.032205,-0.000989,0.000753,0.007262,-1.1023,-0.9465,-0.0033,-0.00002717,-0.00028026,-0.00184923,-0.00037202,-0.00016320,0.03754844,-0.1591,0.1921,-9.7231,-0.001635,-0.000339,-0.000924,36.4924,0.0320,93,0,1,0.000990,0.001146,-0.031959,0.000823,0.001271,0.008367,-1.0426,-0.9260,0.4508
12062,11.0,0.000812,0.000612,-0.032105,0.000190,-0.000979,0.008142,-1.1117,-0.9525,-0.0028,0.00004403,-0.00023552,-0.00184957,-0.00062024,0.00023009,0.03746292,-0.1475,0.1786,-9.7073,-0.003844,-0.002883,-0.002103,36.4924,0.0320,85,1,0,0.000972,0.001153,-0.031873,0.000716,0.001307,0.008733,-1.0431,-0.9261,0.4513
12074,12.0,0.000817,0.000607,-0.032004,0.000620,0.000076,0.008695,-1.1082,-0.9521,-0.0058,-0.00001903,-0.00022869,-0.00184818,-0.00074840,0.00002155,0.03746045,-0.1508,0.1730,-9.7238,-0.004497,0.000819,-0.001924,36.4924,0.0320,90,0,0,0.000980,0.001135,-0.031907,0.000784,0.001250,0.007916,-1.0438,-0.9267,0.4515
12085,11.0,0.000804,0.000600,-0.031940,-0.002584,-0.001246,0.008895,-1.1151,-0.9390,0.0015,0.00002799,-0.00036763,-0.00185230,-0.00000427,0.00026539,0.03765215,-0.1686,0.1652,-9.7154,-0.003846,-0.000568,-0.003855,36.4924,0.0320,93,1,2,0.000946,0.001125,-0.031721,0.000585,0.000977,0.009044,-1.0459,-0.9245,0.5646
12095,10.0,0.000801,0.000595,-0.031849,0.001142,-0.000055,0.009288,-1.1099,-0.9532,-0.0096,-0.00003633,-0.00021249,-0.00184732,-0.00091928,0.00002430,0.03766277,-0.1490,0.1782,-9.7303,-0.002211,-0.000028,-0.002572,36.5506,0.0320,92,0,-1,0.000979,0.001132,-0.031630,0.000654,0.000928,0.009445,-1.0458,-0.9240,0.5638
12106,11.0,0.000812,0.000597,-0.031744,0.000910,0.000397,0.009868,-1.1078,-0.9535,-0.0092,-0.00005840,-0.00022564,-0.00184718,-0.00084952,-0.00009211,0.03766480,-0.1577,0.1853,-9.7155,0.000065,-0.002685,-0.000655,36.5506,0.0320,90,0,0,0.001011,0.001140,-0.031534,0.000820,0.000934,0.009785,-1.0460,-0.9233,0.5633
12117,11.0,0.000822,0.000612,-0.031826,0.000911,0.002170,0.008299,-1.1010,-0.9520,-0.0110,-0.00014779,-0.00024915,-0.00184580,-0.00089017,-0.00050281,0.03877920,-0.1388,0.1791,-9.7055,-0.002886,-0.002446,0.000175,36.5506,0.0320,95,-1,0,0.001050,0.001154,-0.031730,0.000921,0.000861,0.006799,-1.0458,-0.9239,0.5642
12128,11.0,0.000832,0.000630,-0.031733,0.000901,0.001166,0.008785,-1.1062,-0.9512,-0.0091,-0.00011183,-0.00026017,-0.00184671,-0.00083419,-0.00031748,0.03878646,-0.1419,0.1679,-9.7237,-0.003072,-0.000610,-0.001448,36.5506,0.0320,91,0,0,0.001058,0.001186,-0.031659,0.000994,0.000909,0.007273,-1.0455,-0.9235,0.5647
12139,11.0,0.000841,0.000643,-0.031633,0.000873,0.001106,0.009415,-1.1052,-0.9531,-0.0088,-0.00011513,-0.00025912,-0.00184676,-0.00082359,-0.00028323,0.03878692,-0.1653,0.1824,-9.7109,0.000704,-0.003005,-0.001989,36.5506,0.0320,91,0,0,0.001065,0.001194,-0.031586,0.001063,0.000774,0.007597,-1.0452,-0.9230,0.5657
12150,11.0,0.000852,0.000655,-0.031780,0.000975,0.001078,0.006768,-1.1060,-0.9552,-0.0074,-0.00011528,-0.00025923,-0.00184675,-0.00080033,-0.00030988,0.04022357,-0.1542,0.1858,-9.7395,-0.001458,-0.003579,0.000227,36.5506,0.0320,92,0,0,0.001081,0.001208,-0.031749,0.000883,0.000884,0.005812,-1.0442,-0.9219,0.5656
12161,11.0,0.000859,0.000694,-0.031705,0.000804,0.002852,0.006957,-1.0986,-0.9539,-0.0098,-0.00019663,-0.00027398,-0.00184527,-0.00077277,-0.00071904,0.04021452,-0.1567,0.1881,-9.7496,-0.000058,-0.000580,-0.000028,36.5506,0.0320,93,-1,0,0.001088,0.001215,-0.031690,0.000848,0.000923,0.006231,-1.0447,-0.9223,0.5666
12172,11.0,0.000885,0.000710,-0.031627,0.002372,0.001444,0.007310,-1.1068,-0.9606,-0.0109,-0.00013060,-0.00019799,-0.00184481,-0.00115415,-0.00038633,0.04023400,-0.1707,0.1889,-9.7332,-0.003833,-0.000124,-0.002179,36.5506,0.0310,90,0,-1,0.001096,0.001246,-0.031626,0.000811,0.000993,0.006490,-1.0433,-0.9226,0.5675
12183,11.0,0.000903,0.000722,-0.031241,0.001383,0.000854,0.011385,-1.1078,-0.9553,-0.0086,-0.00013086,-0.00025823,-0.00184638,-0.00098729,-0.00014539,0.03854218,-0.1501,0.1609,-9.7192,-0.003011,-0.000865,-0.003475,36.5506,0.0310,88,0,0,0.001158,0.001260,-0.031112,0.001068,0.001062,0.011149,-1.0427,-0.9233,0.5672
12194,11.0,0.000905,0.000730,-0.031116,-0.000596,0.000672,0.011554,-1.1111,-0.9471,-0.0053,-0.00013245,-0.00035183,-0.00184844,-0.00053136,-0.00015579,0.03853913,-0.1632,0.1696,-9.7523,-0.005546,-0.000390,-0.002330,36.5506,0.0310,89,0,1,0.001165,0.001268,-0.030997,0.001121,0.000949,0.011673,-1.0422,-0.9213,0.6031
12205,11.0,0.000899,0.000737,-0.030987,-0.000487,0.000490,0.011873,-1.1106,-0.9469,-0.0047,-0.00014113,-0.00035683,-0.00184847,-0.00058150,-0.00006930,0.03854151,-0.1521,0.1727,-9.7398,-0.001414,-0.001181,-0.001363,36.5506,0.0320,93,0,1,0.001131,0.001281,-0.031496,0.001036,0.000891,0.004139,-1.0445,-0.9196,0.6021
12216,11.0,0.000923,0.000743,-0.031476,0.002381,0.000606,0.004958,-1.1117,-0.9595,-0.0098,-0.00015047,-0.00022762,-0.00184517,-0.00115049,-0.00017216,0.04196677,-0.1511,0.1827,-9.7365,-0.003148,-0.002518,0.000238,36.5506,0.0320,91,0,-1,0.001163,0.001289,-0.031454,0.001188,0.000842,0.004382,-1.0444,-0.9201,0.6026
12227,11.0,0.000940,0.000736,-0.031419,0.001338,-0.001050,0.005300,-1.1188,-0.9566,-0.0034,-0.00008653,-0.00028385,-0.00184803,-0.00093053,0.00024418,0.04197128,-0.1580,0.1757,-9.7341,-0.003353,-0.003622,-0.001375,36.5506,0.0310,91,1,0,0.001228,0.001304,-0.031362,0.001343,0.000761,0.004797,-1.0466,-0.9199,0.6038
12238,11.0,0.000941,0.000721,-0.031348,-0.000570,-0.001615,0.005706,-1.1212,-0.9472,0.0003,-0.00007521,-0.00038387,-0.00185043,-0.00045876,0.00029649,0.04189871,-0.1480,0.1614,-9.7415,-0.002299,0.000901,-0.002045,36.5162,0.0310,91,1,1,0.001236,0.001286,-0.031113,0.001321,0.000663,0.007273,-1.0473,-0.9204,0.6045
12249,11.0,0.000940,0.000713,-0.031123,0.000286,-0.000261,0.007853,-1.1134,-0.9500,-0.0025,-0.00017342,-0.00034891,-0.00184805,-0.00068038,0.00008431,0.04102860,-0.1561,0.1594,-9.7411,-0.002321,-0.000265,-0.000735,36.5162,0.0310,95,0,0,0.001220,0.001270,-0.031039,0.001305,0.000433,0.007504,-1.0476,-0.9188,0.6046
12260,11.0,0.000944,0.000708,-0.031026,0.000313,-0.000605,0.008328,-1.1142,-0.9510,-0.0038,-0.00017341,-0.00034890,-0.00184805,-0.00068118,0.00008522,0.04097939,-0.1604,0.1588,-9.7329,-0.001456,-0.001902,-0.003969,36.5162,0.0310,91,0,0,0.001234,0.001285,-0.030868,0.001339,0.000152,0.008387,-1.0464,-0.9178,0.6052
12271,11.0,0.000947,0.000701,-0.030933,0.000399,-0.000756,0.008577,-1.1157,-0.9507,-0.0034,-0.00018095,-0.00035281,-0.00184808,-0.00071849,0.00015654,0.04098129,-0.1552,0.1764,-9.7436,-0.004262,-0.000774,-0.001604,36.5162,0.0310,88,0,0,0.001242,0.001291,-0.030907,0.001322,0.000088,0.007322,-1.0455,-0.9177,0.6049
12282,11.0,0.000952,0.000693,-0.030913,0.000473,-0.000681,0.008095,-1.1161,-0.9513,-0.0037,-0.00018102,-0.00035285,-0.00184808,-0.00071182,0.00014904,0.04139264,-0.1561,0.1972,-9.7275,-0.000897,-0.001329,-0.002318,36.5162,0.0310,93,0,0,0.001249,0.001298,-0.030823,0.001317,0.000029,0.007716,-1.0464,-0.9171,0.6051
12293,11.0,0.000958,0.000684,-0.030819,0.000518,-0.000983,0.009058,-1.1164,-0.9531,-0.0013,-0.00019685,-0.00035566,-0.00184822,-0.00073852,0.00029349,0.04139570,-0.1578,0.1611,-9.6786,-0.003931,-0.003775,0.000287,36.5162,0.0310,93,0,0,0.001263,0.001312,-0.030649,0.001474,0.000072,0.008251,-1.0456,-0.9176,0.5122
12304,11.0,0.001078,0.000823,-0.030706,0.005013,0.004763,0.009507,-1.0941,-0.9712,-0.0222,-0.00047229,-0.00014586,-0.00183704,-0.00171433,-0.00099337,0.04132397,-0.1560,0.1867,-9.7372,-0.002123,-0.000730,-0.000733,36.5162,0.0310,93,-2,-2,0.001271,0.001318,-0.030819,0.001457,0.000034,0.005965,-1.0451,-0.9186,0.5127
12315,11.0,0.001087,0.000830,-0.030812,0.002184,0.002034,0.007590,-1.1066,-0.9613,-0.0072,-0.00033406,-0.00028906,-0.00184384,-0.00108012,-0.00041262,0.04244669,-0.1607,0.1927,-9.7127,-0.001598,-0.003779,0.000352,36.5162,0.0310,93,0,0,0.001325,0.001373,-0.030760,0.001720,0.000209,0.005901,-1.0452,-0.9186,0.5123
12326,11.0,0.001086,0.000828,-0.030718,-0.000332,-0.000499,0.008045,-1.1186,-0.9517,0.0024,-0.00021893,-0.00041245,-0.00184960,-0.00052898,0.00010383,0.04240017,-0.1656,0.1709,-9.7330,-0.004147,-0.001372,-0.004435,36.5162,0.0310,92,1,1,0.001341,0.001362,-0.030621,0.001600,0.000144,0.006948,-1.0454,-0.9200,0.5117
12337,11.0,0.001083,0.000822,-0.030627,-0.000238,-0.000629,0.008498,-1.1204,-0.9513,0.0025,-0.00022570,-0.00041701,-0.00184962,-0.00057135,0.00016647,0.04240198,-0.1542,0.1788,-9.7236,-0.004517,-0.000829,-0.002020,36.5162,0.0310,92,1,1,0.001325,0.001344,-0.030813,0.001479,0.000037,0.004299,-1.0453,-0.9202,0.5104
12348,11.0,0.001088,0.000827,-0.030775,0.000468,0.000283,0.006162,-1.1160,-0.9542,-0.0009,-0.00028766,-0.00037985,-0.00184730,-0.00071517,-0.00013212,0.04365977,-0.1671,0.1603,-9.7182,-0.001296,-0.000121,-0.000285,36.5162,0.0310,89,0,0,0.001292,0.001333,-0.030708,0.001253,-0.000062,0.005214,-1.0463,-0.9191,0.5103
12359,11.0,0.001094,0.000830,-0.030705,0.000640,0.000155,0.006547,-1.1175,-0.9532,-0.0007,-0.00029442,-0.00038797,-0.00184727,-0.00078941,-0.00007007,0.04366208,-0.1477,0.1785,-9.7286,-0.004101,-0.000430,-0.001164,36.5162,0.0310,90,0,0,0.001300,0.001340,-0.030639,0.001194,-0.000167,0.005818,-1.0457,-0.9185,0.5103
12371,12.0,0.001102,0.000830,-0.030626,0.000624,-0.000157,0.006880,-1.1188,-0.9545,-0.0003,-0.00029442,-0.00038797,-0.00184727,-0.00078929,-0.00007021,0.04366951,-0.1648,0.1647,-9.7345,-0.002285,-0.002409,-0.001187,36.5506,0.0310,89,0,0,0.001307,0.001347,-0.030580,0.001222,-0.000198,0.006145,-1.0456,-0.9172,0.5110
12382,11.0,0.001110,0.000826,-0.030791,0.000763,-0.000404,0.004570,-1.1174,-0.9553,-0.0002,-0.00030745,-0.00039514,-0.00184733,-0.00083186,0.00002030,0.04491054,-0.1504,0.1675,-9.7156,-0.000776,-0.003032,-0.002273,36.5506,0.0310,89,0,0,0.001322,0.001360,-0.030793,0.001141,-0.000281,0.003379,-1.0429,-0.9198,0.5099
12393,11.0,0.001164,0.000890,-0.030740,0.002838,0.002599,0.004983,-1.1060,-0.9643,-0.0123,-0.00045930,-0.00029379,-0.00184146,-0.00127629,-0.00065164,0.04490970,-0.1625,0.1828,-9.7233,-0.002116,-0.001370,-0.004283,36.5506,0.0310,86,-1,-1,0.001329,0.001367,-0.030756,0.001226,-0.000332,0.003962,-1.0416,-0.9206,0.4516
12404,11.0,0.001174,0.000901,-0.030684,0.001558,0.001374,0.005225,-1.1141,-0.9554,-0.0072,-0.00039141,-0.00038847,-0.00184468,-0.00106159,-0.00039415,0.04491102,-0.1365,0.1954,-9.7403,-0.004247,0.000376,-0.001037,36.5506,0.0310,84,0,0,0.001367,0.001404,-0.030866,0.001290,-0.000335,0.002597,-1.0406,-0.9208,0.4518
12415,11.0,0.001172,0.000912,-0.030826,-0.000567,0.000879,0.003049,-1.1181,-0.9471,-0.0017,-0.00037413,-0.00049377,-0.00184782,-0.00059576,-0.00034149,0.04590672,-0.1682,0.1765,-9.7479,-0.004381,-0.000822,-0.002111,36.5506,0.0310,88,0,1,0.001351,0.001411,-0.030840,0.001279,-0.000258,0.002763,-1.0411,-0.9188,0.4523
12426,11.0,0.001172,0.000909,-0.030790,0.000279,-0.000787,0.003434,-1.1269,-0.9493,-0.0007,-0.00028762,-0.00045398,-0.00184861,-0.00078880,0.00002372,0.04591768,-0.1593,0.1931,-9.7259,-0.003287,0.001028,-0.002412,36.5506,0.0310,95,1,0,0.001334,0.001417,-0.030812,0.001120,-0.000219,0.002903,-1.0417,-0.9182,0.4519
12437,11.0,0.001187,0.000917,-0.030753,0.002146,0.001649,0.003585,-1.1194,-0.9594,-0.0127,-0.00041709,-0.00035647,-0.00184276,-0.00119400,-0.00051929,0.04592010,-0.1675,0.1831,-9.7458,-0.005038,-0.003945,-0.002893,36.5506,0.0310,92,-1,-1,0.001350,0.001406,-0.030875,0.001061,-0.000181,0.002375,-1.0434,-0.9169,0.4521
12448,11.0,0.001205,0.000930,-0.030863,0.001218,0.000920,0.002338,-1.1194,-0.9576,-0.0090,-0.00040776,-0.00039822,-0.00184466,-0.00097028,-0.00031310,0.04667427,-0.1696,0.1653,-9.7129,-0.000381,-0.002546,-0.002779,36.5506,0.0310,86,0,0,0.001381,0.001436,-0.030850,0.001083,-0.000131,0.002613,-1.0439,-0.9186,0.4519
12459,11.0,0.001219,0.000938,-0.030836,0.001427,0.000495,0.002797,-1.1218,-0.9580,-0.0098,-0.00040776,-0.00039823,-0.00184466,-0.00097019,-0.00031319,0.04667936,-0.1452,0.1518,-9.7184,-0.004168,-0.000961,-0.003142,36.5506,0.0310,86,0,0,0.001396,0.001451,-0.030791,0.001027,-0.000300,0.003391,-1.0431,-0.9169,0.4510
12469,10.0,0.001191,0.000926,-0.030807,-0.002719,-0.001268,0.003009,-1.1268,-0.9410,-0.0012,-0.00034481,-0.00061805,-0.00185110,-0.00009643,0.00013097,0.04667291,-0.1552,0.1660,-9.7394,-0.001583,-0.001869,-0.002797,36.5506,0.0310,92,1,2,0.001404,0.001458,-0.030905,0.000989,-0.000355,0.002116,-1.0432,-0.9163,0.4515
12480,11.0,0.001180,0.000909,-0.030890,-0.000449,-0.001661,0.002001,-1.1298,-0.9509,-0.0056,-0.00032989,-0.00050472,-0.00184859,-0.00056183,0.00018682,0.04726357,-0.1559,0.1833,-9.7257,-0.003303,-0.002053,-0.002659,36.5506,0.0310,94,1,0,0.001363,0.001440,-0.030884,0.000832,-0.000446,0.002277,-1.0423,-0.9167,0.4513
12491,11.0,0.001180,0.000901,-0.030867,0.000315,-0.000319,0.002195,-1.1231,-0.9552,-0.0092,-0.00043746,-0.00046478,-0.00184587,-0.00072181,-0.00001758,0.04726153,-0.1638,0.1579,-9.7426,-0.004728,-0.002106,-0.001860,36.5506,0.0310,91,0,0,0.001371,0.001422,-0.030860,0.000883,-0.000501,0.002430,-1.0428,-0.9170,0.4306
12503,12.0,0.001196,0.000912,-0.030840,0.002237,0.001926,0.002443,-1.1140,-0.9639,-0.0184,-0.00055446,-0.00037177,-0.00184072,-0.00110038,-0.00049729,0.04726460,-0.1545,0.1894,-9.7377,-0.000893,-0.002245,-0.002366,36.5506,0.0310,87,-1,-1,0.001386,0.001435,-0.030920,0.000730,-0.000571,0.001639,-1.0424,-0.9167,0.4310
12514,11.0,0.001235,0.000948,-0.030910,0.004507,0.004163,0.001637,-1.1014,-0.9719,-0.0249,-0.00071003,-0.00027162,-0.00183554,-0.00160690,-0.00089385,0.04773492,-0.1505,0.1531,-9.7301,-0.001728,-0.001073,-0.001265,36.5506,0.0310,92,-2,-2,0.001417,0.001466,-0.030902,0.000808,-0.000459,0.001847,-1.0418,-0.9159,0.4307
12525,11.0,0.001270,0.000979,-0.030891,0.002153,0.001911,0.001950,-1.1141,-0.9636,-0.0141,-0.00059291,-0.00039838,-0.00184157,-0.00109247,-0.00041817,0.04774034,-0.1581,0.1886,-9.7297,-0.006016,-0.003203,-0.000927,36.5506,0.0310,90,0,0,0.001480,0.001529,-0.030862,0.001005,-0.000554,0.002251,-1.0402,-0.9160,0.4310
12536,11.0,0.001294,0.001000,-0.030867,0.002155,0.001814,0.002304,-1.1135,-0.9631,-0.0136,-0.00059824,-0.00039815,-0.00184165,-0.00109087,-0.00037283,0.04774115,-0.1653,0.1808,-9.7270,-0.000740,0.000541,-0.001615,36.5506,0.0310,96,0,0,0.001487,0.001535,-0.030930,0.000983,-0.000471,0.001522,-1.0412,-0.9159,0.4310
12547,11.0,0.001318,0.001019,-0.030923,0.002352,0.001696,0.001656,-1.1141,-0.9658,-0.0147,-0.00059833,-0.00039818,-0.00184165,-0.00108444,-0.00038000,0.04813153,-0.1476,0.1789,-9.7312,-0.001566,-0.004654,-0.003718,36.5506,0.0310,91,0,0,0.001502,0.001548,-0.030895,0.000878,-0.000447,0.002189,-1.0420,-0.9172,0.4297
12558,11.0,0.001294,0.001025,-0.030903,-0.000925,0.000840,0.001906,-1.1194,-0.9538,-0.0022,-0.00055736,-0.00056764,-0.00184736,-0.00039849,-0.00019603,0.04812311,-0.1636,0.1880,-9.7360,-0.003799,-0.003099,0.002132,36.5506,0.0310,94,0,1,0.001510,0.001554,-0.030873,0.000888,-0.000425,0.002482,-1.0416,-0.9177,0.4286
12569,11.0,0.001260,0.001033,-0.030882,-0.002979,0.000598,0.002147,-1.1196,-0.9464,0.0018,-0.00056043,-0.00067883,-0.00185003,0.00005350,-0.00021195,0.04812109,-0.1538,0.1635,-9.7360,-0.001061,-0.002841,-0.001549,36.5506,0.0300,89,0,2,0.001494,0.001559,-0.030337,0.000784,-0.000316,0.008272,-1.0417,-0.9184,0.4304
12580,11.0,0.001247,0.001039,-0.030385,-0.000660,0.000456,0.007598,-1.1158,-0.9590,-0.0005,-0.00059442,-0.00054833,-0.00184736,-0.00045094,-0.00005385,0.04591523,-0.1717,0.1536,-9.7657,-0.000540,-0.003860,-0.003007,36.5506,0.0300,90,0,0,0.001414,0.001571,-0.030169,0.000528,-0.000309,0.008509,-1.0384,-0.9177,0.4301
12591,11.0,0.001256,0.001035,-0.030273,0.001686,-0.000981,0.008510,-1.1214,-0.9685,0.0002,-0.00052907,-0.00041873,-0.00184609,-0.00097924,0.00021444,0.04580892,-0.1778,0.1738,-9.7056,-0.001157,0.000516,0.000020,36.4581,0.0300,91,1,-1,0.001421,0.001577,-0.030082,0.000478,-0.000428,0.008835,-1.0350,-0.9196,0.3809
12602,11.0,0.001270,0.001030,-0.030177,0.001107,-0.000000,0.008963,-1.1170,-0.9664,-0.0020,-0.00059968,-0.00045544,-0.00184546,-0.00086873,0.00005086,0.04580330,-0.1599,0.1737,-9.7202,-0.003248,-0.001830,-0.003380,36.4581,0.0310,92,0,0,0.001452,0.001561,-0.029940,0.000390,-0.000569,0.009811,-1.0347,-0.9187,0.3819
12613,11.0,0.001281,0.001023,-0.030554,0.000863,-0.001230,0.004246,-1.1217,-0.9668,0.0020,-0.00054579,-0.00046792,-0.00184718,-0.00078460,0.00022933,0.04802478,-0.1656,0.1734,-9.6810,-0.001267,-0.002676,-0.000442,36.4581,0.0310,88,1,0,0.001467,0.001551,-0.030531,0.000226,-0.000658,0.003113,-1.0333,-0.9189,0.3817
12624,11.0,0.001290,0.001017,-0.030506,0.000810,-0.000053,0.004520,-1.1180,-0.9674,-0.0014,-0.00061172,-0.00047781,-0.00184576,-0.00078493,-0.00000491,0.04801980,-0.1593,0.1875,-9.7340,-0.003077,-0.002882,-0.003227,36.4581,0.0310,96,0,0,0.001475,0.001533,-0.030497,0.000134,-0.000695,0.003710,-1.0329,-0.9200,0.3828
12635,11.0,0.001289,0.001028,-0.030422,-0.000795,0.001885,0.005160,-1.1102,-0.9624,-0.0019,-0.00071627,-0.00056030,-0.00184541,-0.00045627,-0.00042021,0.04785085,-0.1677,0.1842,-9.7364,-0.001384,-0.002912,-0.001132,36.4581,0.0300,89,-1,1,0.001483,0.001538,-0.030458,0.000065,-0.000528,0.003999,-1.0328,-0.9204,0.3838
12647,12.0,0.001276,0.001045,-0.030155,-0.001369,0.000935,0.007767,-1.1100,-0.9593,0.0008,-0.00071612,-0.00059245,-0.00184703,-0.00035897,-0.00011852,0.04693472,-0.1626,0.1470,-9.7386,-0.002063,0.000226,-0.002750,36.5162,0.0300,89,0,1,0.001473,0.001574,-0.030064,-0.000032,-0.000386,0.007199,-1.0339,-0.9205,0.3835
12658,11.0,0.001261,0.001053,-0.030060,-0.001314,0.000618,0.008056,-1.1112,-0.9593,0.0013,-0.00071612,-0.00059244,-0.00184703,-0.00035966,-0.00011778,0.04689447,-0.1593,0.1607,-9.7436,-0.002620,-0.000708,-0.001057,36.5162,0.0300,89,0,1,0.001441,0.001588,-0.029903,-0.000214,-0.000611,0.007844,-1.0342,-0.9186,0.3838
12669,11.0,0.001282,0.001061,-0.029970,0.002083,0.000611,0.008435,-1.1108,-0.9739,-0.0056,-0.00072440,-0.00042841,-0.00184272,-0.00108458,-0.00009098,0.04690752,-0.1542,0.1820,-9.7258,-0.001574,-0.003365,-0.003697,36.5162,0.0310,89,0,-1,0.001472,0.001619,-0.030522,-0.000101,-0.000632,0.000337,-1.0323,-0.9181,0.3845
12680,11.0,0.001311,0.001081,-0.030478,0.002872,0.002215,0.001828,-1.1048,-0.9773,-0.0111,-0.00081615,-0.00039503,-0.00183970,-0.00116740,-0.00049859,0.04960500,-0.1544,0.1754,-9.7241,-0.002772,-0.001519,-0.003214,36.5162,0.0310,95,-1,-1,0.001503,0.001625,-0.030508,0.000027,-0.000575,0.000681,-1.0318,-0.9192,0.3836
12691,11.0,0.001333,0.001098,-0.030456,0.001542,0.001139,0.002216,-1.1080,-0.9720,-0.0058,-0.00078286,-0.00047392,-0.00184275,-0.00091532,-0.00023030,0.04960568,-0.1585,0.1683,-9.7225,-0.002444,-0.002470,-0.000843,36.5162,0.0310,88,0,0,0.001541,0.001662,-0.030490,0.000194,-0.000350,0.001120,-1.0338,-0.9184,0.3917
12702,11.0,0.001350,0.001111,-0.030419,0.001410,0.001141,0.002524,-1.1082,-0.9731,-0.0059,-0.00078285,-0.00047392,-0.00184275,-0.00091620,-0.00022936,0.04955403,-0.1791,0.1892,-9.7412,-0.001216,-0.002203,-0.002057,36.5162,0.0310,85,0,0,0.001548,0.001668,-0.030776,0.000195,-0.000347,-0.001848,-1.0330,-0.9193,0.3921
12713,11.0,0.001359,0.001100,-0.030717,0.000946,-0.001062,-0.000925,-1.1181,-0.9706,0.0001,-0.00067161,-0.00051315,-0.00184654,-0.00083215,0.00020010,0.05101309,-0.1529,0.1877,-9.7248,-0.002391,-0.001968,-0.002163,36.5162,0.0310,95,1,0,0.001556,0.001674,-0.030794,0.000034,-0.000220,-0.001685,-1.0322,-0.9197,0.3922
12724,11.0,0.001370,0.001087,-0.030718,0.001036,-0.001263,-0.000775,-1.1188,-0.9717,0.0000,-0.00067161,-0.00051314,-0.00184654,-0.00083283,0.00020083,0.05097323,-0.1588,0.1732,-9.7521,-0.001856,-0.002322,-0.001973,36.5162,0.0310,90,1,0,0.001571,0.001638,-0.030810,0.000046,-0.000147,-0.001145,-1.0312,-0.9199,0.3926
12735,11.0,0.001378,0.001092,-0.030725,0.000860,0.000183,-0.000492,-1.1119,-0.9687,-0.0020,-0.00075781,-0.00054530,-0.00184512,-0.00083903,-0.00006850,0.05096751,-0.1455,0.1806,-9.7306,-0.001000,-0.000664,-0.001111,36.5744,0.0310,96,0,0,0.001578,0.001645,-0.030929,0.000057,-0.000104,-0.002154,-1.0311,-0.9201,0.3926
12746,11.0,0.001388,0.001093,-0.030877,0.000922,0.000106,-0.002020,-1.1142,-0.9698,-0.0033,-0.00075795,-0.00054536,-0.00184512,-0.00082803,-0.00008037,0.05161475,-0.1608,0.1829,-9.7386,-0.004477,-0.002223,-0.004003,36.5744,0.0310,90,0,0,0.001584,0.001651,-0.030949,0.000163,-0.000029,-0.001864,-1.0303,-0.9196,0.3929
12757,11.0,0.001399,0.001094,-0.030896,0.001192,-0.000057,-0.001375,-1.1144,-0.9703,-0.0040,-0.00076693,-0.00055916,-0.00184501,-0.00093932,-0.00000716,0.05161786,-0.1409,0.1743,-9.6972,-0.002978,-0.004011,-0.002197,36.5744,0.0310,89,0,0,0.001598,0.001689,-0.030993,0.000230,0.000111,-0.001316,-1.0298,-0.9188,0.3915
12768,11.0,0.001372,0.001104,-0.030919,-0.001188,0.000537,-0.001141,-1.1124,-0.9609,0.0001,-0.00079979,-0.00067985,-0.00184773,-0.00046489,-0.00014208,0.05165177,-0.1682,0.1858,-9.7229,-0.001605,-0.001014,-0.002033,36.5744,0.0310,90,0,1,0.001605,0.001695,-0.030996,0.000310,0.000130,-0.000802,-1.0297,-0.9190,0.3907
12779,11.0,0.001374,0.001112,-0.030962,0.000087,0.000471,-0.001041,-1.1079,-0.9668,-0.0018,-0.00083970,-0.00061951,-0.00184612,-0.00073255,-0.00004181,0.05180122,-0.1600,0.1502,-9.7118,-0.000380,-0.002634,-0.003421,36.5744,0.0310,87,0,0,0.001571,0.001708,-0.031016,0.000201,0.000100,-0.000310,-1.0277,-0.9189,0.3903
12790,11.0,0.001375,0.001118,-0.030980,0.000115,0.000594,-0.000868,-1.1100,-0.9692,-0.0020,-0.00083971,-0.00061951,-0.00184612,-0.00073198,-0.00004245,0.05183558,-0.1632,0.2003,-9.7307,-0.004207,-0.004464,-0.002170,36.5744,0.0300,88,0,0,0.001579,0.001716,-0.031018,0.000178,-0.000105,-0.000023,-1.0277,-0.9185,0.4505
12801,11.0,0.001381,0.001146,-0.030987,0.000573,0.002415,-0.000401,-1.1030,-0.9713,-0.0074,-0.00093716,-0.00060175,-0.00184297,-0.00083078,-0.00039499,0.05183004,-0.1609,0.1856,-9.7126,-0.002314,-0.001751,-0.002351,36.5744,0.0300,94,-1,0,0.001586,0.001721,-0.030412,0.000155,0.000018,0.006835,-1.0296,-0.9203,0.4502
12812,11.0,0.001388,0.001162,-0.030450,0.000687,0.001220,0.006370,-1.1075,-0.9730,-0.0062,-0.00087955,-0.00060008,-0.00184439,-0.00087697,-0.00013013,0.04953535,-0.1585,0.1801,-9.7091,-0.000745,-0.003089,-0.003393,36.5744,0.0300,90,0,0,0.001600,0.001757,-0.030277,0.000043,0.000251,0.007476,-1.0295,-0.9211,0.4506
12823,11.0,0.001407,0.001173,-0.030378,0.002254,0.000819,0.006789,-1.1082,-0.9787,-0.0076,-0.00087589,-0.00052421,-0.00184260,-0.00119896,-0.00001075,0.04954328,-0.1626,0.1738,-9.7195,-0.002280,-0.000132,-0.000650,36.5744,0.0300,94,0,-1,0.001607,0.001763,-0.030200,0.000007,0.000345,0.007946,-1.0284,-0.9220,0.4493
12834,11.0,0.001433,0.001182,-0.030315,0.002566,0.000805,0.006330,-1.1097,-0.9807,-0.0067,-0.00087589,-0.00052421,-0.00184260,-0.00119821,-0.00001159,0.04958815,-0.1409,0.1890,-9.7882,-0.003165,-0.003795,-0.000440,36.5744,0.0300,94,0,-1,0.001637,0.001769,-0.030043,0.000079,0.000374,0.009161,-1.0288,-0.9218,0.4494
12845,11.0,0.001447,0.001188,-0.030112,0.001228,0.000597,0.005702,-1.1147,-0.9784,-0.0035,-0.00086234,-0.00059929,-0.00184513,-0.00094976,0.00002030,0.04896608,-0.1650,0.1949,-9.9692,-0.006893,-0.006752,-0.003043,36.5744,0.0300,90,0,0,0.001674,0.001780,-0.029842,0.000204,0.000707,0.009245,-1.0291,-0.9241,0.4492
12856,11.0,0.001461,0.001192,-0.030052,0.001297,0.000140,0.006610,-1.1161,-0.9790,-0.0038,-0.00086234,-0.00059930,-0.00184513,-0.00094919,0.00001964,0.04900073,-0.1607,0.1475,-9.6674,-0.003087,-0.001456,-0.002321,36.5744,0.0310,90,0,0,0.001682,0.001786,-0.029767,0.000143,0.000785,0.008246,-1.0305,-0.9251,0.4489
12867,11.0,0.001476,0.001193,-0.029978,0.001375,-0.000065,0.006820,-1.1154,-0.9807,-0.0024,-0.00087271,-0.00060306,-0.00184525,-0.00097990,0.00010244,0.04900273,-0.1609,0.1717,-9.7392,-0.001762,-0.004189,-0.000283,36.5744,0.0310,91,0,0,0.001696,0.001775,-0.030452,0.000258,0.000611,0.001407,-1.0305,-0.9259,0.4479
12878,11.0,0.001482,0.001169,-0.030474,0.000859,-0.001471,0.000903,-1.1213,-0.9788,0.0014,-0.00080518,-0.00063095,-0.00184780,-0.00083596,0.00031979,0.05140385,-0.1650,0.1840,-9.6877,-0.001513,-0.001137,-0.001776,36.4581,0.0310,91,1,0,0.001703,0.001782,-0.030404,0.000309,0.000625,0.001962,-1.0304,-0.9262,0.4481
12889,11.0,0.001471,0.001150,-0.030463,-0.000835,-0.001759,0.001045,-1.1224,-0.9723,0.0069,-0.00080628,-0.00072211,-0.00185058,-0.00051297,0.00040434,0.05139966,-0.1630,0.1776,-9.7427,-0.003110,-0.002377,0.000368,36.4581,0.0310,90,1,1,0.001710,0.001764,-0.030382,0.000345,0.000703,0.002329,-1.0294,-0.9270,0.3763
12900,11.0,0.001470,0.001144,-0.030415,0.000145,-0.000378,0.002086,-1.1176,-0.9781,0.0025,-0.00089582,-0.00066947,-0.00184669,-0.00071400,0.00006366,0.05125676,-0.1711,0.1566,-9.6969,-0.004823,-0.003110,0.000259,36.4581,0.0300,91,0,0,0.001677,0.001729,-0.030092,0.000357,0.000553,0.004987,-1.0302,-0.9267,0.3777
12911,11.0,0.001464,0.001144,-0.030173,-0.001008,0.000221,0.004693,-1.1145,-0.9736,0.0007,-0.00094192,-0.00073234,-0.00184737,-0.00050921,-0.00000680,0.05034829,-0.1637,0.1766,-9.7504,-0.002451,-0.001679,-0.006041,36.4581,0.0300,93,0,1,0.001684,0.001735,-0.030040,0.000306,0.000524,0.005372,-1.0303,-0.9280,0.3791
12922,11.0,0.001450,0.001158,-0.030095,-0.001426,0.001992,0.005161,-1.1062,-0.9719,-0.0029,-0.00103829,-0.00075707,-0.00184545,-0.00041255,-0.00037265,0.05023276,-0.1608,0.1792,-9.7415,-0.000355,-0.001231,-0.002498,36.4581,0.0300,90,-1,1,0.001668,0.001742,-0.029951,0.000224,0.000534,0.005889,-1.0301,-0.9277,0.3779
12933,11.0,0.001453,0.001184,-0.030039,0.001597,0.002621,0.005171,-1.1021,-0.9879,-0.0107,-0.00110110,-0.00060121,-0.00184044,-0.00099474,-0.00042789,0.05024165,-0.1695,0.1605,-9.7562,-0.003911,-0.005657,-0.005724,36.5162,0.0320,90,-1,-1,0.001684,0.001804,-0.031136,0.000107,0.000672,-0.007615,-1.0287,-0.9269,0.3767
12944,11.0,0.001478,0.001205,-0.031068,0.002735,0.001388,-0.007313,-1.1097,-0.9932,-0.0099,-0.00103821,-0.00054796,-0.00184054,-0.00112592,-0.00026554,0.05467672,-0.1627,0.1903,-9.7422,-0.005007,-0.002124,-0.001098,36.5162,0.0320,91,0,-1,0.001716,0.001836,-0.031212,0.000085,0.000712,-0.007646,-1.0288,-0.9297,0.3751
12955,11.0,0.001491,0.001217,-0.031147,0.000003,0.000894,-0.007056,-1.1108,-0.9812,-0.0011,-0.00101530,-0.00070281,-0.00184584,-0.00063129,-0.00017055,0.05466955,-0.1544,0.1877,-9.7290,0.000322,-0.002335,-0.000099,36.5162,0.0290,96,0,1,0.001748,0.001842,-0.031289,0.000246,0.000704,-0.007693,-1.0296,-0.9306,0.3758
12966,11.0,0.001485,0.001217,-0.031212,-0.000915,-0.000769,-0.006610,-1.1191,-0.9763,0.0040,-0.00093383,-0.00076583,-0.00184966,-0.00039485,0.00013934,0.05462363,-0.1379,0.1850,-9.7246,-0.003653,-0.001280,-0.001635,36.5162,0.0290,85,1,1,0.001740,0.001853,-0.029999,-0.000002,0.001119,0.007186,-1.0304,-0.9308,0.3765
12977,11.0,0.001475,0.001208,-0.030034,-0.000866,-0.000785,0.008403,-1.1208,-0.9750,0.0031,-0.00093410,-0.00076773,-0.00184964,-0.00050063,0.00024344,0.04960265,-0.1622,0.1894,-9.7061,-0.003695,0.000840,-0.003184,36.5162,0.0290,85,1,1,0.001724,0.001837,-0.029915,0.000031,0.001143,0.007605,-1.0328,-0.9296,0.3759
12988,11.0,0.001478,0.001211,-0.029931,0.000348,0.000224,0.008850,-1.1162,-0.9811,-0.0006,-0.00099514,-0.00071219,-0.00184628,-0.00071154,0.00001176,0.04956640,-0.1578,0.1721,-9.7263,-0.001689,-0.003003,-0.000171,36.5162,0.0310,88,0,0,0.001709,0.001820,-0.029836,-0.000081,0.001097,0.008142,-1.0330,-0.9289,0.3739
13000,12.0,0.001483,0.001213,-0.029823,0.000544,0.000037,0.009105,-1.1163,-0.9797,-0.0014,-0.00100359,-0.00072053,-0.00184627,-0.00077904,0.00008035,0.04956874,-0.1518,0.1749,-9.7365,-0.002810,-0.000288,-0.002870,36.4581,0.0310,91,0,0,0.001724,0.001834,-0.030467,-0.000246,0.001066,0.000541,-1.0338,-0.9298,0.3587
13011,11.0,0.001536,0.001219,-0.030399,0.004523,0.000460,0.001746,-1.1164,-0.9964,-0.0095,-0.00103124,-0.00053687,-0.00183999,-0.00143876,-0.00006729,0.05226774,-0.1431,0.1789,-9.7124,-0.004807,-0.002953,-0.001462,36.4581,0.0310,84,0,-2,0.001786,0.001848,-0.030375,-0.000079,0.001036,0.001777,-1.0343,-0.9299,0.3600
13022,11.0,0.001577,0.001225,-0.030378,0.003563,0.000558,0.002045,-1.1170,-0.9931,-0.0077,-0.00103532,-0.00059222,-0.00184154,-0.00126836,-0.00008776,0.05226419,-0.1638,0.1916,-9.7273,-0.002557,-0.002786,-0.002351,36.4581,0.0290,87,0,-1,0.001838,0.001855,-0.029545,0.000173,0.001028,0.011098,-1.0351,-0.9294,0.3600
13033,11.0,0.001591,0.001221,-0.030322,0.000266,-0.000872,0.002628,-1.1235,-0.9781,0.0032,-0.00096775,-0.00076000,-0.00184907,-0.00063698,0.00016391,0.05212457,-0.1638,0.1843,-9.7373,-0.002216,0.000821,-0.002123,36.4581,0.0290,90,1,1,0.001867,0.001860,-0.029433,0.000232,0.001145,0.011366,-1.0351,-0.9300,0.3597
13044,11.0,0.001594,0.001211,-0.029581,0.000263,-0.000886,0.011059,-1.1252,-0.9788,0.0044,-0.00096819,-0.00075928,-0.00184909,-0.00068167,0.00022415,0.04933808,-0.1681,0.1908,-9.7369,-0.003840,-0.001803,-0.000106,36.4581,0.0290,94,1,1,0.001836,0.001828,-0.029166,0.000029,0.000960,0.012187,-1.0360,-0.9319,0.3586
13055,11.0,0.001601,0.001215,-0.029434,0.000643,0.000173,0.011462,-1.1205,-0.9810,0.0022,-0.00103720,-0.00074592,-0.00184668,-0.00073090,-0.00003680,0.04923291,-0.1582,0.1618,-9.7486,-0.002649,-0.002439,0.000185,36.4581,0.0310,90,0,0,0.001843,0.001834,-0.029043,0.000018,0.000964,0.012328,-1.0360,-0.9326,0.3595
13066,11.0,0.001594,0.001220,-0.029305,-0.000866,0.000484,0.011868,-1.1200,-0.9732,0.0030,-0.00106310,-0.00083070,-0.00184866,-0.00046462,-0.00007495,0.04922724,-0.1577,0.1814,-9.7209,-0.004076,0.000050,-0.004808,36.4581,0.0310,91,0,1,0.001850,0.001841,-0.030237,0.000061,0.000865,-0.001421,-1.0357,-0.9328,0.3602
13077,11.0,0.001592,0.001226,-0.030156,0.000178,0.000551,0.000916,-1.1203,-0.9759,-0.0000,-0.00108007,-0.00078188,-0.00184677,-0.00058949,-0.00020893,0.05304810,-0.1629,0.1666,-9.7160,-0.003843,0.001373,-0.002823,36.5162,0.0310,91,0,0,0.001815,0.001879,-0.030249,0.000113,0.000870,-0.000770,-1.0361,-0.9320,0.3590
13089,12.0,0.001607,0.001232,-0.030143,0.002082,0.000529,0.001238,-1.1190,-0.9814,-0.0021,-0.00110568,-0.00070414,-0.00184418,-0.00097564,-0.00015320,0.05305571,-0.1529,0.1669,-9.7276,-0.003168,0.000335,-0.000852,36.5162,0.0290,93,0,-1,0.001822,0.001886,-0.030255,0.000178,0.000878,-0.000509,-1.0341,-0.9331,0.2166
13100,11.0,0.001634,0.001248,-0.030117,0.002740,0.002017,0.001578,-1.1131,-0.9843,-0.0064,-0.00118581,-0.00068080,-0.00184142,-0.00106249,-0.00045794,0.05300591,-0.1523,0.1776,-9.7356,-0.002526,-0.002158,-0.003145,36.5162,0.0290,92,-1,-1,0.001880,0.001899,-0.029401,0.000333,0.000603,0.008136,-1.0338,-0.9337,0.2169
