timestamp_ms,dt_ms,pos_x,pos_y,pos_z,vel_x,vel_y,vel_z,roll_deg,pitch_deg,yaw_deg,gyro_bias_x,gyro_bias_y,gyro_bias_z,accel_bias_x,accel_bias_y,accel_bias_z,raw_accel_x,raw_accel_y,raw_accel_z,raw_gyro_x,raw_gyro_y,raw_gyro_z,raw_baro_alt,raw_tof,raw_flow_squal,raw_flow_dx,raw_flow_dy,dev_pos_x,dev_pos_y,dev_pos_z,dev_vel_x,dev_vel_y,dev_vel_z,dev_roll_deg,dev_pitch_deg,dev_yaw_deg
11023,10.0,0.000015,-0.000026,-0.032968,0.000768,-0.001884,0.000741,-0.0019,-0.0014,-0.0002,0.00000000,0.00000000,-0.00184470,-0.00000093,0.00000136,0.00000000,-0.1566,0.1526,-9.7277,-0.002055,-0.001463,-0.002257,36.4687,0.0330,88,1,0,0.000158,0.000221,-0.032411,-0.000184,0.002859,-0.008445,-0.9492,-0.8688,0.2740
11035,12.0,-0.000000,-0.000054,-0.032953,-0.001428,-0.005547,0.001626,-1.0528,-0.2809,0.0198,0.00000175,0.00000169,-0.00184474,0.00052444,0.00195266,0.00000005,-0.1499,0.1733,-9.7293,-0.002773,-0.000891,-0.004440,36.4687,0.0330,95,3,1,0.000166,0.000205,-0.032492,-0.000255,0.002560,-0.007706,-0.9498,-0.8688,0.2739
11046,11.0,-0.000017,-0.000106,-0.031848,-0.000209,-0.001060,0.048167,-0.4523,-0.6038,-0.0069,-0.00000034,0.00000280,-0.00184463,-0.00060807,-0.00016133,-0.00005904,-0.1636,0.1642,-9.7313,-0.000983,-0.001629,-0.002837,36.4687,0.0310,93,0,0,0.000106,0.000120,-0.032585,-0.000696,0.002076,-0.005735,-0.9524,-0.8682,0.2740
11057,11.0,-0.000023,-0.000107,-0.031001,0.000325,0.000365,0.057999,-0.5075,-0.7766,-0.0150,0.00000135,0.00000476,-0.00184458,-0.00090891,-0.00078932,-0.00006819,-0.1633,0.1679,-9.7409,-0.002868,-0.000320,-0.003564,36.4687,0.0310,93,0,0,0.000113,0.000127,-0.031521,-0.000669,0.002049,0.006889,-0.9544,-0.8739,0.2740
11068,11.0,-0.000020,-0.000094,-0.030302,0.000526,0.002616,0.060085,-0.4067,-0.8169,-0.0215,-0.00000018,0.00000534,-0.00184452,-0.00111052,-0.00132016,-0.00009037,-0.1579,0.1768,-9.7532,-0.001261,-0.002716,-0.001708,36.4687,0.0310,81,-1,0,0.000126,0.000167,-0.031368,-0.000691,0.002075,0.008419,-0.9612,-0.8782,0.2735
11079,11.0,-0.000009,-0.000056,-0.029637,0.002374,0.003373,0.060924,-0.5190,-0.9629,-0.0315,0.00000422,0.00000908,-0.00184440,-0.00191036,-0.00170559,-0.00007841,-0.1606,0.1843,-9.7302,-0.004032,-0.002243,-0.000136,36.4687,0.0320,89,-1,-1,0.000133,0.000197,-0.031239,-0.000738,0.002293,0.009565,-0.9601,-0.8776,0.2733
11090,11.0,0.000019,-0.000022,-0.031443,0.003022,0.001920,0.016922,-0.6672,-1.0003,-0.0237,0.00000987,0.00001045,-0.00184450,-0.00214010,-0.00071097,0.00141653,-0.1637,0.1887,-9.7114,-0.003170,-0.001770,-0.000552,36.4687,0.0320,91,0,-1,0.000164,0.000230,-0.031667,-0.000542,0.002396,0.004564,-0.9669,-0.8839,0.1861
11101,11.0,0.000053,0.000006,-0.031252,0.003217,0.003015,0.017765,-0.6862,-1.0136,-0.0306,0.00001171,0.00001118,-0.00184443,-0.00221048,-0.00122545,0.00141327,-0.1752,0.1796,-9.7288,-0.004902,-0.001027,-0.003950,36.4687,0.0320,94,-1,-1,0.000227,0.000245,-0.031531,-0.000436,0.002450,0.006528,-0.9706,-0.8898,0.1873
11112,11.0,0.000082,0.000034,-0.031038,0.001631,0.001690,0.018790,-0.7755,-0.9384,-0.0176,0.00001825,0.00000549,-0.00184475,-0.00155693,-0.00047270,0.00138337,-0.1580,0.1795,-9.7321,-0.004225,-0.000266,-0.001807,36.5268,0.0310,87,0,0,0.000260,0.000277,-0.031461,-0.000480,0.002568,0.007309,-0.9711,-0.8903,0.1863
11123,11.0,0.000098,0.000052,-0.030944,0.001039,0.001155,0.018034,-0.8309,-0.9201,-0.0157,0.00002396,0.00000354,-0.00184488,-0.00132583,-0.00033126,0.00160875,-0.1626,0.1737,-9.7267,-0.003448,-0.003318,-0.004178,36.5268,0.0310,80,0,0,0.000274,0.000292,-0.031028,-0.000489,0.002292,0.011679,-0.9733,-0.8938,0.1866
11134,11.0,0.000108,0.000064,-0.030733,0.000905,0.000977,0.018970,-0.8539,-0.9124,-0.0136,0.00002664,0.00000221,-0.00184497,-0.00121559,-0.00010762,0.00158774,-0.1416,0.1817,-9.7300,-0.002497,-0.004544,-0.002733,36.5268,0.0310,90,0,0,0.000280,0.000299,-0.030900,-0.000475,0.002254,0.012557,-0.9773,-0.8999,0.1864
11145,11.0,0.000102,0.000075,-0.030520,-0.002576,0.000868,0.019878,-0.8761,-0.8128,-0.0020,0.00003000,-0.00001306,-0.00184542,0.00006966,-0.00010844,0.00156328,-0.1630,0.1708,-9.7230,-0.003050,-0.001391,-0.000811,36.5268,0.0320,84,0,2,0.000287,0.000306,-0.030770,-0.000373,0.002322,0.013334,-0.9774,-0.9012,0.1864
11156,11.0,0.000083,0.000084,-0.031355,-0.000478,0.000775,0.007798,-0.8850,-0.8817,-0.0082,0.00003111,-0.00000050,-0.00184516,-0.00067891,-0.00010089,0.00581246,-0.1626,0.1596,-9.7401,-0.003113,-0.001969,-0.003773,36.5268,0.0320,91,0,0,0.000251,0.000320,-0.031401,-0.000467,0.002319,0.005507,-0.9799,-0.9038,0.1877
11167,11.0,0.000082,0.000093,-0.031265,0.000290,0.000784,0.008617,-0.8967,-0.9077,-0.0105,0.00003344,0.00000550,-0.00184506,-0.00092690,-0.00013336,0.00581726,-0.1627,0.1685,-9.7269,-0.002984,0.000796,-0.002456,36.5268,0.0320,89,0,0,0.000258,0.000327,-0.031342,-0.000448,0.002260,0.006158,-0.9794,-0.9072,0.1873
11178,11.0,0.000086,0.000102,-0.031156,0.000567,0.000838,0.009642,-0.9049,-0.9178,-0.0102,0.00003502,0.00000787,-0.00184504,-0.00105258,-0.00004892,0.00576814,-0.1635,0.1795,-9.7177,-0.003476,-0.001675,-0.000948,36.5268,0.0320,89,0,0,0.000266,0.000335,-0.031267,-0.000519,0.002204,0.006991,-0.9806,-0.9066,0.1870
11189,11.0,0.000094,0.000103,-0.031597,0.000743,-0.000861,0.003981,-0.9517,-0.9156,-0.0072,0.00004867,0.00000684,-0.00184527,-0.00109027,0.00045630,0.00929499,-0.1433,0.1685,-9.7321,-0.002290,-0.001165,-0.002104,36.5268,0.0320,85,1,0,0.000281,0.000351,-0.031652,-0.000570,0.002106,0.003066,-0.9868,-0.9070,0.3870
11201,12.0,0.000094,0.000098,-0.031538,-0.000886,0.000224,0.004793,-0.9337,-0.8780,-0.0060,0.00004144,-0.00000658,-0.00184545,-0.00050062,0.00013830,0.00922668,-0.1426,0.1719,-9.7372,-0.003704,-0.000712,-0.004264,36.5268,0.0320,93,0,1,0.000288,0.000334,-0.031610,-0.000515,0.001985,0.003799,-0.9889,-0.9049,0.3863
11212,11.0,0.000090,0.000103,-0.031480,0.000186,0.000665,0.005689,-0.9397,-0.9017,-0.0118,0.00004367,0.00000250,-0.00184517,-0.00085558,-0.00007649,0.00922985,-0.1538,0.1905,-9.7163,-0.001137,-0.001745,-0.002131,36.5268,0.0330,89,0,0,0.000270,0.000341,-0.031569,-0.000471,0.002054,0.004401,-0.9901,-0.9035,0.3850
11223,11.0,0.000094,0.000111,-0.032304,0.000534,0.000852,-0.003865,-0.9461,-0.9124,-0.0123,0.00004578,0.00000636,-0.00184511,-0.00088489,-0.00011607,0.01671805,-0.1640,0.1996,-9.7186,-0.001308,-0.003288,-0.001210,36.5268,0.0330,95,0,0,0.000286,0.000357,-0.032452,-0.000481,0.001998,-0.004315,-0.9952,-0.9026,0.3845
11234,11.0,0.000120,0.000130,-0.032343,0.004146,0.002479,-0.003246,-0.9215,-0.9735,-0.0257,0.00003168,0.00003696,-0.00184402,-0.00209261,-0.00064759,0.01672885,-0.1483,0.1638,-9.7346,-0.004831,-0.002037,0.000968,36.5268,0.0330,83,-1,-2,0.000293,0.000365,-0.032492,-0.000477,0.001999,-0.003589,-0.9986,-0.9056,0.3852
11245,11.0,0.000172,0.000151,-0.032367,0.005310,0.001396,-0.002411,-0.9460,-0.9915,-0.0241,0.00004425,0.00004708,-0.00184404,-0.00242792,-0.00023119,0.01666194,-0.1573,0.1763,-9.7238,-0.003944,-0.000632,0.000001,36.5268,0.0320,90,0,-2,0.000407,0.000406,-0.032208,-0.000076,0.001993,0.001461,-0.9968,-0.9105,0.3841
11256,11.0,0.000214,0.000164,-0.032167,0.002435,0.000943,0.000925,-0.9569,-0.9422,-0.0160,0.00004932,0.00001468,-0.00184483,-0.00156796,-0.00004658,0.01450324,-0.1543,0.1639,-9.7267,-0.004655,-0.003028,-0.001871,36.4343,0.0320,93,0,0,0.000415,0.000413,-0.032155,-0.000056,0.002010,0.002587,-0.9978,-0.9102,0.3849
11267,11.0,0.000226,0.000164,-0.032120,-0.000311,-0.000854,0.002049,-0.9854,-0.9022,-0.0044,0.00006927,-0.00001428,-0.00184594,-0.00072562,0.00054272,0.01415430,-0.1649,0.1690,-9.7276,-0.000073,-0.002130,-0.003092,36.4343,0.0320,85,1,1,0.000405,0.000426,-0.032089,-0.000212,0.002228,0.003961,-0.9978,-0.9100,0.3840
11278,11.0,0.000217,0.000161,-0.032093,-0.001359,0.000149,0.002891,-0.9705,-0.8897,-0.0054,0.00005672,-0.00002497,-0.00184594,-0.00038473,0.00024225,0.01414179,-0.1579,0.1625,-9.7168,-0.002148,-0.001939,-0.003100,36.4343,0.0340,94,0,1,0.000387,0.000408,-0.033193,-0.000287,0.002113,-0.008228,-0.9994,-0.9097,0.3839
11290,12.0,0.000198,0.000165,-0.033113,-0.001722,0.000568,-0.008818,-0.9683,-0.8867,-0.0036,0.00005335,-0.00002941,-0.00184597,-0.00009912,-0.00002736,0.02489235,-0.1508,0.1764,-9.7171,-0.001774,-0.003268,0.000224,36.4343,0.0340,94,0,1,0.000368,0.000415,-0.033272,-0.000359,0.002034,-0.007592,-0.9990,-0.9098,0.3479
11301,11.0,0.000199,0.000182,-0.033207,0.001661,0.002489,-0.008239,-0.9489,-0.9318,-0.0203,0.00003387,0.00001196,-0.00184448,-0.00115841,-0.00065833,0.02489785,-0.1525,0.1795,-9.7297,-0.002285,-0.000412,-0.003847,36.4343,0.0340,88,-1,-1,0.000331,0.000430,-0.033361,-0.000475,0.002138,-0.005806,-0.9989,-0.9072,0.3499
11312,11.0,0.000214,0.000203,-0.033250,0.001072,0.001430,-0.007014,-0.9668,-0.9262,-0.0149,0.00005062,0.00000516,-0.00184502,-0.00100534,-0.00025342,0.02443704,-0.1651,0.1830,-9.7200,-0.002014,-0.001937,-0.001915,36.4343,0.0330,88,0,0,0.000364,0.000464,-0.033160,-0.000346,0.002210,-0.002407,-0.9998,-0.9064,0.3484
11323,11.0,0.000225,0.000217,-0.033138,0.000907,0.001092,-0.004087,-0.9810,-0.9218,-0.0142,0.00006360,0.00000125,-0.00184524,-0.00099913,-0.00018359,0.02256297,-0.1526,0.1937,-9.7165,-0.002817,0.001172,-0.001932,36.4343,0.0330,93,0,0,0.000379,0.000479,-0.033156,-0.000366,0.002314,-0.000704,-1.0037,-0.9074,0.3481
11334,11.0,0.000234,0.000228,-0.033163,0.000884,0.000963,-0.003221,-0.9875,-0.9197,-0.0131,0.00006899,-0.00000127,-0.00184541,-0.00094738,-0.00006399,0.02239088,-0.1435,0.1902,-9.7245,-0.002876,-0.000095,-0.002425,36.4924,0.0330,90,0,0,0.000387,0.000486,-0.033133,-0.000344,0.002471,0.000219,-1.0040,-0.9065,0.3483
11345,11.0,0.000243,0.000218,-0.033195,0.000789,-0.002629,-0.002510,-1.0315,-0.9236,-0.0015,0.00012354,0.00000094,-0.00184660,-0.00089441,0.00101402,0.02241118,-0.1687,0.1788,-9.7198,-0.001163,-0.003135,-0.001076,36.4924,0.0340,93,2,0,0.000395,0.000494,-0.033128,-0.000284,0.002464,0.000802,-1.0071,-0.9045,0.3478
11356,11.0,0.000252,0.000202,-0.033634,0.000835,-0.000499,-0.006973,-1.0082,-0.9255,-0.0080,0.00009002,0.00000008,-0.00184593,-0.00081141,0.00027550,0.02650259,-0.1492,0.1669,-9.7417,-0.001880,-0.003896,-0.003771,36.4924,0.0340,89,0,0,0.000411,0.000456,-0.033714,-0.000340,0.002293,-0.003965,-1.0102,-0.9065,0.3482
11367,11.0,0.000261,0.000211,-0.033709,0.000787,0.002008,-0.006654,-0.9855,-0.9264,-0.0149,0.00005434,0.00000060,-0.00184512,-0.00078339,-0.00049939,0.02648670,-0.1624,0.1810,-9.7516,-0.002519,-0.000661,-0.001680,36.4924,0.0330,86,-1,0,0.000392,0.000464,-0.033752,-0.000373,0.002104,-0.003647,-1.0092,-0.9074,0.3478
11379,12.0,0.000271,0.000230,-0.033762,0.000764,0.001212,-0.005739,-0.9956,-0.9290,-0.0109,0.00007023,0.00000096,-0.00184546,-0.00079421,-0.00020367,0.02627026,-0.1622,0.1835,-9.7270,0.000164,-0.003527,-0.000176,36.4924,0.0330,82,0,0,0.000406,0.000530,-0.033308,-0.000272,0.002315,0.002181,-1.0091,-0.9074,0.3477
11391,12.0,0.000280,0.000244,-0.033355,0.000797,0.000966,0.000508,-1.0059,-0.9293,-0.0105,0.00008280,-0.00000076,-0.00184560,-0.00089108,-0.00009774,0.02180696,-0.1531,0.1925,-9.7246,-0.003293,-0.002177,-0.001236,36.5849,0.0330,86,0,0,0.000414,0.000538,-0.033283,-0.000308,0.002234,0.002710,-1.0099,-0.9081,0.4148
11402,11.0,0.000289,0.000263,-0.033357,0.000785,0.002518,0.000860,-0.9954,-0.9306,-0.0142,0.00005717,-0.00000070,-0.00184505,-0.00088926,-0.00053459,0.02189903,-0.1608,0.1765,-9.7418,-0.006164,-0.001976,-0.001210,36.5849,0.0330,91,-1,0,0.000421,0.000545,-0.033269,-0.000258,0.002362,0.003085,-1.0107,-0.9082,0.4150
11413,11.0,0.000297,0.000295,-0.033344,0.000765,0.003152,0.001461,-0.9973,-0.9313,-0.0165,0.00005567,0.00000115,-0.00184486,-0.00086724,-0.00077992,0.02189435,-0.1650,0.1947,-9.7302,-0.003144,0.000678,-0.002243,36.5849,0.0330,94,-1,0,0.000437,0.000610,-0.033074,-0.000400,0.002744,0.005526,-1.0147,-0.9107,0.4134
11424,11.0,0.000306,0.000311,-0.033147,0.000751,-0.000046,0.004234,-1.0298,-0.9316,-0.0078,0.00011633,0.00000255,-0.00184621,-0.00091820,0.00021269,0.02029697,-0.1674,0.1810,-9.7234,-0.003462,0.000610,-0.003711,36.5849,0.0330,90,1,0,0.000444,0.000644,-0.033016,-0.000421,0.002844,0.006127,-1.0175,-0.9119,0.4129
11435,11.0,0.000314,0.000303,-0.033097,0.000809,-0.001310,0.004870,-1.0398,-0.9312,-0.0050,0.00013179,0.00000057,-0.00184666,-0.00095711,0.00064096,0.02030568,-0.1521,0.1566,-9.7294,-0.005090,-0.001248,-0.002866,36.5849,0.0330,88,1,0,0.000452,0.000626,-0.032951,-0.000567,0.002781,0.006767,-1.0183,-0.9119,0.4129
11446,11.0,0.000323,0.000296,-0.033053,0.000810,0.000070,0.005359,-1.0312,-0.9326,-0.0073,0.00010886,-0.00000011,-0.00184620,-0.00094414,0.00029680,0.02042229,-0.1562,0.1947,-9.7272,-0.002521,-0.002732,-0.000922,36.5849,0.0330,87,0,0,0.000443,0.000565,-0.032880,-0.000748,0.002549,0.007348,-1.0182,-0.9102,0.4105
11457,11.0,0.000332,0.000300,-0.032990,0.000776,0.000499,0.006154,-1.0310,-0.9349,-0.0094,0.00010165,0.00000169,-0.00184602,-0.00092049,0.00017140,0.02042218,-0.1654,0.1790,-9.7140,-0.004315,-0.002123,-0.003656,36.5849,0.0330,87,0,0,0.000450,0.000572,-0.032816,-0.000718,0.002582,0.007809,-1.0214,-0.9110,0.4107
11468,11.0,0.000360,0.000326,-0.032929,0.004206,0.004142,0.006751,-1.0056,-0.9644,-0.0314,0.00003537,0.00006913,-0.00184277,-0.00186346,-0.00075927,0.02051331,-0.1509,0.2091,-9.7205,-0.002269,-0.003320,-0.003604,36.5849,0.0330,89,-2,-2,0.000465,0.000587,-0.032648,-0.000698,0.002533,0.009061,-1.0213,-0.9134,0.4112
11479,11.0,0.000414,0.000369,-0.032850,0.005460,0.003674,0.007482,-1.0134,-0.9718,-0.0324,0.00005013,0.00008804,-0.00184237,-0.00226231,-0.00064317,0.02052281,-0.1502,0.1827,-9.7202,-0.002818,-0.000953,0.002530,36.6087,0.0330,87,-1,-2,0.000523,0.000644,-0.032849,-0.000441,0.002961,0.006493,-1.0208,-0.9153,0.4103
11490,11.0,0.000457,0.000399,-0.032902,0.002472,0.001870,0.006382,-1.0309,-0.9498,-0.0140,0.00009462,0.00002399,-0.00184506,-0.00139895,-0.00007915,0.02168476,-0.1660,0.1977,-9.7385,-0.001760,-0.002493,0.001033,36.6087,0.0330,88,0,0,0.000583,0.000679,-0.032781,-0.000322,0.002956,0.007163,-1.0247,-0.9130,0.5643
11501,11.0,0.000477,0.000415,-0.032829,0.001419,0.001140,0.006871,-1.0378,-0.9417,-0.0101,0.00011228,-0.00000252,-0.00184601,-0.00111956,0.00012148,0.02168336,-0.1553,0.1800,-9.7410,-0.000887,-0.002110,-0.003433,36.6087,0.0330,99,0,0,0.000597,0.000694,-0.032653,-0.000260,0.003056,0.007987,-1.0263,-0.9131,0.5670
11511,10.0,0.000480,0.000425,-0.032781,-0.000595,0.000851,0.006873,-1.0409,-0.9270,-0.0039,0.00011749,-0.00004997,-0.00184722,-0.00052431,0.00018114,0.02186302,-0.1509,0.1716,-9.7587,-0.002179,-0.002052,-0.001721,36.6087,0.0330,91,0,1,0.000605,0.000702,-0.032827,-0.000331,0.002975,0.005701,-1.0262,-0.9132,0.5670
11522,11.0,0.000479,0.000434,-0.032859,0.000339,0.000768,0.005779,-1.0430,-0.9324,-0.0066,0.00012039,-0.00003643,-0.00184680,-0.00081194,0.00018202,0.02317549,-0.1432,0.1797,-9.7150,-0.001577,-0.002421,-0.001421,36.6087,0.0330,90,0,0,0.000595,0.000717,-0.032727,-0.000380,0.002816,0.006236,-1.0265,-0.9135,0.5680
11533,11.0,0.000484,0.000432,-0.032792,0.000662,-0.001010,0.006441,-1.0554,-0.9358,-0.0040,0.00015883,-0.00003174,-0.00184743,-0.00086923,0.00064272,0.02318944,-0.1484,0.1663,-9.7236,-0.000895,-0.003148,-0.002282,36.5506,0.0330,94,1,0,0.000602,0.000699,-0.032663,-0.000333,0.002661,0.006784,-1.0257,-0.9136,0.5679
11544,11.0,0.000483,0.000427,-0.032719,-0.000779,0.000101,0.006756,-1.0494,-0.9212,-0.0022,0.00013654,-0.00008933,-0.00184805,-0.00058843,0.00030937,0.02317741,-0.1151,0.1885,-9.7558,-0.000276,-0.005901,-0.001609,36.5506,0.0330,89,0,1,0.000610,0.000681,-0.032832,-0.000290,0.002489,0.004694,-1.0251,-0.9145,0.5678
11555,11.0,0.000470,0.000430,-0.032832,-0.001515,0.000412,0.005561,-1.0467,-0.9172,-0.0051,0.00012462,-0.00010458,-0.00184814,-0.00038879,0.00014320,0.02472976,-0.1665,0.1616,-9.6847,-0.000982,-0.000414,-0.006806,36.5506,0.0330,92,0,1,0.000574,0.000696,-0.032732,-0.000413,0.002431,0.005440,-1.0282,-0.9122,0.5666
11566,11.0,0.000442,0.000436,-0.032767,-0.003356,0.000577,0.006235,-1.0462,-0.9042,-0.0007,0.00011955,-0.00016033,-0.00184916,0.00006880,0.00010571,0.02472111,-0.1373,0.1769,-9.7214,-0.001261,-0.004415,-0.000900,36.5506,0.0330,89,0,2,0.000582,0.000704,-0.032673,-0.000474,0.002356,0.006190,-1.0277,-0.9139,0.5648
11577,11.0,0.000401,0.000443,-0.032694,-0.004143,0.000746,0.007183,-1.0482,-0.8976,0.0015,0.00012057,-0.00018264,-0.00184976,0.00031246,0.00011568,0.02472239,-0.1444,0.1966,-9.6953,-0.002756,0.001088,-0.002874,36.5506,0.0340,89,0,2,0.000537,0.000710,-0.032610,-0.000497,0.002354,0.006726,-1.0273,-0.9147,0.5654
11588,11.0,0.000374,0.000451,-0.033368,-0.000965,0.000790,-0.000862,-1.0504,-0.9175,-0.0118,0.00012460,-0.00010446,-0.00184768,-0.00049624,-0.00001950,0.03070329,-0.1479,0.1881,-9.6983,-0.001365,-0.000839,-0.005939,36.5506,0.0340,89,0,0,0.000553,0.000725,-0.033509,-0.000645,0.002537,-0.002228,-1.0295,-0.9162,0.4459
11599,11.0,0.000382,0.000460,-0.033375,0.002117,0.000790,-0.000316,-1.0521,-0.9332,-0.0185,0.00012619,-0.00003903,-0.00184606,-0.00117515,-0.00000003,0.03071720,-0.1034,0.1844,-9.7273,-0.002090,0.000116,-0.000334,36.5506,0.0340,94,0,-1,0.000561,0.000734,-0.033528,-0.000620,0.002552,-0.001653,-1.0302,-0.9163,0.4436
11610,11.0,0.000400,0.000468,-0.033376,0.001340,0.000683,0.000079,-1.0508,-0.9258,-0.0162,0.00011632,-0.00007106,-0.00184657,-0.00101270,0.00009136,0.03071580,-0.1404,0.1578,-9.7411,-0.002487,-0.000980,-0.001286,36.4924,0.0330,92,0,0,0.000593,0.000742,-0.033543,-0.000151,0.002622,-0.001202,-1.0301,-0.9157,0.4438
11621,11.0,0.000413,0.000476,-0.033151,0.001104,0.000697,0.002967,-1.0524,-0.9235,-0.0154,0.00011448,-0.00008661,-0.00184688,-0.00088491,0.00010417,0.02899521,-0.1286,0.1747,-9.7543,-0.003078,-0.001989,-0.002440,36.4924,0.0330,94,0,0,0.000608,0.000757,-0.033162,-0.000177,0.002457,0.003465,-1.0288,-0.9158,0.4427
11632,11.0,0.000424,0.000484,-0.033113,0.000943,0.000727,0.003775,-1.0528,-0.9217,-0.0141,0.00011476,-0.00009823,-0.00184703,-0.00087455,0.00009634,0.02899479,-0.1460,0.1815,-9.7048,-0.000317,-0.001868,0.000094,36.4924,0.0330,92,0,0,0.000616,0.000765,-0.033125,-0.000065,0.002404,0.003770,-1.0293,-0.9144,0.4423
11643,11.0,0.000444,0.000481,-0.033047,0.002537,-0.000971,0.004645,-1.0645,-0.9305,-0.0145,0.00016160,-0.00005404,-0.00184693,-0.00129931,0.00054752,0.02884473,-0.1553,0.1761,-9.7226,-0.002866,0.000731,-0.001701,36.4924,0.0330,86,1,-1,0.000623,0.000772,-0.033058,-0.000069,0.002494,0.004567,-1.0284,-0.9146,0.4440
11654,11.0,0.000466,0.000477,-0.032991,0.001456,0.000090,0.005222,-1.0597,-0.9242,-0.0132,0.00012777,-0.00009131,-0.00184707,-0.00103335,0.00027873,0.02882135,-0.1492,0.1764,-9.7279,-0.003322,-0.002669,-0.000381,36.4924,0.0330,87,0,0,0.000665,0.000763,-0.032927,0.000012,0.002106,0.005781,-1.0301,-0.9148,0.4437
11665,11.0,0.000479,0.000481,-0.032914,0.001000,0.000480,0.006057,-1.0582,-0.9240,-0.0138,0.00011563,-0.00010269,-0.00184708,-0.00093053,0.00016944,0.02869171,-0.1643,0.1782,-9.7204,-0.001303,-0.003203,-0.002779,36.4924,0.0330,90,0,0,0.000672,0.000770,-0.032866,0.000017,0.002059,0.006283,-1.0305,-0.9151,0.4434
11676,11.0,0.000499,0.000497,-0.032845,0.002492,0.002283,0.006537,-1.0520,-0.9341,-0.0236,0.00006820,-0.00005988,-0.00184488,-0.00133194,-0.00033052,0.02868873,-0.1567,0.1900,-9.7346,-0.004131,-0.003155,-0.002657,36.4924,0.0320,89,-1,-1,0.000680,0.000777,-0.032801,0.000035,0.002089,0.006829,-1.0310,-0.9160,0.4427
11687,11.0,0.000510,0.000516,-0.032329,-0.000203,0.001261,0.012272,-1.0580,-0.9195,-0.0101,0.00009990,-0.00014493,-0.00184760,-0.00063327,0.00000299,0.02543924,-0.1478,0.1815,-9.7290,-0.000041,-0.002236,0.003117,36.4924,0.0320,84,0,1,0.000694,0.000840,-0.032146,0.000132,0.002294,0.012818,-1.0300,-0.9179,0.3326
11698,11.0,0.000511,0.000518,-0.032191,0.000400,-0.000686,0.012842,-1.0735,-0.9237,-0.0070,0.00016910,-0.00012474,-0.00184843,-0.00078992,0.00048824,0.02545170,-0.1602,0.1961,-9.7295,-0.003965,-0.000961,-0.001280,36.4924,0.0320,84,1,0,0.000659,0.000854,-0.031857,0.000043,0.002404,0.014084,-1.0303,-0.9172,0.3345
11709,11.0,0.000517,0.000515,-0.032026,0.000628,0.000077,0.013720,-1.0697,-0.9270,-0.0115,0.00013492,-0.00011606,-0.00184749,-0.00086432,0.00020154,0.02529081,-0.1628,0.1523,-9.7253,-0.003411,-0.002754,-0.003419,36.4924,0.0330,90,0,0,0.000666,0.000836,-0.032480,0.000049,0.002323,0.006010,-1.0321,-0.9170,0.3349
11720,11.0,0.000525,0.000508,-0.032486,0.000719,-0.001235,0.006861,-1.0779,-0.9289,-0.0092,0.00017100,-0.00011184,-0.00184831,-0.00081736,0.00048936,0.02972002,-0.1613,0.1758,-9.7489,-0.003380,-0.002042,-0.004033,36.4924,0.0330,90,1,0,0.000674,0.000844,-0.032401,0.000000,0.002074,0.006641,-1.0323,-0.9177,0.3343
11731,11.0,0.000533,0.000502,-0.032391,0.000753,0.000013,0.007631,-1.0739,-0.9300,-0.0133,0.00013162,-0.00010971,-0.00184739,-0.00083476,0.00017013,0.02959441,-0.1620,0.1854,-9.7250,-0.003943,-0.001125,-0.002712,36.4924,0.0330,86,0,0,0.000690,0.000833,-0.032261,-0.000080,0.001982,0.007479,-1.0323,-0.9189,0.3331
11742,11.0,0.000542,0.000514,-0.032303,0.000814,0.002038,0.008403,-1.0630,-0.9283,-0.0162,0.00005762,-0.00011739,-0.00184605,-0.00088528,-0.00032403,0.02958491,-0.1452,0.1707,-9.7077,-0.002197,-0.000051,0.000869,36.4924,0.0320,89,-1,0,0.000698,0.000841,-0.032054,-0.000086,0.001958,0.009432,-1.0336,-0.9187,0.3327
11753,11.0,0.000550,0.000531,-0.032069,0.000800,0.001163,0.010449,-1.0678,-0.9303,-0.0157,0.00008508,-0.00011967,-0.00184666,-0.00088325,-0.00008978,0.02860250,-0.1541,0.1773,-9.7409,-0.000714,-0.003940,-0.004366,36.4581,0.0320,89,0,0,0.000704,0.000873,-0.031957,0.000003,0.001964,0.010054,-1.0334,-0.9175,0.3336
11764,11.0,0.000559,0.000552,-0.031951,0.000746,0.002471,0.010989,-1.0595,-0.9327,-0.0181,0.00002459,-0.00011361,-0.00184555,-0.00083900,-0.00036334,0.02859611,-0.1705,0.1584,-9.7296,-0.002599,-0.001900,-0.001083,36.4581,0.0330,89,-1,0,0.000719,0.000913,-0.031710,0.000047,0.001857,0.011219,-1.0326,-0.9178,0.3337
11775,11.0,0.000577,0.000583,-0.031792,0.002330,0.002993,0.012191,-1.0578,-0.9432,-0.0249,0.00000304,-0.00004867,-0.00184359,-0.00133976,-0.00052210,0.02836000,-0.1907,0.1689,-9.7060,-0.002461,-0.001110,-0.002761,36.4581,0.0330,88,-1,-1,0.000752,0.000946,-0.032411,0.000087,0.001860,0.002652,-1.0315,-0.9189,0.3340
11786,11.0,0.000597,0.000606,-0.032387,0.001363,0.001492,0.004228,-1.0648,-0.9388,-0.0195,0.00004605,-0.00008588,-0.00184546,-0.00102550,-0.00019062,0.03343922,-0.1559,0.1697,-9.7193,-0.001735,-0.002059,-0.003513,36.4581,0.0330,85,0,0,0.000786,0.000980,-0.032381,-0.000101,0.001875,0.003267,-1.0311,-0.9189,0.3335
11797,11.0,0.000609,0.000620,-0.032312,0.000990,0.000999,0.004970,-1.0701,-0.9377,-0.0170,0.00006331,-0.00009838,-0.00184614,-0.00093692,-0.00006032,0.03325567,-0.1621,0.1818,-9.7348,-0.004369,-0.001201,-0.001488,36.4581,0.0330,93,0,0,0.000802,0.001021,-0.032263,-0.000165,0.001916,0.004667,-1.0330,-0.9179,0.5045
11808,11.0,0.000619,0.000630,-0.032255,0.000875,0.000841,0.005381,-1.0731,-0.9374,-0.0159,0.00007548,-0.00010844,-0.00184645,-0.00092778,-0.00003866,0.03325593,-0.1528,0.1917,-9.7363,-0.001533,-0.002252,-0.000807,36.4343,0.0320,91,0,0,0.000810,0.001028,-0.032080,-0.000162,0.001911,0.006606,-1.0349,-0.9181,0.5045
11819,11.0,0.000629,0.000628,-0.032057,0.000871,-0.000980,0.007529,-1.0844,-0.9372,-0.0126,0.00013129,-0.00011511,-0.00184766,-0.00089671,0.00037793,0.03233632,-0.1437,0.1602,-9.7251,-0.005601,-0.001343,-0.002002,36.4343,0.0320,93,1,0,0.000824,0.001043,-0.031902,-0.000023,0.001958,0.007827,-1.0360,-0.9165,0.5053
11831,12.0,0.000639,0.000613,-0.031965,0.000745,-0.001521,0.007718,-1.0907,-0.9393,-0.0115,0.00015766,-0.00010795,-0.00184819,-0.00082979,0.00049615,0.03233783,-0.1754,0.1946,-9.7585,-0.003497,-0.001149,-0.003382,36.4343,0.0320,85,1,0,0.000831,0.001025,-0.031822,0.000105,0.001794,0.008182,-1.0370,-0.9165,0.5054
11842,11.0,0.000647,0.000595,-0.031834,0.000821,-0.001795,0.008789,-1.0929,-0.9407,-0.0103,0.00016652,-0.00011020,-0.00184842,-0.00081942,0.00056282,0.03203931,-0.1482,0.1835,-9.7252,-0.001475,-0.002770,-0.001130,36.4343,0.0330,91,1,0,0.000839,0.001007,-0.031671,0.000055,0.001779,0.009125,-1.0391,-0.9178,0.5046
11853,11.0,0.000657,0.000585,-0.032430,0.000927,-0.000163,0.000845,-1.0890,-0.9367,-0.0140,0.00011115,-0.00013109,-0.00184752,-0.00084683,0.00005318,0.03663589,-0.1299,0.1934,-9.7588,-0.004853,0.000520,-0.002380,36.4343,0.0330,89,0,0,0.000854,0.000996,-0.032459,0.000173,0.001714,0.000552,-1.0397,-0.9185,0.5036
11864,11.0,0.000646,0.000576,-0.032386,-0.002542,-0.001262,0.001672,-1.0954,-0.9227,-0.0017,0.00015493,-0.00025949,-0.00185181,0.00000851,0.00034560,0.03640172,-0.1621,0.1927,-9.7313,-0.001072,-0.003871,-0.004060,36.4343,0.0330,93,1,2,0.000861,0.001003,-0.032453,0.000370,0.001821,0.000686,-1.0411,-0.9177,0.5033
11875,11.0,0.000641,0.000570,-0.032364,0.001243,-0.000027,0.002246,-1.0899,-0.9427,-0.0152,0.00010448,-0.00011385,-0.00184716,-0.00093293,0.00005703,0.03641181,-0.1628,0.1820,-9.7184,-0.001432,-0.002979,-0.001369,36.4343,0.0330,92,0,-1,0.000851,0.000992,-0.032740,0.000374,0.001816,-0.001746,-1.0430,-0.9186,0.5029
11886,11.0,0.000653,0.000572,-0.032670,0.001024,0.000408,-0.000905,-1.0905,-0.9428,-0.0146,0.00008512,-0.00012981,-0.00184717,-0.00079204,-0.00011083,0.03858575,-0.1430,0.1786,-9.7014,-0.004662,-0.003304,-0.001158,36.4343,0.0330,89,0,0,0.000858,0.001024,-0.032755,0.000386,0.001903,-0.001318,-1.0422,-0.9201,0.4707
11897,11.0,0.000663,0.000578,-0.032679,0.000866,0.000562,-0.000731,-1.0911,-0.9446,-0.0144,0.00007606,-0.00013487,-0.00184717,-0.00074861,-0.00013704,0.03858440,-0.1631,0.1828,-9.7525,-0.002627,-0.003836,-0.001807,36.5162,0.0330,89,0,0,0.000865,0.001031,-0.032750,0.000485,0.001899,-0.000519,-1.0427,-0.9210,0.4714
11908,11.0,0.000673,0.000585,-0.032672,0.000807,0.000660,-0.000005,-1.0927,-0.9453,-0.0148,0.00007448,-0.00013629,-0.00184717,-0.00074073,-0.00014576,0.03850298,-0.1636,0.1909,-9.7157,-0.002874,-0.001504,-0.002499,36.5162,0.0330,89,0,0,0.000932,0.001071,-0.032908,0.000619,0.001916,-0.001476,-1.0411,-0.9235,0.4709
11919,11.0,0.000682,0.000591,-0.032845,0.000840,0.000558,-0.001556,-1.0912,-0.9467,-0.0150,0.00005432,-0.00014479,-0.00184714,-0.00076240,-0.00006320,0.03963134,-0.1504,0.1579,-9.7227,-0.002593,-0.004424,-0.003012,36.5162,0.0330,94,0,0,0.000939,0.001079,-0.032908,0.000598,0.001944,-0.000857,-1.0424,-0.9236,0.4711
11931,12.0,0.000682,0.000577,-0.032852,-0.000807,-0.002837,-0.001220,-1.1073,-0.9386,-0.0042,0.00018408,-0.00022249,-0.00185122,-0.00028568,0.00074055,0.03957607,-0.1359,0.1767,-9.7496,-0.001712,-0.001445,0.000477,36.5162,0.0330,90,2,1,0.000947,0.001087,-0.032914,0.000678,0.001790,-0.000421,-1.0425,-0.9247,0.4708
11942,11.0,0.000658,0.000549,-0.032864,-0.003147,-0.002312,-0.000816,-1.1047,-0.9287,0.0008,0.00015283,-0.00032092,-0.00185294,0.00027336,0.00063922,0.03956388,-0.1544,0.1775,-9.7309,-0.001714,-0.002488,-0.001002,36.5162,0.0330,83,1,2,0.000911,0.000998,-0.032957,0.000697,0.001347,-0.000113,-1.0420,-0.9248,0.4713
11953,11.0,0.000639,0.000536,-0.032924,-0.000633,-0.000483,-0.001128,-1.0972,-0.9412,-0.0093,0.00006903,-0.00022016,-0.00184901,-0.00032699,0.00012970,0.03989649,-0.1569,0.1667,-9.7397,-0.002851,-0.002236,-0.002893,36.4924,0.0330,90,0,0,0.000868,0.000980,-0.032956,0.000571,0.001222,0.000271,-1.0412,-0.9243,0.4720
11964,11.0,0.000628,0.000534,-0.032934,-0.001366,0.000160,-0.000677,-1.0920,-0.9391,-0.0096,0.00002027,-0.00025342,-0.00184896,-0.00015912,0.00004042,0.03989130,-0.1570,0.1614,-9.7266,-0.001304,-0.002895,-0.002584,36.4924,0.0320,87,0,1,0.000857,0.000995,-0.032913,0.000615,0.000966,0.001363,-1.0412,-0.9237,0.4740
11975,11.0,0.000621,0.000538,-0.032917,0.000015,0.000468,0.000196,-1.0920,-0.9467,-0.0133,0.00000555,-0.00019975,-0.00184741,-0.00047888,-0.00004275,0.03975906,-0.1535,0.1813,-9.7112,-0.002449,-0.003054,-0.001849,36.4924,0.0320,88,0,0,0.000864,0.001002,-0.032293,0.000646,0.000888,0.008204,-1.0408,-0.9237,0.4734
11985,10.0,0.000654,0.000563,-0.032411,0.005325,0.003722,0.006436,-1.0763,-0.9702,-0.0310,-0.00014323,0.00000704,-0.00183982,-0.00186232,-0.00072328,0.03666048,-0.1476,0.1691,-9.7329,-0.001224,-0.003655,-0.002508,36.4924,0.0320,85,-2,-3,0.000872,0.001009,-0.032209,0.000680,0.000909,0.008703,-1.0408,-0.9236,0.4734
11996,11.0,0.000714,0.000602,-0.032322,0.005698,0.003388,0.007011,-1.0796,-0.9731,-0.0299,-0.00013098,0.00002020,-0.00183977,-0.00194045,-0.00065016,0.03656190,-0.1621,0.1792,-9.7357,-0.003388,-0.002437,0.000064,36.4924,0.0320,90,-1,-2,0.001010,0.001098,-0.031997,0.001156,0.001069,0.009930,-1.0396,-0.9255,0.4478
12007,11.0,0.000758,0.000628,-0.032242,0.002641,0.001662,0.007634,-1.0887,-0.9583,-0.0204,-0.00006116,-0.00012504,-0.00184448,-0.00124533,-0.00021890,0.03655733,-0.1478,0.1813,-9.7140,-0.003216,-0.001127,-0.004053,36.4924,0.0330,91,0,0,0.001018,0.001106,-0.032564,0.001212,0.000973,0.003197,-1.0399,-0.9256,0.4475
12018,11.0,0.000770,0.000643,-0.032599,-0.000221,0.001024,0.002666,-1.0949,-0.9469,-0.0095,-0.00003694,-0.00024710,-0.00184797,-0.00051559,-0.00013444,0.03924137,-0.1638,0.1801,-9.7494,-0.005745,-0.001937,0.001828,36.4924,0.0330,94,0,1,0.001033,0.001120,-0.032473,0.001293,0.000970,0.004074,-1.0402,-0.9253,0.4465
12029,11.0,0.000761,0.000653,-0.032567,-0.001288,0.000841,0.003243,-1.0977,-0.9446,-0.0051,-0.00002459,-0.00028625,-0.00184934,-0.00024467,-0.00009910,0.03923737,-0.1689,0.1920,-9.7149,-0.002327,-0.002743,-0.000887,36.4924,0.0330,93,0,1,0.001016,0.001127,-0.032431,0.001189,0.001005,0.004301,-1.0419,-0.9260,0.4486
12040,11.0,0.000755,0.000661,-0.032509,0.000010,0.000682,0.003720,-1.1010,-0.9514,-0.0072,-0.00002461,-0.00022847,-0.00184795,-0.00056578,-0.00009489,0.03911341,-0.1656,0.1729,-9.7475,-0.005249,-0.001851,-0.000132,36.4924,0.0320,93,0,0,0.000999,0.001133,-0.032135,0.001013,0.001186,0.007492,-1.0418,-0.9259,0.4495
12051,11.0,0.000748,0.000669,-0.032205,-0.001126,0.000704,0.007262,-1.1025,-0.9462,-0.0035,-0.00002170,-0.00028083,-0.00184928,-0.00032873,-0.00007925,0.03755435,-0.1591,0.1921,-9.7231,-0.001635,-0.000339,-0.000924,36.4924,0.0320,93,0,1,0.000990,0.001146,-0.031959,0.000823,0.001271,0.008367,-1.0426,-0.9260,0.4508
12062,11.0,0.000743,0.000666,-0.032105,0.000135,-0.000977,0.008141,-1.1116,-0.9525,-0.0032,0.00004738,-0.00023241,-0.00184948,-0.00059649,0.00030182,0.03746892,-0.1475,0.1786,-9.7073,-0.003844,-0.002883,-0.002103,36.4924,0.0320,85,1,0,0.000972,0.001153,-0.031873,0.000716,0.001307,0.008733,-1.0431,-0.9261,0.4513
12074,12.0,0.000748,0.000661,-0.032004,0.000598,0.000048,0.008695,-1.1082,-0.9523,-0.0063,-0.00001443,-0.00022413,-0.00184809,-0.00073261,0.00010020,0.03746673,-0.1508,0.1730,-9.7238,-0.004497,0.000819,-0.001924,36.4924,0.0320,90,0,0,0.000980,0.001135,-0.031907,0.000784,0.001250,0.007916,-1.0438,-0.9267,0.4515
12085,11.0,0.000734,0.000654,-0.031940,-0.002594,-0.001258,0.008894,-1.1151,-0.9392,0.0009,0.00003187,-0.00036252,-0.00185217,0.00000853,0.00034017,0.03765830,-0.1686,0.1652,-9.7154,-0.003846,-0.000568,-0.003855,36.4924,0.0320,93,1,2,0.000946,0.001125,-0.031721,0.000585,0.000977,0.009044,-1.0459,-0.9245,0.5646
12095,10.0,0.000731,0.000649,-0.031849,0.001144,-0.000072,0.009287,-1.1099,-0.9535,-0.0102,-0.00003225,-0.00020687,-0.00184719,-0.00090946,0.00010014,0.03766898,-0.1490,0.1782,-9.7303,-0.002211,-0.000028,-0.002572,36.5506,0.0320,92,0,-1,0.000979,0.001132,-0.031630,0.000654,0.000928,0.009445,-1.0458,-0.9240,0.5638
12106,11.0,0.000743,0.000651,-0.031744,0.000922,0.000416,0.009868,-1.1076,-0.9538,-0.0098,-0.00005598,-0.00021959,-0.00184700,-0.00084196,-0.00002494,0.03767086,-0.1577,0.1853,-9.7155,0.000065,-0.002685,-0.000655,36.5506,0.0320,90,0,0,0.001011,0.001140,-0.031534,0.000820,0.000934,0.009785,-1.0460,-0.9233,0.5633
12117,11.0,0.000753,0.000666,-0.031826,0.000913,0.002194,0.008298,-1.1008,-0.9523,-0.0117,-0.00014557,-0.00024362,-0.00184563,-0.00088021,-0.00043700,0.03878510,-0.1388,0.1791,-9.7055,-0.002886,-0.002446,0.000175,36.5506,0.0320,95,-1,0,0.001050,0.001154,-0.031730,0.000921,0.000861,0.006799,-1.0458,-0.9239,0.5642
12128,11.0,0.000762,0.000684,-0.031733,0.000898,0.001165,0.008785,-1.1061,-0.9515,-0.0097,-0.00010847,-0.00025491,-0.00184656,-0.00082287,-0.00024578,0.03879246,-0.1419,0.1679,-9.7237,-0.003072,-0.000610,-0.001448,36.5506,0.0320,91,0,0,0.001058,0.001186,-0.031659,0.000994,0.000909,0.007273,-1.0455,-0.9235,0.5647
12139,11.0,0.000772,0.000695,-0.031633,0.000794,0.000837,0.009414,-1.1062,-0.9531,-0.0086,-0.00009964,-0.00025731,-0.00184696,-0.00079525,-0.00014902,0.03879392,-0.1653,0.1824,-9.7109,0.000704,-0.003005,-0.001989,36.5506,0.0320,91,0,0,0.001065,0.001194,-0.031586,0.001063,0.000774,0.007597,-1.0452,-0.9230,0.5657
12150,11.0,0.000780,0.000704,-0.031780,0.000805,0.000725,0.006768,-1.1074,-0.9547,-0.0068,-0.00009609,-0.00026158,-0.00184714,-0.00075113,-0.00015712,0.04023046,-0.1542,0.1858,-9.7395,-0.001458,-0.003579,0.000227,36.5506,0.0320,92,0,0,0.001081,0.001208,-0.031749,0.000883,0.000884,0.005812,-1.0442,-0.9219,0.5656
12161,11.0,0.000789,0.000721,-0.031705,0.000798,0.002334,0.006956,-1.1006,-0.9541,-0.0093,-0.00017158,-0.00026888,-0.00184561,-0.00076194,-0.00052627,0.04022289,-0.1567,0.1881,-9.7496,-0.000058,-0.000580,-0.000028,36.5506,0.0320,93,-1,0,0.001088,0.001215,-0.031690,0.000848,0.000923,0.006231,-1.0447,-0.9223,0.5666
12172,11.0,0.000807,0.000741,-0.031627,0.002307,0.001280,0.007310,-1.1073,-0.9606,-0.0112,-0.00012173,-0.00019498,-0.00184481,-0.00112844,-0.00027688,0.04024041,-0.1707,0.1889,-9.7332,-0.003833,-0.000124,-0.002179,36.5506,0.0310,90,0,-1,0.001096,0.001246,-0.031626,0.000811,0.000993,0.006490,-1.0433,-0.9226,0.5675
12183,11.0,0.000827,0.000752,-0.031241,0.001361,0.000791,0.011385,-1.1078,-0.9555,-0.0092,-0.00012677,-0.00025341,-0.00184624,-0.00097150,-0.00005938,0.03854824,-0.1501,0.1609,-9.7192,-0.003011,-0.000865,-0.003475,36.5506,0.0310,88,0,0,0.001158,0.001260,-0.031112,0.001068,0.001062,0.011149,-1.0427,-0.9233,0.5672
12194,11.0,0.000829,0.000760,-0.031116,-0.000614,0.000653,0.011554,-1.1110,-0.9473,-0.0060,-0.00013047,-0.00034689,-0.00184825,-0.00051677,-0.00007998,0.03854501,-0.1632,0.1696,-9.7523,-0.005546,-0.000390,-0.002330,36.5506,0.0310,89,0,1,0.001165,0.001268,-0.030997,0.001121,0.000949,0.011673,-1.0422,-0.9213,0.6031
12205,11.0,0.000818,0.000767,-0.030987,-0.001327,0.000627,0.011872,-1.1099,-0.9437,-0.0042,-0.00014650,-0.00039071,-0.00184901,-0.00037742,-0.00003068,0.03854327,-0.1521,0.1727,-9.7398,-0.001414,-0.001181,-0.001363,36.5506,0.0320,93,0,1,0.001131,0.001281,-0.031496,0.001036,0.000891,0.004139,-1.0445,-0.9196,0.6021
12216,11.0,0.000822,0.000774,-0.031476,0.001682,0.000648,0.004957,-1.1113,-0.9570,-0.0097,-0.00015138,-0.00025340,-0.00184553,-0.00098043,-0.00011121,0.04196957,-0.1511,0.1827,-9.7365,-0.003148,-0.002518,0.000238,36.5506,0.0320,91,0,-1,0.001163,0.001289,-0.031454,0.001188,0.000842,0.004382,-1.0444,-0.9201,0.6026
12227,11.0,0.000837,0.000771,-0.031419,0.001106,-0.000979,0.005299,-1.1184,-0.9560,-0.0045,-0.00008855,-0.00028710,-0.00184784,-0.00086658,0.00029870,0.04197585,-0.1580,0.1757,-9.7341,-0.003353,-0.003622,-0.001375,36.5506,0.0310,91,1,0,0.001228,0.001304,-0.031362,0.001343,0.000761,0.004797,-1.0466,-0.9199,0.6038
12238,11.0,0.000838,0.000757,-0.031348,-0.000648,-0.001626,0.005705,-1.1211,-0.9473,-0.0009,-0.00007325,-0.00037979,-0.00185016,-0.00043030,0.00036988,0.04190433,-0.1480,0.1614,-9.7415,-0.002299,0.000901,-0.002045,36.5162,0.0310,91,1,1,0.001236,0.001286,-0.031113,0.001321,0.000663,0.007273,-1.0473,-0.9204,0.6045
12249,11.0,0.000837,0.000747,-0.031123,0.000260,-0.000283,0.007852,-1.1133,-0.9502,-0.0037,-0.00017098,-0.00034235,-0.00184774,-0.00066367,0.00016010,0.04103434,-0.1561,0.1594,-9.7411,-0.002321,-0.000265,-0.000735,36.5162,0.0310,95,0,0,0.001220,0.001270,-0.031039,0.001305,0.000433,0.007504,-1.0476,-0.9188,0.6046
12260,11.0,0.000842,0.000747,-0.031026,0.000573,0.000209,0.008328,-1.1106,-0.9524,-0.0072,-0.00021144,-0.00032853,-0.00184657,-0.00072746,-0.00002723,0.04098228,-0.1604,0.1588,-9.7329,-0.001456,-0.001902,-0.003969,36.5162,0.0310,91,0,0,0.001234,0.001285,-0.030868,0.001339,0.000152,0.008387,-1.0464,-0.9178,0.6052
12271,11.0,0.000849,0.000751,-0.030933,0.000709,0.000469,0.008577,-1.1105,-0.9524,-0.0078,-0.00023821,-0.00033025,-0.00184611,-0.00077608,-0.00005012,0.04098242,-0.1552,0.1764,-9.7436,-0.004262,-0.000774,-0.001604,36.5162,0.0310,88,0,0,0.001242,0.001291,-0.030907,0.001322,0.000088,0.007322,-1.0455,-0.9177,0.6049
12282,11.0,0.000857,0.000758,-0.030913,0.000753,0.000640,0.008095,-1.1106,-0.9529,-0.0082,-0.00024236,-0.00033194,-0.00184607,-0.00076167,-0.00007643,0.04139322,-0.1561,0.1972,-9.7275,-0.000897,-0.001329,-0.002318,36.5162,0.0310,93,0,0,0.001249,0.001298,-0.030823,0.001317,0.000029,0.007716,-1.0464,-0.9171,0.6051
12293,11.0,0.000865,0.000764,-0.030819,0.000761,0.000549,0.009057,-1.1101,-0.9544,-0.0062,-0.00026735,-0.00033690,-0.00184603,-0.00077986,0.00001834,0.04139511,-0.1578,0.1611,-9.6786,-0.003931,-0.003775,0.000287,36.5162,0.0310,93,0,0,0.001263,0.001312,-0.030649,0.001474,0.000072,0.008251,-1.0456,-0.9176,0.5122
12304,11.0,0.000893,0.000790,-0.030706,0.003942,0.003780,0.009507,-1.0978,-0.9674,-0.0200,-0.00042752,-0.00018498,-0.00183862,-0.00146542,-0.00070462,0.04133027,-0.1560,0.1867,-9.7372,-0.002123,-0.000730,-0.000733,36.5162,0.0310,93,-2,-2,0.001271,0.001318,-0.030819,0.001457,0.000034,0.005965,-1.0451,-0.9186,0.5127
12315,11.0,0.000924,0.000820,-0.030812,0.001917,0.001813,0.007590,-1.1072,-0.9607,-0.0084,-0.00032533,-0.00029009,-0.00184368,-0.00100946,-0.00029288,0.04245253,-0.1607,0.1927,-9.7127,-0.001598,-0.003779,0.000352,36.5162,0.0310,93,0,0,0.001325,0.001373,-0.030760,0.001720,0.000209,0.005901,-1.0452,-0.9186,0.5123
12326,11.0,0.000930,0.000825,-0.030718,-0.000420,-0.000579,0.008045,-1.1186,-0.9519,0.0007,-0.00021661,-0.00040528,-0.00184911,-0.00049824,0.00019186,0.04240609,-0.1656,0.1709,-9.7330,-0.004147,-0.001372,-0.004435,36.5162,0.0310,92,1,1,0.001341,0.001362,-0.030621,0.001600,0.000144,0.006948,-1.0454,-0.9200,0.5117
12337,11.0,0.000921,0.000813,-0.030627,-0.001228,-0.001412,0.008497,-1.1233,-0.9478,0.0043,-0.00018869,-0.00045447,-0.00185103,-0.00034089,0.00040971,0.04240761,-0.1542,0.1788,-9.7236,-0.004517,-0.000829,-0.002020,36.5162,0.0310,92,1,1,0.001325,0.001344,-0.030813,0.001479,0.000037,0.004299,-1.0453,-0.9202,0.5104
12348,11.0,0.000915,0.000806,-0.030775,0.000005,-0.000206,0.006162,-1.1176,-0.9529,-0.0008,-0.00026614,-0.00039033,-0.00184776,-0.00060289,0.00004499,0.04366593,-0.1671,0.1603,-9.7182,-0.001296,-0.000121,-0.000285,36.5162,0.0310,89,0,0,0.001292,0.001333,-0.030708,0.001253,-0.000062,0.005214,-1.0463,-0.9191,0.5103
12359,11.0,0.000918,0.000807,-0.030705,0.000536,0.000318,0.006547,-1.1165,-0.9533,-0.0026,-0.00030578,-0.00038027,-0.00184659,-0.00075554,-0.00003724,0.04366658,-0.1477,0.1785,-9.7286,-0.004101,-0.000430,-0.001164,36.5162,0.0310,90,0,0,0.001300,0.001340,-0.030639,0.001194,-0.000167,0.005818,-1.0457,-0.9185,0.5103
12371,12.0,0.000925,0.000811,-0.030626,0.000663,0.000450,0.006880,-1.1160,-0.9553,-0.0034,-0.00032794,-0.00037313,-0.00184591,-0.00078579,-0.00013414,0.04367252,-0.1648,0.1647,-9.7345,-0.002285,-0.002409,-0.001187,36.5506,0.0310,89,0,0,0.001307,0.001347,-0.030580,0.001222,-0.000198,0.006145,-1.0456,-0.9172,0.5110
12382,11.0,0.000933,0.000817,-0.030791,0.000759,0.000507,0.004570,-1.1134,-0.9559,-0.0038,-0.00035563,-0.00038258,-0.00184568,-0.00081867,-0.00011185,0.04491191,-0.1504,0.1675,-9.7156,-0.000776,-0.003032,-0.002273,36.5506,0.0310,89,0,0,0.001322,0.001360,-0.030793,0.001141,-0.000281,0.003379,-1.0429,-0.9198,0.5099
12393,11.0,0.000951,0.000833,-0.030740,0.002331,0.002166,0.004983,-1.1074,-0.9629,-0.0127,-0.00044304,-0.00030411,-0.00184169,-0.00115512,-0.00048844,0.04491540,-0.1625,0.1828,-9.7233,-0.002116,-0.001370,-0.004283,36.5506,0.0310,86,-1,-1,0.001329,0.001367,-0.030756,0.001226,-0.000332,0.003962,-1.0416,-0.9206,0.4516
12404,11.0,0.000971,0.000851,-0.030684,0.001428,0.001241,0.005224,-1.1142,-0.9555,-0.0088,-0.00038983,-0.00038049,-0.00184416,-0.00102215,-0.00029614,0.04491682,-0.1365,0.1954,-9.7403,-0.004247,0.000376,-0.001037,36.5506,0.0310,84,0,0,0.001367,0.001404,-0.030866,0.001290,-0.000335,0.002597,-1.0406,-0.9208,0.4518
12415,11.0,0.000974,0.000862,-0.030826,-0.000610,0.000830,0.003049,-1.1178,-0.9476,-0.0036,-0.00037676,-0.00048181,-0.00184713,-0.00057532,-0.00026177,0.04591236,-0.1682,0.1765,-9.7479,-0.004381,-0.000822,-0.002111,36.5506,0.0310,88,0,1,0.001351,0.001411,-0.030840,0.001279,-0.000258,0.002763,-1.0411,-0.9188,0.4523
12426,11.0,0.000973,0.000861,-0.030790,0.000264,-0.000822,0.003434,-1.1266,-0.9499,-0.0028,-0.00029082,-0.00044063,-0.00184786,-0.00077457,0.00010019,0.04592337,-0.1593,0.1931,-9.7259,-0.003287,0.001028,-0.002412,36.5506,0.0310,95,1,0,0.001334,0.001417,-0.030812,0.001120,-0.000219,0.002903,-1.0417,-0.9182,0.4519
12437,11.0,0.000987,0.000868,-0.030753,0.002137,0.001684,0.003585,-1.1188,-0.9601,-0.0150,-0.00042392,-0.00034279,-0.00184191,-0.00118074,-0.00045782,0.04592549,-0.1675,0.1831,-9.7458,-0.005038,-0.003945,-0.002893,36.5506,0.0310,92,-1,-1,0.001350,0.001406,-0.030875,0.001061,-0.000181,0.002375,-1.0434,-0.9169,0.4521
12448,11.0,0.001005,0.000882,-0.030863,0.001227,0.000941,0.002338,-1.1189,-0.9583,-0.0113,-0.00041382,-0.00038376,-0.00184380,-0.00096123,-0.00024903,0.04667971,-0.1696,0.1653,-9.7129,-0.000381,-0.002546,-0.002779,36.5506,0.0310,86,0,0,0.001381,0.001436,-0.030850,0.001083,-0.000131,0.002613,-1.0439,-0.9186,0.4519
12459,11.0,0.001017,0.000890,-0.030836,0.000993,0.000615,0.002796,-1.1209,-0.9569,-0.0118,-0.00041889,-0.00040649,-0.00184417,-0.00086487,-0.00027094,0.04668265,-0.1452,0.1518,-9.7184,-0.004168,-0.000961,-0.003142,36.5506,0.0310,86,0,0,0.001396,0.001451,-0.030791,0.001027,-0.000300,0.003391,-1.0431,-0.9169,0.4510
12469,10.0,0.001007,0.000887,-0.030807,-0.002227,-0.001000,0.003009,-1.1253,-0.9436,-0.0043,-0.00036287,-0.00058019,-0.00184953,-0.00019240,0.00014104,0.04667908,-0.1552,0.1660,-9.7394,-0.001583,-0.001869,-0.002797,36.5506,0.0310,92,1,2,0.001404,0.001458,-0.030905,0.000989,-0.000355,0.002116,-1.0432,-0.9163,0.4515
12480,11.0,0.000994,0.000872,-0.030890,-0.000322,-0.001551,0.002001,-1.1290,-0.9521,-0.0078,-0.00033964,-0.00048547,-0.00184765,-0.00057855,0.00023084,0.04726904,-0.1559,0.1833,-9.7257,-0.003303,-0.002053,-0.002659,36.5506,0.0310,94,1,0,0.001363,0.001440,-0.030884,0.000832,-0.000446,0.002277,-1.0423,-0.9167,0.4513
12491,11.0,0.000995,0.000863,-0.030867,0.000354,-0.000276,0.002194,-1.1225,-0.9560,-0.0111,-0.00044375,-0.00045020,-0.00184509,-0.00072011,0.00004040,0.04726699,-0.1638,0.1579,-9.7426,-0.004728,-0.002106,-0.001860,36.5506,0.0310,91,0,0,0.001371,0.001422,-0.030860,0.000883,-0.000501,0.002430,-1.0428,-0.9170,0.4306
12503,12.0,0.001011,0.000874,-0.030841,0.002258,0.001939,0.002443,-1.1136,-0.9646,-0.0202,-0.00055924,-0.00035818,-0.00184000,-0.00109452,-0.00043287,0.04727014,-0.1545,0.1894,-9.7377,-0.000893,-0.002245,-0.002366,36.5506,0.0310,87,-1,-1,0.001386,0.001435,-0.030920,0.000730,-0.000571,0.001639,-1.0424,-0.9167,0.4310
12514,11.0,0.001050,0.000909,-0.030910,0.004519,0.004154,0.001637,-1.1011,-0.9726,-0.0267,-0.00071363,-0.00025861,-0.00183486,-0.00159939,-0.00082497,0.04774051,-0.1505,0.1531,-9.7301,-0.001728,-0.001073,-0.001265,36.5506,0.0310,92,-2,-2,0.001417,0.001466,-0.030902,0.000808,-0.000459,0.001847,-1.0418,-0.9159,0.4307
12525,11.0,0.001085,0.000941,-0.030891,0.002146,0.001929,0.001950,-1.1137,-0.9642,-0.0160,-0.00059791,-0.00038638,-0.00184089,-0.00108080,-0.00035505,0.04774573,-0.1581,0.1886,-9.7297,-0.006016,-0.003203,-0.000927,36.5506,0.0310,90,0,0,0.001480,0.001529,-0.030862,0.001005,-0.000554,0.002251,-1.0402,-0.9160,0.4310
12536,11.0,0.001103,0.000957,-0.030867,0.001247,0.001095,0.002304,-1.1161,-0.9599,-0.0116,-0.00056523,-0.00043263,-0.00184316,-0.00088985,-0.00015506,0.04774635,-0.1653,0.1808,-9.7270,-0.000740,0.000541,-0.001615,36.5506,0.0310,96,0,0,0.001487,0.001535,-0.030930,0.000983,-0.000471,0.001522,-1.0412,-0.9159,0.4310
12547,11.0,0.001115,0.000967,-0.030923,0.000989,0.000773,0.001656,-1.1175,-0.9608,-0.0113,-0.00055518,-0.00045577,-0.00184399,-0.00078990,-0.00012177,0.04813590,-0.1476,0.1789,-9.7312,-0.001566,-0.004654,-0.003718,36.5506,0.0310,91,0,0,0.001502,0.001548,-0.030895,0.000878,-0.000447,0.002189,-1.0420,-0.9172,0.4297
12558,11.0,0.001115,0.000975,-0.030903,-0.000747,0.000683,0.001905,-1.1197,-0.9552,-0.0040,-0.00055400,-0.00054674,-0.00184667,-0.00042665,-0.00009623,0.04812998,-0.1636,0.1880,-9.7360,-0.003799,-0.003099,0.002132,36.5506,0.0310,94,0,1,0.001510,0.001554,-0.030873,0.000888,-0.000425,0.002482,-1.0416,-0.9177,0.4286
12569,11.0,0.001093,0.000982,-0.030882,-0.002842,0.000542,0.002146,-1.1194,-0.9475,-0.0001,-0.00056240,-0.00066096,-0.00184928,0.00003469,-0.00013363,0.04812737,-0.1538,0.1635,-9.7360,-0.001061,-0.002841,-0.001549,36.5506,0.0300,89,0,2,0.001494,0.001559,-0.030337,0.000784,-0.000316,0.008272,-1.0417,-0.9184,0.4304
12580,11.0,0.001076,0.000988,-0.030385,-0.000615,0.000436,0.007598,-1.1155,-0.9597,-0.0023,-0.00059826,-0.00053513,-0.00184667,-0.00045069,0.00001670,0.04592096,-0.1717,0.1536,-9.7657,-0.000540,-0.003860,-0.003007,36.5506,0.0300,90,0,0,0.001414,0.001571,-0.030169,0.000528,-0.000309,0.008509,-1.0384,-0.9177,0.4301
12591,11.0,0.001084,0.000984,-0.030273,0.001703,-0.001030,0.008510,-1.1211,-0.9692,-0.0015,-0.00053142,-0.00040692,-0.00184548,-0.00097301,0.00029064,0.04581466,-0.1778,0.1738,-9.7056,-0.001157,0.000516,0.000020,36.4581,0.0300,91,1,-1,0.001421,0.001577,-0.030082,0.000478,-0.000428,0.008835,-1.0350,-0.9196,0.3809
12602,11.0,0.001099,0.000979,-0.030177,0.001107,-0.000017,0.008963,-1.1166,-0.9670,-0.0037,-0.00060369,-0.00044467,-0.00184483,-0.00085893,0.00012012,0.04580884,-0.1599,0.1737,-9.7202,-0.003248,-0.001830,-0.003380,36.4581,0.0310,92,0,0,0.001452,0.001561,-0.029940,0.000390,-0.000569,0.009811,-1.0347,-0.9187,0.3819
12613,11.0,0.001109,0.000971,-0.030554,0.000864,-0.001226,0.004246,-1.1213,-0.9673,0.0002,-0.00055086,-0.00045710,-0.00184652,-0.00077495,0.00029432,0.04803018,-0.1656,0.1734,-9.6810,-0.001267,-0.002676,-0.000442,36.4581,0.0310,88,1,0,0.001467,0.001551,-0.030531,0.000226,-0.000658,0.003113,-1.0333,-0.9189,0.3817
12624,11.0,0.001118,0.000965,-0.030506,0.000807,-0.000032,0.004519,-1.1174,-0.9679,-0.0033,-0.00061759,-0.00046731,-0.00184508,-0.00077461,0.00005630,0.04802512,-0.1593,0.1875,-9.7340,-0.003077,-0.002882,-0.003227,36.4581,0.0310,96,0,0,0.001475,0.001533,-0.030497,0.000134,-0.000695,0.003710,-1.0329,-0.9200,0.3828
12635,11.0,0.001117,0.000977,-0.030422,-0.000792,0.001895,0.005159,-1.1097,-0.9630,-0.0038,-0.00072160,-0.00054955,-0.00184474,-0.00044695,-0.00035689,0.04785623,-0.1677,0.1842,-9.7364,-0.001384,-0.002912,-0.001132,36.4581,0.0300,89,-1,1,0.001483,0.001538,-0.030458,0.000065,-0.000528,0.003999,-1.0328,-0.9204,0.3838
12647,12.0,0.001104,0.000993,-0.030155,-0.001368,0.000906,0.007767,-1.1097,-0.9598,-0.0009,-0.00071934,-0.00058190,-0.00184641,-0.00034958,-0.00004729,0.04694021,-0.1626,0.1470,-9.7386,-0.002063,0.000226,-0.002750,36.5162,0.0300,89,0,1,0.001473,0.001574,-0.030064,-0.000032,-0.000386,0.007199,-1.0339,-0.9205,0.3835
12658,11.0,0.001088,0.001002,-0.030060,-0.001554,0.000630,0.008056,-1.1108,-0.9589,-0.0002,-0.00072150,-0.00059446,-0.00184663,-0.00030059,-0.00005536,0.04689891,-0.1593,0.1607,-9.7436,-0.002620,-0.000708,-0.001057,36.5162,0.0300,89,0,1,0.001441,0.001588,-0.029903,-0.000214,-0.000611,0.007844,-1.0342,-0.9186,0.3838
12669,11.0,0.001090,0.001009,-0.029970,0.001526,0.000629,0.008435,-1.1103,-0.9722,-0.0076,-0.00073002,-0.00044595,-0.00184244,-0.00095943,-0.00002964,0.04691076,-0.1542,0.1820,-9.7258,-0.001574,-0.003365,-0.003697,36.5162,0.0310,89,0,-1,0.001472,0.001619,-0.030522,-0.000101,-0.000632,0.000337,-1.0323,-0.9181,0.3845
12680,11.0,0.001114,0.001026,-0.030478,0.002653,0.002188,0.001828,-1.1045,-0.9770,-0.0136,-0.00081969,-0.00039466,-0.00183900,-0.00111236,-0.00042757,0.04960969,-0.1544,0.1754,-9.7241,-0.002772,-0.001519,-0.003214,36.5162,0.0310,95,-1,-1,0.001503,0.001625,-0.030508,0.000027,-0.000575,0.000681,-1.0318,-0.9192,0.3836
12691,11.0,0.001136,0.001043,-0.030456,0.001466,0.001139,0.002215,-1.1075,-0.9724,-0.0086,-0.00078769,-0.00046613,-0.00184184,-0.00088971,-0.00016479,0.04961079,-0.1585,0.1683,-9.7225,-0.002444,-0.002470,-0.000843,36.5162,0.0310,88,0,0,0.001541,0.001662,-0.030490,0.000194,-0.000350,0.001120,-1.0338,-0.9184,0.3917
12702,11.0,0.001149,0.001054,-0.030419,0.000950,0.000832,0.002524,-1.1091,-0.9719,-0.0069,-0.00077165,-0.00048609,-0.00184287,-0.00081380,-0.00010230,0.04955903,-0.1791,0.1892,-9.7412,-0.001216,-0.002203,-0.002057,36.5162,0.0310,85,0,0,0.001548,0.001668,-0.030776,0.000195,-0.000347,-0.001848,-1.0330,-0.9193,0.3921
12713,11.0,0.001158,0.001053,-0.030717,0.000866,-0.000862,-0.000925,-1.1168,-0.9709,-0.0035,-0.00068636,-0.00050554,-0.00184527,-0.00080500,0.00022501,0.05101727,-0.1529,0.1877,-9.7248,-0.002391,-0.001968,-0.002163,36.5162,0.0310,95,1,0,0.001556,0.001674,-0.030794,0.000034,-0.000220,-0.001685,-1.0322,-0.9197,0.3922
12724,11.0,0.001168,0.001039,-0.030718,0.000813,-0.001545,-0.000775,-1.1195,-0.9714,-0.0023,-0.00066121,-0.00051296,-0.00184609,-0.00077794,0.00032295,0.05097893,-0.1588,0.1732,-9.7521,-0.001856,-0.002322,-0.001973,36.5162,0.0310,90,1,0,0.001571,0.001638,-0.030810,0.000046,-0.000147,-0.001145,-1.0312,-0.9199,0.3926
12735,11.0,0.001176,0.001031,-0.030725,0.000843,-0.000173,-0.000492,-1.1129,-0.9693,-0.0042,-0.00074430,-0.00053452,-0.00184458,-0.00082642,0.00006864,0.05097424,-0.1455,0.1806,-9.7306,-0.001000,-0.000664,-0.001111,36.5744,0.0310,96,0,0,0.001578,0.001645,-0.030929,0.000057,-0.000104,-0.002154,-1.0311,-0.9201,0.3926
12746,11.0,0.001185,0.001032,-0.030877,0.000797,0.000335,-0.002020,-1.1128,-0.9700,-0.0064,-0.00077503,-0.00054025,-0.00184401,-0.00079239,-0.00006196,0.05161851,-0.1608,0.1829,-9.7386,-0.004477,-0.002223,-0.004003,36.5744,0.0310,90,0,0,0.001584,0.001651,-0.030949,0.000163,-0.000029,-0.001864,-1.0303,-0.9196,0.3929
12757,11.0,0.001194,0.001037,-0.030896,0.000857,0.000482,-0.001375,-1.1118,-0.9695,-0.0071,-0.00079975,-0.00056491,-0.00184386,-0.00086073,-0.00005297,0.05161955,-0.1409,0.1743,-9.6972,-0.002978,-0.004011,-0.002197,36.5744,0.0310,89,0,0,0.001598,0.001689,-0.030993,0.000230,0.000111,-0.001316,-1.0298,-0.9188,0.3915
12768,11.0,0.001193,0.001043,-0.030919,-0.000810,0.000584,-0.001141,-1.1117,-0.9630,-0.0035,-0.00080722,-0.00065010,-0.00184620,-0.00053026,-0.00008638,0.05165810,-0.1682,0.1858,-9.7229,-0.001605,-0.001014,-0.002033,36.5744,0.0310,90,0,1,0.001605,0.001695,-0.030996,0.000310,0.000130,-0.000802,-1.0297,-0.9190,0.3907
12779,11.0,0.001191,0.001049,-0.030962,0.000194,0.000475,-0.001041,-1.1074,-0.9678,-0.0050,-0.00084494,-0.00060374,-0.00184497,-0.00074396,0.00002180,0.05180673,-0.1600,0.1502,-9.7118,-0.000380,-0.002634,-0.003421,36.5744,0.0310,87,0,0,0.001571,0.001708,-0.031016,0.000201,0.000100,-0.000310,-1.0277,-0.9189,0.3903
12790,11.0,0.001195,0.001055,-0.030980,0.000535,0.000612,-0.000868,-1.1094,-0.9716,-0.0060,-0.00084573,-0.00058771,-0.00184445,-0.00080497,0.00001889,0.05184212,-0.1632,0.2003,-9.7307,-0.004207,-0.004464,-0.002170,36.5744,0.0300,88,0,0,0.001579,0.001716,-0.031018,0.000178,-0.000105,-0.000023,-1.0277,-0.9185,0.4505
12801,11.0,0.001202,0.001071,-0.030987,0.000668,0.002143,-0.000401,-1.1036,-0.9723,-0.0100,-0.00092878,-0.00058697,-0.00184220,-0.00084030,-0.00027675,0.05183664,-0.1609,0.1856,-9.7126,-0.002314,-0.001751,-0.002351,36.5744,0.0300,94,-1,0,0.001586,0.001721,-0.030412,0.000155,0.000018,0.006835,-1.0296,-0.9203,0.4502
12812,11.0,0.001209,0.001088,-0.030450,0.000726,0.001143,0.006370,-1.1073,-0.9737,-0.0090,-0.00088117,-0.00058827,-0.00184346,-0.00087463,-0.00005130,0.04954090,-0.1585,0.1801,-9.7091,-0.000745,-0.003089,-0.003393,36.5744,0.0300,90,0,0,0.001600,0.001757,-0.030277,0.000043,0.000251,0.007476,-1.0295,-0.9211,0.4506
12823,11.0,0.001227,0.001099,-0.030378,0.002265,0.000760,0.006788,-1.1080,-0.9793,-0.0104,-0.00087838,-0.00051391,-0.00184169,-0.00119123,0.00006431,0.04954867,-0.1626,0.1738,-9.7195,-0.002280,-0.000132,-0.000650,36.5744,0.0300,94,0,-1,0.001607,0.001763,-0.030200,0.000007,0.000345,0.007946,-1.0284,-0.9220,0.4493
12834,11.0,0.001256,0.001107,-0.030315,0.002917,0.000678,0.006330,-1.1097,-0.9828,-0.0103,-0.00087490,-0.00049640,-0.00184123,-0.00125687,0.00007756,0.04959500,-0.1409,0.1890,-9.7882,-0.003165,-0.003795,-0.000440,36.5744,0.0300,94,0,-1,0.001637,0.001769,-0.030043,0.000079,0.000374,0.009161,-1.0288,-0.9218,0.4494
12845,11.0,0.001279,0.001114,-0.030112,0.001546,0.000636,0.005701,-1.1140,-0.9803,-0.0071,-0.00086994,-0.00057441,-0.00184368,-0.00100572,0.00007658,0.04897215,-0.1650,0.1949,-9.9692,-0.006893,-0.006752,-0.003043,36.5744,0.0300,90,0,0,0.001674,0.001780,-0.029842,0.000204,0.000707,0.009245,-1.0291,-0.9241,0.4492
12856,11.0,0.001293,0.001120,-0.030052,0.001061,0.000471,0.006610,-1.1142,-0.9785,-0.0073,-0.00088491,-0.00060306,-0.00184397,-0.00089506,0.00001824,0.04900365,-0.1607,0.1475,-9.6674,-0.003087,-0.001456,-0.002321,36.5744,0.0310,90,0,0,0.001682,0.001786,-0.029767,0.000143,0.000785,0.008246,-1.0305,-0.9251,0.4489
12867,11.0,0.001304,0.001125,-0.029978,0.000887,0.000488,0.006819,-1.1126,-0.9792,-0.0059,-0.00090628,-0.00061963,-0.00184412,-0.00087527,0.00005613,0.04900383,-0.1609,0.1717,-9.7392,-0.001762,-0.004189,-0.000283,36.5744,0.0310,91,0,0,0.001696,0.001775,-0.030452,0.000258,0.000611,0.001407,-1.0305,-0.9259,0.4479
12878,11.0,0.001313,0.001121,-0.030474,0.000803,-0.001024,0.000902,-1.1190,-0.9790,-0.0023,-0.00083238,-0.00062554,-0.00184633,-0.00081738,0.00029684,0.05140705,-0.1650,0.1840,-9.6877,-0.001513,-0.001137,-0.001776,36.4581,0.0310,91,1,0,0.001703,0.001782,-0.030404,0.000309,0.000625,0.001962,-1.0304,-0.9262,0.4481
12889,11.0,0.001311,0.001107,-0.030463,-0.000802,-0.001588,0.001045,-1.1212,-0.9729,0.0038,-0.00081892,-0.00071265,-0.00184948,-0.00051275,0.00043495,0.05140429,-0.1630,0.1776,-9.7427,-0.003110,-0.002377,0.000368,36.4581,0.0310,90,1,1,0.001710,0.001764,-0.030382,0.000345,0.000703,0.002329,-1.0294,-0.9270,0.3763
12900,11.0,0.001309,0.001098,-0.030415,0.000145,-0.000313,0.002086,-1.1169,-0.9786,-0.0003,-0.00090316,-0.00066167,-0.00184575,-0.00070725,0.00011526,0.05126172,-0.1711,0.1566,-9.6969,-0.004823,-0.003110,0.000259,36.4581,0.0300,91,0,0,0.001677,0.001729,-0.030092,0.000357,0.000553,0.004987,-1.0302,-0.9267,0.3777
12911,11.0,0.001303,0.001098,-0.030173,-0.001005,0.000237,0.004693,-1.1139,-0.9741,-0.0021,-0.00094673,-0.00072449,-0.00184651,-0.00050340,0.00005380,0.05035336,-0.1637,0.1766,-9.7504,-0.002451,-0.001679,-0.006041,36.4581,0.0300,93,0,1,0.001684,0.001735,-0.030040,0.000306,0.000524,0.005372,-1.0303,-0.9280,0.3791
12922,11.0,0.001289,0.001111,-0.030096,-0.001415,0.001981,0.005161,-1.1058,-0.9725,-0.0055,-0.00104170,-0.00074887,-0.00184461,-0.00040817,-0.00030662,0.05023798,-0.1608,0.1792,-9.7415,-0.000355,-0.001231,-0.002498,36.4581,0.0300,90,-1,1,0.001668,0.001742,-0.029951,0.000224,0.000534,0.005889,-1.0301,-0.9277,0.3779
12933,11.0,0.001293,0.001138,-0.030039,0.001597,0.002661,0.005170,-1.1015,-0.9884,-0.0135,-0.00110705,-0.00059366,-0.00183953,-0.00098827,-0.00037206,0.05024662,-0.1695,0.1605,-9.7562,-0.003911,-0.005657,-0.005724,36.5162,0.0320,90,-1,-1,0.001684,0.001804,-0.031136,0.000107,0.000672,-0.007615,-1.0287,-0.9269,0.3767
12944,11.0,0.001317,0.001159,-0.031068,0.002726,0.001399,-0.007313,-1.1092,-0.9936,-0.0126,-0.00104267,-0.00054089,-0.00183969,-0.00111770,-0.00020402,0.05468171,-0.1627,0.1903,-9.7422,-0.005007,-0.002124,-0.001098,36.5162,0.0320,91,0,-1,0.001716,0.001836,-0.031212,0.000085,0.000712,-0.007646,-1.0288,-0.9297,0.3751
12955,11.0,0.001330,0.001171,-0.031147,0.000010,0.000886,-0.007057,-1.1103,-0.9817,-0.0038,-0.00101875,-0.00069500,-0.00184499,-0.00062633,-0.00010563,0.05467466,-0.1544,0.1877,-9.7290,0.000322,-0.002335,-0.000099,36.5162,0.0290,96,0,1,0.001748,0.001842,-0.031289,0.000246,0.000704,-0.007693,-1.0296,-0.9306,0.3758
12966,11.0,0.001324,0.001170,-0.031212,-0.000915,-0.000793,-0.006610,-1.1188,-0.9768,0.0014,-0.00093651,-0.00075838,-0.00184883,-0.00038849,0.00020720,0.05462877,-0.1379,0.1850,-9.7246,-0.003653,-0.001280,-0.001635,36.5162,0.0290,85,1,1,0.001740,0.001853,-0.029999,-0.000002,0.001119,0.007186,-1.0304,-0.9308,0.3765
12977,11.0,0.001311,0.001158,-0.030034,-0.001352,-0.001366,0.008403,-1.1228,-0.9735,0.0027,-0.00090883,-0.00078474,-0.00185038,-0.00040170,0.00041805,0.04960826,-0.1622,0.1894,-9.7061,-0.003695,0.000840,-0.003184,36.5162,0.0290,85,1,1,0.001724,0.001837,-0.029915,0.000031,0.001143,0.007605,-1.0328,-0.9296,0.3759
12988,11.0,0.001305,0.001151,-0.029931,0.000013,-0.000141,0.008849,-1.1173,-0.9801,-0.0015,-0.00098127,-0.00072111,-0.00184656,-0.00064221,0.00014398,0.04957163,-0.1578,0.1721,-9.7263,-0.001689,-0.003003,-0.000171,36.5162,0.0310,88,0,0,0.001709,0.001820,-0.029836,-0.000081,0.001097,0.008142,-1.0330,-0.9289,0.3739
13000,12.0,0.001308,0.001152,-0.029823,0.000553,0.000332,0.009104,-1.1146,-0.9802,-0.0040,-0.00102293,-0.00071211,-0.00184520,-0.00077436,0.00008607,0.04957251,-0.1518,0.1749,-9.7365,-0.002810,-0.000288,-0.002870,36.4581,0.0310,91,0,0,0.001724,0.001834,-0.030467,-0.000246,0.001066,0.000541,-1.0338,-0.9298,0.3587
13011,11.0,0.001336,0.001157,-0.030399,0.003943,0.000509,0.001746,-1.1157,-0.9946,-0.0105,-0.00103832,-0.00055682,-0.00184011,-0.00132279,-0.00001528,0.05227045,-0.1431,0.1789,-9.7124,-0.004807,-0.002953,-0.001462,36.4581,0.0310,84,0,-2,0.001786,0.001848,-0.030375,-0.000079,0.001036,0.001777,-1.0343,-0.9299,0.3600
13022,11.0,0.001375,0.001163,-0.030378,0.003377,0.000581,0.002044,-1.1164,-0.9929,-0.0096,-0.00104099,-0.00059235,-0.00184104,-0.00122717,-0.00003002,0.05226838,-0.1638,0.1916,-9.7273,-0.002557,-0.002786,-0.002351,36.4581,0.0290,87,0,-1,0.001838,0.001855,-0.029545,0.000173,0.001028,0.011098,-1.0351,-0.9294,0.3600
13033,11.0,0.001393,0.001160,-0.030322,0.000212,-0.000890,0.002627,-1.1231,-0.9784,0.0011,-0.00097129,-0.00075371,-0.00184841,-0.00062095,0.00022981,0.05212938,-0.1638,0.1843,-9.7373,-0.002216,0.000821,-0.002123,36.4581,0.0290,90,1,1,0.001867,0.001860,-0.029433,0.000232,0.001145,0.011366,-1.0351,-0.9300,0.3597
13044,11.0,0.001388,0.001147,-0.029581,-0.000961,-0.001408,0.011059,-1.1270,-0.9743,0.0066,-0.00094677,-0.00081098,-0.00185123,-0.00044544,0.00038238,0.04934079,-0.1681,0.1908,-9.7369,-0.003840,-0.001803,-0.000106,36.4581,0.0290,94,1,1,0.001836,0.001828,-0.029166,0.000029,0.000960,0.012187,-1.0360,-0.9319,0.3586
13055,11.0,0.001384,0.001140,-0.029434,0.000158,-0.000205,0.011462,-1.1216,-0.9796,0.0031,-0.00102349,-0.00076037,-0.00184764,-0.00063590,0.00009452,0.04923753,-0.1582,0.1618,-9.7486,-0.002649,-0.002439,0.000185,36.4581,0.0310,90,0,0,0.001843,0.001834,-0.029043,0.000018,0.000964,0.012328,-1.0360,-0.9326,0.3595
13066,11.0,0.001378,0.001141,-0.029305,-0.001013,0.000326,0.011868,-1.1201,-0.9731,0.0025,-0.00106052,-0.00082836,-0.00184873,-0.00043282,0.00001559,0.04923216,-0.1577,0.1814,-9.7209,-0.004076,0.000050,-0.004808,36.4581,0.0310,91,0,1,0.001850,0.001841,-0.030237,0.000061,0.000865,-0.001421,-1.0357,-0.9328,0.3602
13077,11.0,0.001374,0.001145,-0.030156,0.000120,0.000462,0.000916,-1.1202,-0.9763,-0.0007,-0.00108098,-0.00077506,-0.00184663,-0.00057457,-0.00013160,0.05305298,-0.1629,0.1666,-9.7160,-0.003843,0.001373,-0.002823,36.5162,0.0310,91,0,0,0.001815,0.001879,-0.030249,0.000113,0.000870,-0.000770,-1.0361,-0.9320,0.3590
13089,12.0,0.001388,0.001151,-0.030143,0.002063,0.000490,0.001238,-1.1186,-0.9819,-0.0029,-0.00110905,-0.00069551,-0.00184393,-0.00096798,-0.00008551,0.05306051,-0.1529,0.1669,-9.7276,-0.003168,0.000335,-0.000852,36.5162,0.0290,93,0,-1,0.001822,0.001886,-0.030255,0.000178,0.000878,-0.000509,-1.0341,-0.9331,0.2166
13100,11.0,0.001415,0.001166,-0.030117,0.002737,0.002029,0.001577,-1.1125,-0.9849,-0.0073,-0.00119171,-0.00067142,-0.00184108,-0.00105759,-0.00039988,0.05301057,-0.1523,0.1776,-9.7356,-0.002526,-0.002158,-0.003145,36.5162,0.0290,92,-1,-1,0.001880,0.001899,-0.029401,0.000333,0.000603,0.008136,-1.0338,-0.9337,0.2169
