timestamp_ms,dt_ms,pos_x,pos_y,pos_z,vel_x,vel_y,vel_z,roll_deg,pitch_deg,yaw_deg,gyro_bias_x,gyro_bias_y,gyro_bias_z,accel_bias_x,accel_bias_y,accel_bias_z,raw_accel_x,raw_accel_y,raw_accel_z,raw_gyro_x,raw_gyro_y,raw_gyro_z,raw_baro_alt,raw_tof,raw_flow_squal,raw_flow_dx,raw_flow_dy,dev_pos_x,dev_pos_y,dev_pos_z,dev_vel_x,dev_vel_y,dev_vel_z,dev_roll_deg,dev_pitch_deg,dev_yaw_deg
11023,10.0,0.000004,-0.000010,-0.032968,-0.000393,-0.000196,0.000741,-0.0016,-0.0011,-0.0002,0.00000000,0.00000000,-0.00184470,-0.00001376,-0.00008667,0.00000000,-0.1566,0.1526,-9.7277,-0.002055,-0.001463,-0.002257,36.4687,0.0330,88,1,0,0.000158,0.000221,-0.032411,-0.000184,0.002859,-0.008445,-0.9492,-0.8688,0.2740
11035,12.0,-0.000017,-0.000056,-0.032953,-0.001254,-0.002097,0.001652,-0.4991,-0.4302,-0.0001,0.00000190,0.00000165,-0.00184470,-0.00001321,-0.00008338,0.00000000,-0.1499,0.1733,-9.7293,-0.002773,-0.000891,-0.004440,36.4687,0.0330,95,3,1,0.000166,0.000205,-0.032492,-0.000255,0.002560,-0.007706,-0.9498,-0.8688,0.2739
11046,11.0,-0.000012,-0.000059,-0.031848,-0.001503,-0.000745,0.048183,-0.4992,-0.4316,-0.0008,0.00000190,0.00000165,-0.00184470,-0.00001520,-0.00008465,-0.00002874,-0.1636,0.1642,-9.7313,-0.000983,-0.001629,-0.002837,36.4687,0.0310,93,0,0,0.000106,0.000120,-0.032585,-0.000696,0.002076,-0.005735,-0.9524,-0.8682,0.2740
11057,11.0,-0.000013,-0.000051,-0.031001,-0.001196,-0.000317,0.058001,-0.6586,-0.6039,-0.0001,0.00000370,0.00000360,-0.00184470,-0.00001664,-0.00008643,-0.00003653,-0.1633,0.1679,-9.7409,-0.002868,-0.000320,-0.003564,36.4687,0.0310,93,0,0,0.000113,0.000127,-0.031521,-0.000669,0.002049,0.006889,-0.9544,-0.8739,0.2740
11068,11.0,-0.000006,-0.000026,-0.030302,-0.001376,0.000857,0.060083,-0.6588,-0.6061,-0.0001,0.00000369,0.00000360,-0.00184470,-0.00001954,-0.00008930,-0.00005721,-0.1579,0.1768,-9.7532,-0.001261,-0.002716,-0.001708,36.4687,0.0310,81,-1,0,0.000126,0.000167,-0.031368,-0.000691,0.002075,0.008419,-0.9612,-0.8782,0.2735
11079,11.0,0.000021,0.000009,-0.029637,-0.000779,0.001307,0.060921,-0.7635,-0.6901,0.0020,0.00000602,0.00000546,-0.00184470,-0.00002468,-0.00009377,-0.00005721,-0.1606,0.1843,-9.7302,-0.004032,-0.002243,-0.000136,36.4687,0.0320,89,-1,-1,0.000133,0.000197,-0.031239,-0.000738,0.002293,0.009565,-0.9601,-0.8776,0.2733
11090,11.0,0.000054,0.000015,-0.031443,-0.000692,0.001785,0.016918,-0.7678,-0.6941,0.0028,0.00000601,0.00000546,-0.00184470,-0.00002071,-0.00010427,0.00142420,-0.1637,0.1887,-9.7114,-0.003170,-0.001770,-0.000552,36.4687,0.0320,91,0,-1,0.000164,0.000230,-0.031667,-0.000542,0.002396,0.004564,-0.9669,-0.8839,0.1861
11101,11.0,0.000083,0.000051,-0.031253,-0.000308,0.002024,0.017755,-0.8255,-0.7606,0.0023,0.00000808,0.00000791,-0.00184470,-0.00002564,-0.00010862,0.00142410,-0.1752,0.1796,-9.7288,-0.004902,-0.001027,-0.003950,36.4687,0.0320,94,-1,-1,0.000227,0.000245,-0.031531,-0.000436,0.002450,0.006528,-0.9706,-0.8898,0.1873
11112,11.0,0.000091,0.000059,-0.031039,-0.000482,0.002276,0.018785,-0.8286,-0.7610,0.0023,0.00000809,0.00000792,-0.00184470,-0.00002856,-0.00010492,0.00140003,-0.1580,0.1795,-9.7321,-0.004225,-0.000266,-0.001807,36.5268,0.0310,87,0,0,0.000260,0.000277,-0.031461,-0.000480,0.002568,0.007309,-0.9711,-0.8903,0.1863
11123,11.0,0.000096,0.000069,-0.030945,-0.000412,0.002168,0.018029,-0.8615,-0.7942,0.0013,0.00000980,0.00000965,-0.00184470,-0.00002698,-0.00010579,0.00162636,-0.1626,0.1737,-9.7267,-0.003448,-0.003318,-0.004178,36.5268,0.0310,80,0,0,0.000274,0.000292,-0.031028,-0.000489,0.002292,0.011679,-0.9733,-0.8938,0.1866
11134,11.0,0.000104,0.000075,-0.030734,-0.000379,0.002387,0.018966,-0.8635,-0.7974,0.0008,0.00000981,0.00000966,-0.00184470,-0.00003013,-0.00010087,0.00160347,-0.1416,0.1817,-9.7300,-0.002497,-0.004544,-0.002733,36.5268,0.0310,90,0,0,0.000280,0.000299,-0.030900,-0.000475,0.002254,0.012557,-0.9773,-0.8999,0.1864
11145,11.0,0.000058,0.000085,-0.030520,-0.000740,0.002289,0.019872,-0.8844,-0.8191,0.0020,0.00001129,0.00001136,-0.00184470,-0.00001739,-0.00009857,0.00160321,-0.1630,0.1708,-9.7230,-0.003050,-0.001391,-0.000811,36.5268,0.0320,84,0,2,0.000287,0.000306,-0.030770,-0.000373,0.002322,0.013334,-0.9774,-0.9012,0.1864
11156,11.0,0.000066,0.000094,-0.031355,-0.000841,0.002238,0.007801,-0.8887,-0.8225,0.0008,0.00001129,0.00001136,-0.00184470,0.00002679,-0.00014767,0.00583490,-0.1626,0.1596,-9.7401,-0.003113,-0.001969,-0.003773,36.5268,0.0320,91,0,0,0.000251,0.000320,-0.031401,-0.000467,0.002319,0.005507,-0.9799,-0.9038,0.1877
11167,11.0,0.000072,0.000104,-0.031265,-0.000757,0.002163,0.008619,-0.9024,-0.8381,0.0007,0.00001252,0.00001304,-0.00184470,0.00002480,-0.00014525,0.00583469,-0.1627,0.1685,-9.7269,-0.002984,0.000796,-0.002456,36.5268,0.0320,89,0,0,0.000258,0.000327,-0.031342,-0.000448,0.002260,0.006158,-0.9794,-0.9072,0.1873
11178,11.0,0.000081,0.000111,-0.031156,-0.000871,0.002335,0.009645,-0.9050,-0.8395,0.0013,0.00001254,0.00001306,-0.00184470,0.00001852,-0.00013888,0.00578158,-0.1635,0.1795,-9.7177,-0.003476,-0.001675,-0.000948,36.5268,0.0320,89,0,0,0.000266,0.000335,-0.031267,-0.000519,0.002204,0.006991,-0.9806,-0.9066,0.1870
11189,11.0,0.000088,0.000095,-0.031597,-0.000765,0.002078,0.003982,-0.9168,-0.8412,0.0012,0.00001371,0.00001301,-0.00184470,0.00005737,-0.00017543,0.00929696,-0.1433,0.1685,-9.7321,-0.002290,-0.001165,-0.002104,36.5268,0.0320,85,1,0,0.000281,0.000351,-0.031652,-0.000570,0.002106,0.003066,-0.9868,-0.9070,0.3870
11201,12.0,0.000068,0.000105,-0.031538,-0.000823,0.002175,0.004793,-0.9197,-0.8414,-0.0004,0.00001373,0.00001300,-0.00184470,0.00006047,-0.00016905,0.00924696,-0.1426,0.1719,-9.7372,-0.003704,-0.000712,-0.004264,36.5268,0.0320,93,0,1,0.000288,0.000334,-0.031610,-0.000515,0.001985,0.003799,-0.9889,-0.9049,0.3863
11212,11.0,0.000075,0.000115,-0.031481,-0.000752,0.002134,0.005687,-0.9395,-0.8484,-0.0005,0.00001699,0.00001396,-0.00184470,0.00005641,-0.00017066,0.00924652,-0.1538,0.1905,-9.7163,-0.001137,-0.001745,-0.002131,36.5268,0.0330,89,0,0,0.000270,0.000341,-0.031569,-0.000471,0.002054,0.004401,-0.9901,-0.9035,0.3850
11223,11.0,0.000084,0.000121,-0.032305,-0.000850,0.002443,-0.003867,-0.9422,-0.8521,-0.0000,0.00001700,0.00001396,-0.00184470,0.00015006,-0.00027250,0.01673107,-0.1640,0.1996,-9.7186,-0.001308,-0.003288,-0.001210,36.5268,0.0330,95,0,0,0.000286,0.000357,-0.032452,-0.000481,0.001998,-0.004315,-0.9952,-0.9026,0.3845
11234,11.0,0.000147,0.000157,-0.032344,-0.000483,0.002512,-0.003249,-0.9461,-0.8560,0.0015,0.00001721,0.00001429,-0.00184469,0.00012147,-0.00027674,0.01673130,-0.1483,0.1638,-9.7346,-0.004831,-0.002037,0.000968,36.5268,0.0330,83,-1,-2,0.000293,0.000365,-0.032492,-0.000477,0.001999,-0.003589,-0.9986,-0.9056,0.3852
11245,11.0,0.000209,0.000165,-0.032367,-0.000267,0.002580,-0.002413,-0.9491,-0.8579,0.0024,0.00001724,0.00001440,-0.00184469,0.00009183,-0.00026686,0.01664983,-0.1573,0.1763,-9.7238,-0.003944,-0.000632,0.000001,36.5268,0.0320,90,0,-2,0.000407,0.000406,-0.032208,-0.000076,0.001993,0.001461,-0.9968,-0.9105,0.3841
11256,11.0,0.000217,0.000173,-0.032168,-0.000239,0.002506,0.000918,-0.9526,-0.8632,0.0026,0.00001738,0.00001528,-0.00184469,0.00005940,-0.00022557,0.01451074,-0.1543,0.1639,-9.7267,-0.004655,-0.003028,-0.001871,36.4343,0.0320,93,0,0,0.000415,0.000413,-0.032155,-0.000056,0.002010,0.002587,-0.9978,-0.9102,0.3849
11267,11.0,0.000198,0.000155,-0.032121,-0.000509,0.002363,0.002043,-0.9536,-0.8642,0.0020,0.00001747,0.00001525,-0.00184470,0.00006104,-0.00019912,0.01416736,-0.1649,0.1690,-9.7276,-0.000073,-0.002130,-0.003092,36.4343,0.0320,85,1,1,0.000405,0.000426,-0.032089,-0.000212,0.002228,0.003961,-0.9978,-0.9100,0.3840
11278,11.0,0.000178,0.000163,-0.032094,-0.000604,0.002300,0.002884,-0.9549,-0.8693,0.0015,0.00001737,0.00001650,-0.00184470,0.00007171,-0.00019061,0.01416720,-0.1579,0.1625,-9.7168,-0.002148,-0.001939,-0.003100,36.4343,0.0340,94,0,1,0.000387,0.000408,-0.033193,-0.000287,0.002113,-0.008228,-0.9994,-0.9097,0.3839
11290,12.0,0.000157,0.000173,-0.033114,-0.000686,0.002364,-0.008821,-0.9576,-0.8720,0.0032,0.00001745,0.00001649,-0.00184471,0.00023374,-0.00035185,0.02491753,-0.1508,0.1764,-9.7171,-0.001774,-0.003268,0.000224,36.4343,0.0340,94,0,1,0.000368,0.000415,-0.033272,-0.000359,0.002034,-0.007592,-0.9990,-0.9098,0.3479
11301,11.0,0.000193,0.000212,-0.033208,-0.000504,0.002449,-0.008243,-0.9649,-0.8745,0.0016,0.00001962,0.00001704,-0.00184470,0.00021285,-0.00036478,0.02491721,-0.1525,0.1795,-9.7297,-0.002285,-0.000412,-0.003847,36.4343,0.0340,88,-1,-1,0.000331,0.000430,-0.033361,-0.000475,0.002138,-0.005806,-0.9989,-0.9072,0.3499
11312,11.0,0.000202,0.000219,-0.033251,-0.000619,0.002572,-0.007017,-0.9666,-0.8760,0.0016,0.00001967,0.00001708,-0.00184470,0.00019800,-0.00034663,0.02445199,-0.1651,0.1830,-9.7200,-0.002014,-0.001937,-0.001915,36.4343,0.0330,88,0,0,0.000364,0.000464,-0.033160,-0.000346,0.002210,-0.002407,-0.9998,-0.9064,0.3484
11323,11.0,0.000210,0.000230,-0.033139,-0.000573,0.002548,-0.004088,-0.9790,-0.8765,0.0015,0.00002399,0.00001753,-0.00184469,0.00016365,-0.00032069,0.02257436,-0.1526,0.1937,-9.7165,-0.002817,0.001172,-0.001932,36.4343,0.0330,93,0,0,0.000379,0.000479,-0.033156,-0.000366,0.002314,-0.000704,-1.0037,-0.9074,0.3481
11334,11.0,0.000218,0.000237,-0.033164,-0.000455,0.002720,-0.003223,-0.9812,-0.8769,0.0011,0.00002406,0.00001757,-0.00184470,0.00015358,-0.00030598,0.02240126,-0.1435,0.1902,-9.7245,-0.002876,-0.000095,-0.002425,36.4924,0.0330,90,0,0,0.000387,0.000486,-0.033133,-0.000344,0.002471,0.000219,-1.0040,-0.9065,0.3483
11345,11.0,0.000226,0.000189,-0.033195,-0.000441,0.002428,-0.002511,-0.9873,-0.8854,0.0021,0.00002605,0.00002060,-0.00184471,0.00015702,-0.00026817,0.02240114,-0.1687,0.1788,-9.7198,-0.001163,-0.003135,-0.001076,36.4924,0.0340,93,2,0,0.000395,0.000494,-0.033128,-0.000284,0.002464,0.000802,-1.0071,-0.9045,0.3478
11356,11.0,0.000234,0.000197,-0.033635,-0.000367,0.002336,-0.006976,-0.9891,-0.8883,0.0010,0.00002617,0.00002068,-0.00184471,0.00021175,-0.00032626,0.02650844,-0.1492,0.1669,-9.7417,-0.001880,-0.003896,-0.003771,36.4924,0.0340,89,0,0,0.000411,0.000456,-0.033714,-0.000340,0.002293,-0.003965,-1.0102,-0.9065,0.3482
11367,11.0,0.000242,0.000234,-0.033710,-0.000342,0.002408,-0.006658,-0.9941,-0.8923,0.0011,0.00002812,0.00002251,-0.00184471,0.00021148,-0.00034039,0.02650779,-0.1624,0.1810,-9.7516,-0.002519,-0.000661,-0.001680,36.4924,0.0330,86,-1,0,0.000392,0.000464,-0.033752,-0.000373,0.002104,-0.003647,-1.0092,-0.9074,0.3478
11379,12.0,0.000250,0.000244,-0.033763,-0.000417,0.002504,-0.005743,-0.9945,-0.8949,0.0023,0.00002820,0.00002256,-0.00184471,0.00020021,-0.00032447,0.02628582,-0.1622,0.1835,-9.7270,0.000164,-0.003527,-0.000176,36.4924,0.0330,82,0,0,0.000406,0.000530,-0.033308,-0.000272,0.002315,0.002181,-1.0091,-0.9074,0.3477
11391,12.0,0.000258,0.000255,-0.033355,-0.000384,0.002508,0.000508,-1.0036,-0.8965,0.0026,0.00003231,0.00002250,-0.00184470,0.00012315,-0.00025259,0.02181754,-0.1531,0.1925,-9.7246,-0.003293,-0.002177,-0.001236,36.5849,0.0330,86,0,0,0.000414,0.000538,-0.033283,-0.000308,0.002234,0.002710,-1.0099,-0.9081,0.4148
11402,11.0,0.000267,0.000291,-0.033358,-0.000420,0.002603,0.000859,-1.0073,-0.8980,0.0029,0.00003227,0.00002256,-0.00184470,0.00011616,-0.00025941,0.02191805,-0.1608,0.1765,-9.7418,-0.006164,-0.001976,-0.001210,36.5849,0.0330,91,-1,0,0.000421,0.000545,-0.033269,-0.000258,0.002362,0.003085,-1.0107,-0.9082,0.4150
11413,11.0,0.000275,0.000329,-0.033345,-0.000399,0.002688,0.001459,-1.0154,-0.9011,0.0025,0.00003658,0.00002485,-0.00184469,0.00011731,-0.00028318,0.02191700,-0.1650,0.1947,-9.7302,-0.003144,0.000678,-0.002243,36.5849,0.0330,94,-1,0,0.000437,0.000610,-0.033074,-0.000400,0.002744,0.005526,-1.0147,-0.9107,0.4134
11424,11.0,0.000284,0.000309,-0.033147,-0.000502,0.002598,0.004236,-1.0185,-0.9010,0.0015,0.00003679,0.00002490,-0.00184470,0.00008270,-0.00022276,0.02029900,-0.1674,0.1810,-9.7234,-0.003462,0.000610,-0.003711,36.5849,0.0330,90,1,0,0.000444,0.000644,-0.033016,-0.000421,0.002844,0.006127,-1.0175,-0.9119,0.4129
11435,11.0,0.000293,0.000289,-0.033097,-0.000459,0.002406,0.004872,-1.0177,-0.9015,0.0012,0.00003321,0.00002448,-0.00184471,0.00007124,-0.00017388,0.02030030,-0.1521,0.1566,-9.7294,-0.005090,-0.001248,-0.002866,36.5849,0.0330,88,1,0,0.000452,0.000626,-0.032951,-0.000567,0.002781,0.006767,-1.0183,-0.9119,0.4129
11446,11.0,0.000301,0.000296,-0.033053,-0.000440,0.002568,0.005361,-1.0198,-0.9034,0.0018,0.00003333,0.00002456,-0.00184471,0.00006408,-0.00016208,0.02042437,-0.1562,0.1947,-9.7272,-0.002521,-0.002732,-0.000922,36.5849,0.0330,87,0,0,0.000443,0.000565,-0.032880,-0.000748,0.002549,0.007348,-1.0182,-0.9102,0.4105
11457,11.0,0.000309,0.000304,-0.032990,-0.000428,0.002524,0.006154,-1.0239,-0.9077,0.0008,0.00003432,0.00002694,-0.00184472,0.00006555,-0.00015238,0.02042745,-0.1654,0.1790,-9.7140,-0.004315,-0.002123,-0.003656,36.5849,0.0330,87,0,0,0.000450,0.000572,-0.032816,-0.000718,0.002582,0.007809,-1.0214,-0.9110,0.4107
11468,11.0,0.000374,0.000366,-0.032929,-0.000142,0.003029,0.006751,-1.0247,-0.9112,-0.0009,0.00003412,0.00002736,-0.00184468,0.00001952,-0.00017645,0.02052060,-0.1509,0.2091,-9.7205,-0.002269,-0.003320,-0.003604,36.5849,0.0330,89,-2,-2,0.000465,0.000587,-0.032648,-0.000698,0.002533,0.009061,-1.0213,-0.9134,0.4112
11479,11.0,0.000439,0.000403,-0.032851,0.000095,0.003074,0.007481,-1.0281,-0.9116,0.0012,0.00003570,0.00002639,-0.00184464,-0.00003349,-0.00018640,0.02052111,-0.1502,0.1827,-9.7202,-0.002818,-0.000953,0.002530,36.6087,0.0330,87,-1,-2,0.000523,0.000644,-0.032849,-0.000441,0.002961,0.006493,-1.0208,-0.9153,0.4103
11490,11.0,0.000448,0.000410,-0.032903,0.000008,0.003224,0.006381,-1.0298,-0.9133,0.0032,0.00003592,0.00002647,-0.00184465,-0.00002090,-0.00018759,0.02168890,-0.1660,0.1977,-9.7385,-0.001760,-0.002493,0.001033,36.6087,0.0330,88,0,0,0.000583,0.000679,-0.032781,-0.000322,0.002956,0.007163,-1.0247,-0.9130,0.5643
11501,11.0,0.000456,0.000419,-0.032830,0.000030,0.003149,0.006870,-1.0317,-0.9145,0.0023,0.00003696,0.00002620,-0.00184466,-0.00002842,-0.00017239,0.02168917,-0.1553,0.1800,-9.7410,-0.000887,-0.002110,-0.003433,36.6087,0.0330,99,0,0,0.000597,0.000694,-0.032653,-0.000260,0.003056,0.007987,-1.0263,-0.9131,0.5670
11511,10.0,0.000436,0.000425,-0.032782,0.000010,0.003016,0.006871,-1.0335,-0.9153,0.0027,0.00003715,0.00002606,-0.00184468,-0.00001041,-0.00015733,0.02187844,-0.1509,0.1716,-9.7587,-0.002179,-0.002052,-0.001721,36.6087,0.0330,91,0,1,0.000605,0.000702,-0.032827,-0.000331,0.002975,0.005701,-1.0262,-0.9132,0.5670
11522,11.0,0.000445,0.000433,-0.032859,0.000057,0.002953,0.005778,-1.0355,-0.9140,0.0028,0.00003803,0.00002269,-0.00184467,-0.00001277,-0.00016625,0.02318477,-0.1432,0.1797,-9.7150,-0.001577,-0.002421,-0.001421,36.6087,0.0330,90,0,0,0.000595,0.000717,-0.032727,-0.000380,0.002816,0.006236,-1.0265,-0.9135,0.5680
11533,11.0,0.000453,0.000414,-0.032792,0.000159,0.002668,0.006440,-1.0371,-0.9161,0.0029,0.00003843,0.00002274,-0.00184469,-0.00001777,-0.00012841,0.02318917,-0.1484,0.1663,-9.7236,-0.000895,-0.003148,-0.002282,36.5506,0.0330,94,1,0,0.000602,0.000699,-0.032663,-0.000333,0.002661,0.006784,-1.0257,-0.9136,0.5679
11544,11.0,0.000434,0.000422,-0.032720,0.000184,0.002629,0.006755,-1.0399,-0.9108,0.0025,0.00004145,0.00001152,-0.00184468,-0.00005823,-0.00012650,0.02319013,-0.1151,0.1885,-9.7558,-0.000276,-0.005901,-0.001609,36.5506,0.0330,89,0,1,0.000610,0.000681,-0.032832,-0.000290,0.002489,0.004694,-1.0251,-0.9145,0.5678
11555,11.0,0.000415,0.000432,-0.032832,-0.000020,0.002406,0.005560,-1.0408,-0.9107,-0.0003,0.00004165,0.00001135,-0.00184470,-0.00001762,-0.00014142,0.02474766,-0.1665,0.1616,-9.6847,-0.000982,-0.000414,-0.006806,36.5506,0.0330,92,0,1,0.000574,0.000696,-0.032732,-0.000413,0.002431,0.005440,-1.0282,-0.9122,0.5666
11566,11.0,0.000368,0.000439,-0.032767,-0.000145,0.002353,0.006234,-1.0417,-0.9089,0.0005,0.00004141,0.00000578,-0.00184472,-0.00000816,-0.00012492,0.02474805,-0.1373,0.1769,-9.7214,-0.001261,-0.004415,-0.000900,36.5506,0.0330,89,0,2,0.000582,0.000704,-0.032673,-0.000474,0.002356,0.006190,-1.0277,-0.9139,0.5648
11577,11.0,0.000318,0.000448,-0.032694,-0.000204,0.002509,0.007182,-1.0438,-0.9074,0.0004,0.00004159,0.00000533,-0.00184476,0.00002959,-0.00011055,0.02475282,-0.1444,0.1966,-9.6953,-0.002756,0.001088,-0.002874,36.5506,0.0340,89,0,2,0.000537,0.000710,-0.032610,-0.000497,0.002354,0.006726,-1.0273,-0.9147,0.5654
11588,11.0,0.000327,0.000457,-0.033368,-0.000167,0.002493,-0.000861,-1.0467,-0.9066,-0.0024,0.00004451,0.00000328,-0.00184476,0.00010605,-0.00022048,0.03071833,-0.1479,0.1881,-9.6983,-0.001365,-0.000839,-0.005939,36.5506,0.0340,89,0,0,0.000553,0.000725,-0.033509,-0.000645,0.002537,-0.002228,-1.0295,-0.9162,0.4459
11599,11.0,0.000361,0.000466,-0.033375,0.000506,0.002499,-0.000316,-1.0484,-0.9071,-0.0016,0.00004469,0.00000361,-0.00184475,0.00007998,-0.00020566,0.03072119,-0.1034,0.1844,-9.7273,-0.002090,0.000116,-0.000334,36.5506,0.0340,94,0,-1,0.000561,0.000734,-0.033528,-0.000620,0.002552,-0.001653,-1.0302,-0.9163,0.4436
11610,11.0,0.000370,0.000474,-0.033377,0.000553,0.002381,0.000078,-1.0464,-0.9051,-0.0011,0.00003848,-0.00000074,-0.00184476,0.00005390,-0.00015608,0.03072289,-0.1404,0.1578,-9.7411,-0.002487,-0.000980,-0.001286,36.4924,0.0330,92,0,0,0.000593,0.000742,-0.033543,-0.000151,0.002622,-0.001202,-1.0301,-0.9157,0.4438
11621,11.0,0.000378,0.000482,-0.033151,0.000840,0.002279,0.002965,-1.0486,-0.9064,-0.0013,0.00003863,-0.00000070,-0.00184476,0.00002686,-0.00011023,0.02900603,-0.1286,0.1747,-9.7543,-0.003078,-0.001989,-0.002440,36.4924,0.0330,94,0,0,0.000608,0.000757,-0.033162,-0.000177,0.002457,0.003465,-1.0288,-0.9158,0.4427
11632,11.0,0.000386,0.000491,-0.033114,0.000852,0.002246,0.003773,-1.0495,-0.9059,-0.0002,0.00003938,-0.00000354,-0.00184476,0.00001185,-0.00009989,0.02900646,-0.1460,0.1815,-9.7048,-0.000317,-0.001868,0.000094,36.4924,0.0330,92,0,0,0.000616,0.000765,-0.033125,-0.000065,0.002404,0.003770,-1.0293,-0.9144,0.4423
11643,11.0,0.000423,0.000472,-0.033048,0.000932,0.002074,0.004643,-1.0520,-0.9059,-0.0000,0.00003988,-0.00000322,-0.00184477,-0.00001297,-0.00006177,0.02884118,-0.1553,0.1761,-9.7226,-0.002866,0.000731,-0.001701,36.4924,0.0330,86,1,-1,0.000623,0.000772,-0.033058,-0.000069,0.002494,0.004567,-1.0284,-0.9146,0.4440
11654,11.0,0.000432,0.000480,-0.032992,0.000936,0.002026,0.005219,-1.0537,-0.9065,0.0010,0.00003878,-0.00000516,-0.00184477,-0.00002274,-0.00004236,0.02882900,-0.1492,0.1764,-9.7279,-0.003322,-0.002669,-0.000381,36.4924,0.0330,87,0,0,0.000665,0.000763,-0.032927,0.000012,0.002106,0.005781,-1.0301,-0.9148,0.4437
11665,11.0,0.000441,0.000488,-0.032915,0.000824,0.001967,0.006053,-1.0548,-0.9085,0.0005,0.00003895,-0.00000516,-0.00184478,-0.00002430,-0.00002848,0.02870358,-0.1643,0.1782,-9.7204,-0.001303,-0.003203,-0.002779,36.4924,0.0330,90,0,0,0.000672,0.000770,-0.032866,0.000017,0.002059,0.006283,-1.0305,-0.9151,0.4434
11676,11.0,0.000477,0.000523,-0.032845,0.000899,0.002056,0.006532,-1.0586,-0.9111,-0.0004,0.00004171,-0.00000457,-0.00184475,-0.00004473,-0.00005553,0.02870330,-0.1567,0.1900,-9.7346,-0.004131,-0.003155,-0.002657,36.4924,0.0320,89,-1,-1,0.000680,0.000777,-0.032801,0.000035,0.002089,0.006829,-1.0310,-0.9160,0.4427
11687,11.0,0.000458,0.000531,-0.032330,0.000888,0.002018,0.012270,-1.0590,-0.9120,0.0031,0.00004186,-0.00000485,-0.00184477,-0.00007144,0.00001727,0.02546015,-0.1478,0.1815,-9.7290,-0.000041,-0.002236,0.003117,36.4924,0.0320,84,0,1,0.000694,0.000840,-0.032146,0.000132,0.002294,0.012818,-1.0300,-0.9179,0.3326
11698,11.0,0.000466,0.000512,-0.032192,0.000860,0.001951,0.012839,-1.0644,-0.9132,0.0036,0.00004721,-0.00000356,-0.00184479,-0.00006312,0.00002431,0.02545989,-0.1602,0.1961,-9.7295,-0.003965,-0.000961,-0.001280,36.4924,0.0320,84,1,0,0.000659,0.000854,-0.031857,0.000043,0.002404,0.014084,-1.0303,-0.9172,0.3345
11709,11.0,0.000475,0.000522,-0.032026,0.000781,0.001600,0.013717,-1.0667,-0.9150,0.0027,0.00004735,-0.00000356,-0.00184480,-0.00006569,0.00003560,0.02530375,-0.1628,0.1523,-9.7253,-0.003411,-0.002754,-0.003419,36.4924,0.0330,90,0,0,0.000666,0.000836,-0.032480,0.000049,0.002323,0.006010,-1.0321,-0.9170,0.3349
11720,11.0,0.000484,0.000501,-0.032486,0.000751,0.001463,0.006859,-1.0683,-0.9168,0.0019,0.00004544,-0.00000212,-0.00184484,0.00001265,-0.00000199,0.02972494,-0.1613,0.1758,-9.7489,-0.003380,-0.002042,-0.004033,36.4924,0.0330,90,1,0,0.000674,0.000844,-0.032401,0.000000,0.002074,0.006641,-1.0323,-0.9177,0.3343
11731,11.0,0.000493,0.000509,-0.032392,0.000690,0.001475,0.007629,-1.0709,-0.9176,0.0014,0.00004556,-0.00000210,-0.00184484,0.00000980,0.00000716,0.02960575,-0.1620,0.1854,-9.7250,-0.003943,-0.001125,-0.002712,36.4924,0.0330,86,0,0,0.000690,0.000833,-0.032261,-0.000080,0.001982,0.007479,-1.0323,-0.9189,0.3331
11742,11.0,0.000502,0.000545,-0.032303,0.000727,0.001503,0.008401,-1.0702,-0.9159,0.0029,0.00004070,-0.00000630,-0.00184483,-0.00001503,0.00001736,0.02960652,-0.1452,0.1707,-9.7077,-0.002197,-0.000051,0.000869,36.4924,0.0320,89,-1,0,0.000698,0.000841,-0.032054,-0.000086,0.001958,0.009432,-1.0336,-0.9187,0.3327
11753,11.0,0.000510,0.000552,-0.032069,0.000752,0.001417,0.010448,-1.0708,-0.9184,0.0014,0.00004083,-0.00000630,-0.00184483,-0.00003077,0.00004313,0.02861908,-0.1541,0.1773,-9.7409,-0.000714,-0.003940,-0.004366,36.4581,0.0320,89,0,0,0.000704,0.000873,-0.031957,0.000003,0.001964,0.010054,-1.0334,-0.9175,0.3336
11764,11.0,0.000518,0.000588,-0.031951,0.000689,0.001392,0.010988,-1.0687,-0.9214,0.0026,0.00003133,-0.00000154,-0.00184487,-0.00000384,0.00007874,0.02861952,-0.1705,0.1584,-9.7296,-0.002599,-0.001900,-0.001083,36.4581,0.0330,89,-1,0,0.000719,0.000913,-0.031710,0.000047,0.001857,0.011219,-1.0326,-0.9178,0.3337
11775,11.0,0.000557,0.000625,-0.031792,0.000421,0.001325,0.012190,-1.0699,-0.9226,0.0015,0.00003096,-0.00000099,-0.00184482,-0.00003553,0.00006437,0.02837803,-0.1907,0.1689,-9.7060,-0.002461,-0.001110,-0.002761,36.4581,0.0330,88,-1,-1,0.000752,0.000946,-0.032411,0.000087,0.001860,0.002652,-1.0315,-0.9189,0.3340
11786,11.0,0.000565,0.000633,-0.032387,0.000428,0.001265,0.004228,-1.0692,-0.9236,0.0007,0.00002594,-0.00000172,-0.00184483,0.00003800,0.00000372,0.03345358,-0.1559,0.1697,-9.7193,-0.001735,-0.002059,-0.003513,36.4581,0.0330,85,0,0,0.000786,0.000980,-0.032381,-0.000101,0.001875,0.003267,-1.0311,-0.9189,0.3335
11797,11.0,0.000574,0.000641,-0.032313,0.000391,0.001241,0.004969,-1.0720,-0.9244,0.0010,0.00002604,-0.00000164,-0.00184483,0.00003123,0.00001205,0.03326929,-0.1621,0.1818,-9.7348,-0.004369,-0.001201,-0.001488,36.4581,0.0330,93,0,0,0.000802,0.001021,-0.032263,-0.000165,0.001916,0.004667,-1.0330,-0.9179,0.5045
11808,11.0,0.000582,0.000649,-0.032256,0.000420,0.001267,0.005380,-1.0742,-0.9251,0.0013,0.00002925,-0.00000378,-0.00184481,0.00001509,-0.00000078,0.03326925,-0.1528,0.1917,-9.7363,-0.001533,-0.002252,-0.000807,36.4343,0.0320,91,0,0,0.000810,0.001028,-0.032080,-0.000162,0.001911,0.006606,-1.0349,-0.9181,0.5045
11819,11.0,0.000590,0.000630,-0.032057,0.000579,0.000917,0.007527,-1.0782,-0.9260,0.0015,0.00002983,-0.00000377,-0.00184484,-0.00000202,0.00004274,0.03234258,-0.1437,0.1602,-9.7251,-0.005601,-0.001343,-0.002002,36.4343,0.0320,93,1,0,0.000824,0.001043,-0.031902,-0.000023,0.001958,0.007827,-1.0360,-0.9165,0.5053
11831,12.0,0.000599,0.000612,-0.031965,0.000490,0.000882,0.007716,-1.0822,-0.9290,0.0009,0.00003417,0.00000287,-0.00184488,0.00003436,0.00004595,0.03234192,-0.1754,0.1946,-9.7585,-0.003497,-0.001149,-0.003382,36.4343,0.0320,85,1,0,0.000831,0.001025,-0.031822,0.000105,0.001794,0.008182,-1.0370,-0.9165,0.5054
11842,11.0,0.000607,0.000591,-0.031834,0.000606,0.000777,0.008787,-1.0836,-0.9307,0.0016,0.00003477,0.00000290,-0.00184490,0.00002777,0.00007716,0.03204285,-0.1482,0.1835,-9.7252,-0.001475,-0.002770,-0.001130,36.4343,0.0330,91,1,0,0.000839,0.001007,-0.031671,0.000055,0.001779,0.009125,-1.0391,-0.9178,0.5046
11853,11.0,0.000616,0.000600,-0.032431,0.000746,0.000825,0.000843,-1.0875,-0.9268,0.0002,0.00003769,-0.00000884,-0.00184483,0.00003264,-0.00002716,0.03664756,-0.1299,0.1934,-9.7588,-0.004853,0.000520,-0.002380,36.4343,0.0330,89,0,0,0.000854,0.000996,-0.032459,0.000173,0.001714,0.000552,-1.0397,-0.9185,0.5036
11864,11.0,0.000568,0.000579,-0.032386,0.000525,0.000807,0.001670,-1.0886,-0.9285,-0.0004,0.00003832,-0.00000998,-0.00184491,0.00007601,0.00000309,0.03642223,-0.1621,0.1927,-9.7313,-0.001072,-0.003871,-0.004060,36.4343,0.0330,93,1,2,0.000861,0.001003,-0.032453,0.000370,0.001821,0.000686,-1.0411,-0.9177,0.5033
11875,11.0,0.000605,0.000586,-0.032365,0.000592,0.000794,0.002243,-1.0890,-0.9312,-0.0001,0.00003648,-0.00000789,-0.00184489,0.00005809,0.00001524,0.03642273,-0.1628,0.1820,-9.7184,-0.001432,-0.002979,-0.001369,36.4343,0.0330,92,0,-1,0.000851,0.000992,-0.032740,0.000374,0.001816,-0.001746,-1.0430,-0.9186,0.5029
11886,11.0,0.000613,0.000594,-0.032670,0.000761,0.000723,-0.000907,-1.0919,-0.9333,0.0003,0.00003648,-0.00000785,-0.00184489,0.00009366,-0.00002594,0.03860054,-0.1430,0.1786,-9.7014,-0.004662,-0.003304,-0.001158,36.4343,0.0330,89,0,0,0.000858,0.001024,-0.032755,0.000386,0.001903,-0.001318,-1.0422,-0.9201,0.4707
11897,11.0,0.000621,0.000601,-0.032679,0.000740,0.000706,-0.000733,-1.0931,-0.9361,0.0006,0.00003461,-0.00000660,-0.00184491,0.00010057,-0.00001437,0.03860066,-0.1631,0.1828,-9.7525,-0.002627,-0.003836,-0.001807,36.5162,0.0330,89,0,0,0.000865,0.001031,-0.032750,0.000485,0.001899,-0.000519,-1.0427,-0.9210,0.4714
11908,11.0,0.000630,0.000609,-0.032672,0.000696,0.000757,-0.000008,-1.0949,-0.9370,0.0002,0.00003462,-0.00000658,-0.00184491,0.00009839,-0.00001244,0.03851962,-0.1636,0.1909,-9.7157,-0.002874,-0.001504,-0.002499,36.5162,0.0330,89,0,0,0.000932,0.001071,-0.032908,0.000619,0.001916,-0.001476,-1.0411,-0.9235,0.4709
11919,11.0,0.000639,0.000616,-0.032845,0.000736,0.000618,-0.001558,-1.0931,-0.9386,-0.0001,0.00002168,-0.00001111,-0.00184493,0.00008925,0.00004258,0.03964694,-0.1504,0.1579,-9.7227,-0.002593,-0.004424,-0.003012,36.5162,0.0330,94,0,0,0.000939,0.001079,-0.032908,0.000598,0.001944,-0.000857,-1.0424,-0.9236,0.4711
11931,12.0,0.000619,0.000568,-0.032853,0.000932,0.000326,-0.001222,-1.0950,-0.9392,0.0021,0.00002295,-0.00001183,-0.00184502,0.00011423,0.00008949,0.03958398,-0.1359,0.1767,-9.7496,-0.001712,-0.001445,0.000477,36.5162,0.0330,90,2,1,0.000947,0.001087,-0.032914,0.000678,0.001790,-0.000421,-1.0425,-0.9247,0.4708
11942,11.0,0.000571,0.000547,-0.032864,0.000774,0.000208,-0.000819,-1.0953,-0.9393,0.0034,0.00001902,-0.00001615,-0.00184512,0.00014608,0.00013620,0.03958439,-0.1544,0.1775,-9.7309,-0.001714,-0.002488,-0.001002,36.5162,0.0330,83,1,2,0.000911,0.000998,-0.032957,0.000697,0.001347,-0.000113,-1.0420,-0.9248,0.4713
11953,11.0,0.000579,0.000556,-0.032924,0.000809,0.000008,-0.001129,-1.0970,-0.9407,0.0027,0.00001883,-0.00001616,-0.00184511,0.00015179,0.00012328,0.03991619,-0.1569,0.1667,-9.7397,-0.002851,-0.002236,-0.002893,36.4924,0.0330,90,0,0,0.000868,0.000980,-0.032956,0.000571,0.001222,0.000271,-1.0412,-0.9243,0.4720
11964,11.0,0.000560,0.000563,-0.032934,0.000732,-0.000100,-0.000678,-1.0948,-0.9417,0.0030,0.00000660,-0.00001882,-0.00184517,0.00016370,0.00018731,0.03991731,-0.1570,0.1614,-9.7266,-0.001304,-0.002895,-0.002584,36.4924,0.0320,87,0,1,0.000857,0.000995,-0.032913,0.000615,0.000966,0.001363,-1.0412,-0.9237,0.4740
11975,11.0,0.000568,0.000571,-0.032917,0.000803,-0.000131,0.000194,-1.0963,-0.9436,0.0029,0.00000639,-0.00001883,-0.00184517,0.00016190,0.00018256,0.03978117,-0.1535,0.1813,-9.7112,-0.002449,-0.003054,-0.001849,36.4924,0.0320,88,0,0,0.000864,0.001002,-0.032293,0.000646,0.000888,0.008204,-1.0408,-0.9237,0.4734
11985,10.0,0.000658,0.000632,-0.032411,0.001110,-0.000015,0.006435,-1.0943,-0.9451,0.0015,-0.00000375,-0.00002330,-0.00184501,0.00000356,0.00024028,0.03667585,-0.1476,0.1691,-9.7329,-0.001224,-0.003655,-0.002508,36.4924,0.0320,85,-2,-3,0.000872,0.001009,-0.032209,0.000680,0.000909,0.008703,-1.0408,-0.9236,0.4734
11996,11.0,0.000721,0.000667,-0.032322,0.001258,0.000010,0.007010,-1.0960,-0.9472,0.0020,-0.00000468,-0.00002196,-0.00184491,-0.00004083,0.00021252,0.03657458,-0.1621,0.1792,-9.7357,-0.003388,-0.002437,0.000064,36.4924,0.0320,90,-1,-2,0.001010,0.001098,-0.031997,0.001156,0.001069,0.009930,-1.0396,-0.9255,0.4478
12007,11.0,0.000730,0.000675,-0.032242,0.001311,0.000010,0.007632,-1.0972,-0.9464,0.0003,-0.00000802,-0.00002893,-0.00184488,-0.00007638,0.00022450,0.03657541,-0.1478,0.1813,-9.7140,-0.003216,-0.001127,-0.004053,36.4924,0.0330,91,0,0,0.001018,0.001106,-0.032564,0.001212,0.000973,0.003197,-1.0399,-0.9256,0.4475
12018,11.0,0.000711,0.000682,-0.032599,0.001183,-0.000043,0.002665,-1.1007,-0.9471,0.0029,-0.00000838,-0.00002993,-0.00184492,-0.00000410,0.00016560,0.03926837,-0.1638,0.1801,-9.7494,-0.005745,-0.001937,0.001828,36.4924,0.0330,94,0,1,0.001033,0.001120,-0.032473,0.001293,0.000970,0.004074,-1.0402,-0.9253,0.4465
12029,11.0,0.000691,0.000690,-0.032567,0.001035,0.000011,0.003242,-1.1024,-0.9491,0.0039,-0.00000701,-0.00002773,-0.00184496,0.00004078,0.00014989,0.03926736,-0.1689,0.1920,-9.7149,-0.002327,-0.002743,-0.000887,36.4924,0.0330,93,0,1,0.001016,0.001127,-0.032431,0.001189,0.001005,0.004301,-1.0419,-0.9260,0.4486
12040,11.0,0.000700,0.000698,-0.032509,0.000990,-0.000133,0.003718,-1.1057,-0.9502,0.0049,-0.00000726,-0.00002780,-0.00184495,0.00004061,0.00014492,0.03913757,-0.1656,0.1729,-9.7475,-0.005249,-0.001851,-0.000132,36.4924,0.0320,93,0,0,0.000999,0.001133,-0.032135,0.001013,0.001186,0.007492,-1.0418,-0.9259,0.4495
12051,11.0,0.000681,0.000706,-0.032205,0.000912,-0.000083,0.007260,-1.1069,-0.9497,0.0055,-0.00000614,-0.00003037,-0.00184497,0.00002954,0.00015981,0.03758241,-0.1591,0.1921,-9.7231,-0.001635,-0.000339,-0.000924,36.4924,0.0320,93,0,1,0.000990,0.001146,-0.031959,0.000823,0.001271,0.008367,-1.0426,-0.9260,0.4508
12062,11.0,0.000689,0.000686,-0.032105,0.001056,-0.000247,0.008140,-1.1095,-0.9515,0.0055,-0.00000560,-0.00003046,-0.00184499,0.00003047,0.00017681,0.03748463,-0.1475,0.1786,-9.7073,-0.003844,-0.002883,-0.002103,36.4924,0.0320,85,1,0,0.000972,0.001153,-0.031873,0.000716,0.001307,0.008733,-1.0431,-0.9261,0.4513
12074,12.0,0.000699,0.000693,-0.032005,0.001119,-0.000317,0.008693,-1.1107,-0.9497,0.0055,-0.00001466,-0.00003657,-0.00184499,-0.00000154,0.00021813,0.03748595,-0.1508,0.1730,-9.7238,-0.004497,0.000819,-0.001924,36.4924,0.0320,90,0,0,0.000980,0.001135,-0.031907,0.000784,0.001250,0.007916,-1.0438,-0.9267,0.4515
12085,11.0,0.000653,0.000675,-0.031940,0.000868,-0.000624,0.008893,-1.1133,-0.9494,0.0048,-0.00001425,-0.00003834,-0.00184509,0.00004930,0.00022522,0.03768465,-0.1686,0.1652,-9.7154,-0.003846,-0.000568,-0.003855,36.4924,0.0320,93,1,2,0.000946,0.001125,-0.031721,0.000585,0.000977,0.009044,-1.0459,-0.9245,0.5646
12095,10.0,0.000688,0.000683,-0.031849,0.001006,-0.000634,0.009285,-1.1131,-0.9483,0.0040,-0.00002109,-0.00004442,-0.00184502,-0.00001181,0.00025023,0.03768611,-0.1490,0.1782,-9.7303,-0.002211,-0.000028,-0.002572,36.5506,0.0320,92,0,-1,0.000979,0.001132,-0.031630,0.000654,0.000928,0.009445,-1.0458,-0.9240,0.5638
12106,11.0,0.000696,0.000690,-0.031744,0.001038,-0.000638,0.009866,-1.1129,-0.9500,0.0047,-0.00002155,-0.00004452,-0.00184501,-0.00000899,0.00023819,0.03769156,-0.1577,0.1853,-9.7155,0.000065,-0.002685,-0.000655,36.5506,0.0320,90,0,0,0.001011,0.001140,-0.031534,0.000820,0.000934,0.009785,-1.0460,-0.9233,0.5633
12117,11.0,0.000704,0.000725,-0.031826,0.001157,-0.000567,0.008297,-1.1132,-0.9491,0.0052,-0.00002898,-0.00005704,-0.00184492,-0.00005837,0.00021734,0.03881408,-0.1388,0.1791,-9.7055,-0.002886,-0.002446,0.000175,36.5506,0.0320,95,-1,0,0.001050,0.001154,-0.031730,0.000921,0.000861,0.006799,-1.0458,-0.9239,0.5642
12128,11.0,0.000712,0.000733,-0.031733,0.001356,-0.000760,0.008783,-1.1149,-0.9494,0.0054,-0.00002952,-0.00005726,-0.00184491,-0.00005292,0.00020393,0.03881817,-0.1419,0.1679,-9.7237,-0.003072,-0.000610,-0.001448,36.5506,0.0320,91,0,0,0.001058,0.001186,-0.031659,0.000994,0.000909,0.007273,-1.0455,-0.9235,0.5647
12139,11.0,0.000720,0.000740,-0.031633,0.001308,-0.000755,0.009412,-1.1135,-0.9514,0.0056,-0.00003443,-0.00005617,-0.00184493,-0.00004033,0.00021645,0.03881821,-0.1653,0.1824,-9.7109,0.000704,-0.003005,-0.001989,36.5506,0.0320,91,0,0,0.001065,0.001194,-0.031586,0.001063,0.000774,0.007597,-1.0452,-0.9230,0.5657
12150,11.0,0.000728,0.000747,-0.031780,0.001376,-0.000756,0.006767,-1.1142,-0.9535,0.0069,-0.00003505,-0.00005645,-0.00184492,-0.00001066,0.00017583,0.04025381,-0.1542,0.1858,-9.7395,-0.001458,-0.003579,0.000227,36.5506,0.0320,92,0,0,0.001081,0.001208,-0.031749,0.000883,0.000884,0.005812,-1.0442,-0.9219,0.5656
12161,11.0,0.000737,0.000782,-0.031705,0.001393,-0.000641,0.006955,-1.1136,-0.9531,0.0076,-0.00003795,-0.00006021,-0.00184486,-0.00002492,0.00014893,0.04025355,-0.1567,0.1881,-9.7496,-0.000058,-0.000580,-0.000028,36.5506,0.0320,93,-1,0,0.001088,0.001215,-0.031690,0.000848,0.000923,0.006231,-1.0447,-0.9223,0.5666
12172,11.0,0.000772,0.000789,-0.031627,0.001366,-0.000611,0.007308,-1.1158,-0.9534,0.0071,-0.00003845,-0.00005949,-0.00184481,-0.00004128,0.00013719,0.04025946,-0.1707,0.1889,-9.7332,-0.003833,-0.000124,-0.002179,36.5506,0.0310,90,0,-1,0.001096,0.001246,-0.031626,0.000811,0.000993,0.006490,-1.0433,-0.9226,0.5675
12183,11.0,0.000780,0.000796,-0.031241,0.001419,-0.000747,0.011383,-1.1147,-0.9526,0.0065,-0.00005527,-0.00006679,-0.00184485,-0.00010467,0.00025168,0.03856903,-0.1501,0.1609,-9.7192,-0.003011,-0.000865,-0.003475,36.5506,0.0310,88,0,0,0.001158,0.001260,-0.031112,0.001068,0.001062,0.011149,-1.0427,-0.9233,0.5672
12194,11.0,0.000762,0.000805,-0.031116,0.001316,-0.000927,0.011551,-1.1180,-0.9525,0.0063,-0.00005592,-0.00006801,-0.00184487,-0.00007769,0.00023716,0.03857364,-0.1632,0.1696,-9.7523,-0.005546,-0.000390,-0.002330,36.5506,0.0310,89,0,1,0.001165,0.001268,-0.030997,0.001121,0.000949,0.011673,-1.0422,-0.9213,0.6031
12205,11.0,0.000744,0.000812,-0.030987,0.001280,-0.000986,0.011870,-1.1169,-0.9518,0.0069,-0.00006685,-0.00007529,-0.00184492,-0.00008516,0.00028080,0.03857457,-0.1521,0.1727,-9.7398,-0.001414,-0.001181,-0.001363,36.5506,0.0320,93,0,1,0.001131,0.001281,-0.031496,0.001036,0.000891,0.004139,-1.0445,-0.9196,0.6021
12216,11.0,0.000779,0.000819,-0.031476,0.001463,-0.001015,0.004956,-1.1187,-0.9535,0.0079,-0.00006781,-0.00007467,-0.00184486,-0.00004414,0.00019920,0.04198886,-0.1511,0.1827,-9.7365,-0.003148,-0.002518,0.000238,36.5506,0.0320,91,0,-1,0.001163,0.001289,-0.031454,0.001188,0.000842,0.004382,-1.0444,-0.9201,0.6026
12227,11.0,0.000787,0.000799,-0.031419,0.001467,-0.001135,0.005298,-1.1193,-0.9551,0.0086,-0.00007645,-0.00007809,-0.00184491,-0.00005578,0.00025637,0.04199010,-0.1580,0.1757,-9.7341,-0.003353,-0.003622,-0.001375,36.5506,0.0310,91,1,0,0.001228,0.001304,-0.031362,0.001343,0.000761,0.004797,-1.0466,-0.9199,0.6038
12238,11.0,0.000768,0.000782,-0.031348,0.001527,-0.001474,0.005703,-1.1208,-0.9542,0.0088,-0.00007633,-0.00007947,-0.00184497,-0.00002840,0.00025990,0.04192445,-0.1480,0.1614,-9.7415,-0.002299,0.000901,-0.002045,36.5162,0.0310,91,1,1,0.001236,0.001286,-0.031113,0.001321,0.000663,0.007273,-1.0473,-0.9204,0.6045
12249,11.0,0.000777,0.000789,-0.031123,0.001544,-0.001609,0.007851,-1.1190,-0.9535,0.0101,-0.00009558,-0.00008384,-0.00184502,-0.00005929,0.00036054,0.04105747,-0.1561,0.1594,-9.7411,-0.002321,-0.000265,-0.000735,36.5162,0.0310,95,0,0,0.001220,0.001270,-0.031039,0.001305,0.000433,0.007504,-1.0476,-0.9188,0.6046
12260,11.0,0.000785,0.000797,-0.031026,0.001544,-0.001883,0.008326,-1.1196,-0.9546,0.0086,-0.00009669,-0.00008419,-0.00184500,-0.00005296,0.00033937,0.04100773,-0.1604,0.1588,-9.7329,-0.001456,-0.001902,-0.003969,36.5162,0.0310,91,0,0,0.001234,0.001285,-0.030868,0.001339,0.000152,0.008387,-1.0464,-0.9178,0.6052
12271,11.0,0.000793,0.000804,-0.030933,0.001567,-0.001897,0.008575,-1.1206,-0.9542,0.0088,-0.00010676,-0.00008928,-0.00184499,-0.00007259,0.00036740,0.04100854,-0.1552,0.1764,-9.7436,-0.004262,-0.000774,-0.001604,36.5162,0.0310,88,0,0,0.001242,0.001291,-0.030907,0.001322,0.000088,0.007322,-1.0455,-0.9177,0.6049
12282,11.0,0.000801,0.000810,-0.030913,0.001612,-0.001753,0.008094,-1.1208,-0.9549,0.0084,-0.00010791,-0.00008970,-0.00184497,-0.00005799,0.00033848,0.04141887,-0.1561,0.1972,-9.7275,-0.000897,-0.001329,-0.002318,36.5162,0.0310,93,0,0,0.001249,0.001298,-0.030823,0.001317,0.000029,0.007716,-1.0464,-0.9171,0.6051
12293,11.0,0.000810,0.000816,-0.030819,0.001604,-0.001861,0.009056,-1.1202,-0.9566,0.0104,-0.00012698,-0.00009357,-0.00184502,-0.00007049,0.00041776,0.04142050,-0.1578,0.1611,-9.6786,-0.003931,-0.003775,0.000287,36.5162,0.0310,93,0,0,0.001263,0.001312,-0.030649,0.001474,0.000072,0.008251,-1.0456,-0.9176,0.5122
12304,11.0,0.000871,0.000876,-0.030706,0.001812,-0.001677,0.009505,-1.1207,-0.9574,0.0102,-0.00013034,-0.00009178,-0.00184483,-0.00010425,0.00035657,0.04135797,-0.1560,0.1867,-9.7372,-0.002123,-0.000730,-0.000733,36.5162,0.0310,93,-2,-2,0.001271,0.001318,-0.030819,0.001457,0.000034,0.005965,-1.0451,-0.9186,0.5127
12315,11.0,0.000879,0.000882,-0.030812,0.001789,-0.001590,0.007589,-1.1215,-0.9592,0.0114,-0.00013114,-0.00009446,-0.00184479,-0.00008816,0.00031392,0.04247843,-0.1607,0.1927,-9.7127,-0.001598,-0.003779,0.000352,36.5162,0.0310,93,0,0,0.001325,0.001373,-0.030760,0.001720,0.000209,0.005901,-1.0452,-0.9186,0.5123
12326,11.0,0.000861,0.000864,-0.030718,0.001660,-0.001818,0.008043,-1.1240,-0.9597,0.0100,-0.00013114,-0.00009606,-0.00184486,-0.00006027,0.00031459,0.04243074,-0.1656,0.1709,-9.7330,-0.004147,-0.001372,-0.004435,36.5162,0.0310,92,1,1,0.001341,0.001362,-0.030621,0.001600,0.000144,0.006948,-1.0454,-0.9200,0.5117
12337,11.0,0.000843,0.000844,-0.030627,0.001613,-0.001899,0.008495,-1.1255,-0.9590,0.0103,-0.00013946,-0.00010367,-0.00184493,-0.00006564,0.00035959,0.04243162,-0.1542,0.1788,-9.7236,-0.004517,-0.000829,-0.002020,36.5162,0.0310,92,1,1,0.001325,0.001344,-0.030813,0.001479,0.000037,0.004299,-1.0453,-0.9202,0.5104
12348,11.0,0.000852,0.000853,-0.030775,0.001546,-0.002155,0.006161,-1.1260,-0.9589,0.0111,-0.00014102,-0.00010413,-0.00184489,-0.00003742,0.00031105,0.04369126,-0.1671,0.1603,-9.7182,-0.001296,-0.000121,-0.000285,36.5162,0.0310,89,0,0,0.001292,0.001333,-0.030708,0.001253,-0.000062,0.005214,-1.0463,-0.9191,0.5103
12359,11.0,0.000860,0.000859,-0.030705,0.001624,-0.002155,0.006545,-1.1269,-0.9576,0.0112,-0.00015118,-0.00011436,-0.00184484,-0.00008415,0.00033573,0.04369241,-0.1477,0.1785,-9.7286,-0.004101,-0.000430,-0.001164,36.5162,0.0310,90,0,0,0.001300,0.001340,-0.030639,0.001194,-0.000167,0.005818,-1.0457,-0.9185,0.5103
12371,12.0,0.000870,0.000865,-0.030626,0.001582,-0.002393,0.006878,-1.1281,-0.9591,0.0115,-0.00015270,-0.00011478,-0.00184480,-0.00007681,0.00031007,0.04369925,-0.1648,0.1647,-9.7345,-0.002285,-0.002409,-0.001187,36.5506,0.0310,89,0,0,0.001307,0.001347,-0.030580,0.001222,-0.000198,0.006145,-1.0456,-0.9172,0.5110
12382,11.0,0.000878,0.000871,-0.030791,0.001637,-0.002460,0.004568,-1.1259,-0.9596,0.0114,-0.00016996,-0.00012380,-0.00184480,-0.00009512,0.00034538,0.04493841,-0.1504,0.1675,-9.7156,-0.000776,-0.003032,-0.002273,36.5506,0.0310,89,0,0,0.001322,0.001360,-0.030793,0.001141,-0.000281,0.003379,-1.0429,-0.9198,0.5099
12393,11.0,0.000913,0.000905,-0.030740,0.001699,-0.002386,0.004981,-1.1266,-0.9606,0.0093,-0.00017278,-0.00012303,-0.00184467,-0.00010729,0.00029937,0.04494315,-0.1625,0.1828,-9.7233,-0.002116,-0.001370,-0.004283,36.5506,0.0310,86,-1,-1,0.001329,0.001367,-0.030756,0.001226,-0.000332,0.003962,-1.0416,-0.9206,0.4516
12404,11.0,0.000921,0.000912,-0.030684,0.001854,-0.002269,0.005222,-1.1290,-0.9578,0.0086,-0.00017300,-0.00014062,-0.00184451,-0.00019047,0.00026807,0.04494386,-0.1365,0.1954,-9.7403,-0.004247,0.000376,-0.001037,36.5506,0.0310,84,0,0,0.001367,0.001404,-0.030866,0.001290,-0.000335,0.002597,-1.0406,-0.9208,0.4518
12415,11.0,0.000904,0.000919,-0.030826,0.001697,-0.002355,0.003047,-1.1314,-0.9579,0.0085,-0.00017475,-0.00014245,-0.00184452,-0.00014523,0.00022356,0.04594453,-0.1682,0.1765,-9.7479,-0.004381,-0.000822,-0.002111,36.5506,0.0310,88,0,1,0.001351,0.001411,-0.030840,0.001279,-0.000258,0.002763,-1.0411,-0.9188,0.4523
12426,11.0,0.000912,0.000900,-0.030790,0.001695,-0.002333,0.003432,-1.1332,-0.9567,0.0080,-0.00017559,-0.00014577,-0.00184451,-0.00015267,0.00022173,0.04594461,-0.1593,0.1931,-9.7259,-0.003287,0.001028,-0.002412,36.5506,0.0310,95,1,0,0.001334,0.001417,-0.030812,0.001120,-0.000219,0.002903,-1.0417,-0.9182,0.4519
12437,11.0,0.000947,0.000933,-0.030753,0.001702,-0.002280,0.003582,-1.1357,-0.9592,0.0069,-0.00017846,-0.00014495,-0.00184438,-0.00016474,0.00017788,0.04595080,-0.1675,0.1831,-9.7458,-0.005038,-0.003945,-0.002893,36.5506,0.0310,92,-1,-1,0.001350,0.001406,-0.030875,0.001061,-0.000181,0.002375,-1.0434,-0.9169,0.4521
12448,11.0,0.000956,0.000939,-0.030863,0.001627,-0.002377,0.002337,-1.1331,-0.9611,0.0072,-0.00019826,-0.00014230,-0.00184448,-0.00012800,0.00023579,0.04670483,-0.1696,0.1653,-9.7129,-0.000381,-0.002546,-0.002779,36.5506,0.0310,86,0,0,0.001381,0.001436,-0.030850,0.001083,-0.000131,0.002613,-1.0439,-0.9186,0.4519
12459,11.0,0.000963,0.000948,-0.030836,0.001800,-0.002726,0.002795,-1.1353,-0.9615,0.0062,-0.00020011,-0.00014288,-0.00184444,-0.00011924,0.00020809,0.04670924,-0.1452,0.1518,-9.7184,-0.004168,-0.000961,-0.003142,36.5506,0.0310,86,0,0,0.001396,0.001451,-0.030791,0.001027,-0.000300,0.003391,-1.0431,-0.9169,0.4510
12469,10.0,0.000917,0.000931,-0.030807,0.001667,-0.002861,0.003007,-1.1336,-0.9611,0.0066,-0.00021848,-0.00015210,-0.00184461,-0.00010464,0.00029520,0.04671052,-0.1552,0.1660,-9.7394,-0.001583,-0.001869,-0.002797,36.5506,0.0310,92,1,2,0.001404,0.001458,-0.030905,0.000989,-0.000355,0.002116,-1.0432,-0.9163,0.4515
12480,11.0,0.000925,0.000911,-0.030890,0.001725,-0.002938,0.002000,-1.1354,-0.9622,0.0061,-0.00021919,-0.00015266,-0.00184461,-0.00008685,0.00027487,0.04729069,-0.1559,0.1833,-9.7257,-0.003303,-0.002053,-0.002659,36.5506,0.0310,94,1,0,0.001363,0.001440,-0.030884,0.000832,-0.000446,0.002277,-1.0423,-0.9167,0.4513
12491,11.0,0.000934,0.000918,-0.030867,0.001698,-0.003075,0.002193,-1.1348,-0.9633,0.0070,-0.00024460,-0.00015390,-0.00184470,-0.00008370,0.00036986,0.04729228,-0.1638,0.1579,-9.7426,-0.004728,-0.002106,-0.001860,36.5506,0.0310,91,0,0,0.001371,0.001422,-0.030860,0.000883,-0.000501,0.002430,-1.0428,-0.9170,0.4306
12503,12.0,0.000969,0.000947,-0.030840,0.001863,-0.002941,0.002441,-1.1347,-0.9649,0.0061,-0.00024805,-0.00015314,-0.00184455,-0.00009393,0.00032141,0.04729809,-0.1545,0.1894,-9.7377,-0.000893,-0.002245,-0.002366,36.5506,0.0310,87,-1,-1,0.001386,0.001435,-0.030920,0.000730,-0.000571,0.001639,-1.0424,-0.9167,0.4310
12514,11.0,0.001031,0.001007,-0.030909,0.002076,-0.002956,0.001636,-1.1313,-0.9645,0.0063,-0.00027936,-0.00016057,-0.00184441,-0.00016525,0.00038448,0.04777010,-0.1505,0.1531,-9.7301,-0.001728,-0.001073,-0.001265,36.5506,0.0310,92,-2,-2,0.001417,0.001466,-0.030902,0.000808,-0.000459,0.001847,-1.0418,-0.9159,0.4307
12525,11.0,0.001039,0.001013,-0.030891,0.002107,-0.002898,0.001949,-1.1346,-0.9663,0.0067,-0.00028140,-0.00016135,-0.00184437,-0.00015437,0.00035654,0.04777428,-0.1581,0.1886,-9.7297,-0.006016,-0.003203,-0.000927,36.5506,0.0310,90,0,0,0.001480,0.001529,-0.030862,0.001005,-0.000554,0.002251,-1.0402,-0.9160,0.4310
12536,11.0,0.001048,0.001020,-0.030867,0.002062,-0.002877,0.002302,-1.1335,-0.9657,0.0071,-0.00029215,-0.00016215,-0.00184438,-0.00014411,0.00037396,0.04777437,-0.1653,0.1808,-9.7270,-0.000740,0.000541,-0.001615,36.5506,0.0310,96,0,0,0.001487,0.001535,-0.030930,0.000983,-0.000471,0.001522,-1.0412,-0.9159,0.4310
12547,11.0,0.001055,0.001027,-0.030923,0.002207,-0.002929,0.001654,-1.1339,-0.9684,0.0059,-0.00029432,-0.00016305,-0.00184434,-0.00012577,0.00033869,0.04816366,-0.1476,0.1789,-9.7312,-0.001566,-0.004654,-0.003718,36.5506,0.0310,91,0,0,0.001502,0.001548,-0.030895,0.000878,-0.000447,0.002189,-1.0420,-0.9172,0.4297
12558,11.0,0.001037,0.001033,-0.030903,0.002099,-0.002860,0.001904,-1.1353,-0.9697,0.0086,-0.00030057,-0.00016692,-0.00184437,-0.00010433,0.00033336,0.04816316,-0.1636,0.1880,-9.7360,-0.003799,-0.003099,0.002132,36.5506,0.0310,94,0,1,0.001510,0.001554,-0.030873,0.000888,-0.000425,0.002482,-1.0416,-0.9177,0.4286
12569,11.0,0.000993,0.001040,-0.030882,0.002037,-0.003082,0.002145,-1.1355,-0.9708,0.0090,-0.00030280,-0.00017060,-0.00184444,-0.00005655,0.00030417,0.04816802,-0.1538,0.1635,-9.7360,-0.001061,-0.002841,-0.001549,36.5506,0.0300,89,0,2,0.001494,0.001559,-0.030337,0.000784,-0.000316,0.008272,-1.0417,-0.9184,0.4304
12580,11.0,0.001002,0.001046,-0.030384,0.001960,-0.003261,0.007597,-1.1320,-0.9735,0.0096,-0.00033125,-0.00016785,-0.00184460,-0.00006760,0.00045663,0.04595286,-0.1717,0.1536,-9.7657,-0.000540,-0.003860,-0.003007,36.5506,0.0300,90,0,0,0.001414,0.001571,-0.030169,0.000528,-0.000309,0.008509,-1.0384,-0.9177,0.4301
12591,11.0,0.001036,0.001028,-0.030272,0.001867,-0.003420,0.008509,-1.1323,-0.9731,0.0105,-0.00033227,-0.00016709,-0.00184454,-0.00007906,0.00044578,0.04583177,-0.1778,0.1738,-9.7056,-0.001157,0.000516,0.000020,36.4581,0.0300,91,1,-1,0.001421,0.001577,-0.030082,0.000478,-0.000428,0.008835,-1.0350,-0.9196,0.3809
12602,11.0,0.001044,0.001035,-0.030176,0.001872,-0.003431,0.008961,-1.1321,-0.9735,0.0097,-0.00034819,-0.00017232,-0.00184453,-0.00009430,0.00048456,0.04583262,-0.1599,0.1737,-9.7202,-0.003248,-0.001830,-0.003380,36.4581,0.0310,92,0,0,0.001452,0.001561,-0.029940,0.000390,-0.000569,0.009811,-1.0347,-0.9187,0.3819
12613,11.0,0.001053,0.001015,-0.030554,0.001835,-0.003585,0.004244,-1.1325,-0.9750,0.0106,-0.00034980,-0.00017312,-0.00184451,-0.00004779,0.00042828,0.04804985,-0.1656,0.1734,-9.6810,-0.001267,-0.002676,-0.000442,36.4581,0.0310,88,1,0,0.001467,0.001551,-0.030531,0.000226,-0.000658,0.003113,-1.0333,-0.9189,0.3817
12624,11.0,0.001061,0.001021,-0.030505,0.001849,-0.003500,0.004518,-1.1333,-0.9759,0.0094,-0.00035678,-0.00017901,-0.00184444,-0.00006627,0.00041983,0.04804992,-0.1593,0.1875,-9.7340,-0.003077,-0.002882,-0.003227,36.4581,0.0310,96,0,0,0.001475,0.001533,-0.030497,0.000134,-0.000695,0.003710,-1.0329,-0.9200,0.3828
12635,11.0,0.001044,0.001053,-0.030422,0.001733,-0.003407,0.005157,-1.1333,-0.9774,0.0097,-0.00036080,-0.00018116,-0.00184438,-0.00004272,0.00037403,0.04789413,-0.1677,0.1842,-9.7364,-0.001384,-0.002912,-0.001132,36.4581,0.0300,89,-1,1,0.001483,0.001538,-0.030458,0.000065,-0.000528,0.003999,-1.0328,-0.9204,0.3838
12647,12.0,0.001028,0.001056,-0.030155,0.001663,-0.003658,0.007766,-1.1303,-0.9764,0.0103,-0.00039474,-0.00018634,-0.00184457,-0.00005020,0.00052142,0.04697612,-0.1626,0.1470,-9.7386,-0.002063,0.000226,-0.002750,36.5162,0.0300,89,0,1,0.001473,0.001574,-0.030064,-0.000032,-0.000386,0.007199,-1.0339,-0.9205,0.3835
12658,11.0,0.001010,0.001064,-0.030060,0.001643,-0.003879,0.008055,-1.1313,-0.9764,0.0108,-0.00039766,-0.00018848,-0.00184455,-0.00002569,0.00048787,0.04693476,-0.1593,0.1607,-9.7436,-0.002620,-0.000708,-0.001057,36.5162,0.0300,89,0,1,0.001441,0.001588,-0.029903,-0.000214,-0.000611,0.007844,-1.0342,-0.9186,0.3838
12669,11.0,0.001044,0.001070,-0.029969,0.001774,-0.003821,0.008433,-1.1306,-0.9775,0.0091,-0.00040838,-0.00019649,-0.00184440,-0.00008248,0.00049538,0.04693572,-0.1542,0.1820,-9.7258,-0.001574,-0.003365,-0.003697,36.5162,0.0310,89,0,-1,0.001472,0.001619,-0.030522,-0.000101,-0.000632,0.000337,-1.0323,-0.9181,0.3845
12680,11.0,0.001079,0.001104,-0.030478,0.001950,-0.003797,0.001826,-1.1314,-0.9784,0.0076,-0.00041362,-0.00019574,-0.00184419,-0.00004425,0.00039195,0.04963726,-0.1544,0.1754,-9.7241,-0.002772,-0.001519,-0.003214,36.5162,0.0310,95,-1,-1,0.001503,0.001625,-0.030508,0.000027,-0.000575,0.000681,-1.0318,-0.9192,0.3836
12691,11.0,0.001087,0.001110,-0.030456,0.001969,-0.003837,0.002214,-1.1302,-0.9790,0.0085,-0.00043374,-0.00020275,-0.00184420,-0.00006734,0.00044717,0.04963849,-0.1585,0.1683,-9.7225,-0.002444,-0.002470,-0.000843,36.5162,0.0310,88,0,0,0.001541,0.001662,-0.030490,0.000194,-0.000350,0.001120,-1.0338,-0.9184,0.3917
12702,11.0,0.001096,0.001116,-0.030419,0.001808,-0.003748,0.002522,-1.1303,-0.9802,0.0081,-0.00043665,-0.00020346,-0.00184412,-0.00006003,0.00041555,0.04958606,-0.1791,0.1892,-9.7412,-0.001216,-0.002203,-0.002057,36.5162,0.0310,85,0,0,0.001548,0.001668,-0.030776,0.000195,-0.000347,-0.001848,-1.0330,-0.9193,0.3921
12713,11.0,0.001104,0.001096,-0.030717,0.001873,-0.003725,-0.000927,-1.1308,-0.9799,0.0075,-0.00044237,-0.00021444,-0.00184404,-0.00007830,0.00039492,0.05103740,-0.1529,0.1877,-9.7248,-0.002391,-0.001968,-0.002163,36.5162,0.0310,95,1,0,0.001556,0.001674,-0.030794,0.000034,-0.000220,-0.001685,-1.0322,-0.9197,0.3922
12724,11.0,0.001112,0.001077,-0.030718,0.001935,-0.003888,-0.000777,-1.1315,-0.9812,0.0074,-0.00044374,-0.00021524,-0.00184402,-0.00007010,0.00038051,0.05099709,-0.1588,0.1732,-9.7521,-0.001856,-0.002322,-0.001973,36.5162,0.0310,90,1,0,0.001571,0.001638,-0.030810,0.000046,-0.000147,-0.001145,-1.0312,-0.9199,0.3926
12735,11.0,0.001120,0.001083,-0.030725,0.002054,-0.003841,-0.000494,-1.1304,-0.9795,0.0072,-0.00045572,-0.00023140,-0.00184389,-0.00013836,0.00039350,0.05099829,-0.1455,0.1806,-9.7306,-0.001000,-0.000664,-0.001111,36.5744,0.0310,96,0,0,0.001578,0.001645,-0.030929,0.000057,-0.000104,-0.002154,-1.0311,-0.9201,0.3926
12746,11.0,0.001128,0.001090,-0.030877,0.002086,-0.003819,-0.002022,-1.1325,-0.9807,0.0057,-0.00045892,-0.00023235,-0.00184381,-0.00011711,0.00034856,0.05164433,-0.1608,0.1829,-9.7386,-0.004477,-0.002223,-0.004003,36.5744,0.0310,90,0,0,0.001584,0.001651,-0.030949,0.000163,-0.000029,-0.001864,-1.0303,-0.9196,0.3929
12757,11.0,0.001137,0.001095,-0.030896,0.002226,-0.003814,-0.001377,-1.1320,-0.9807,0.0049,-0.00047539,-0.00025203,-0.00184369,-0.00020154,0.00038570,0.05164621,-0.1409,0.1743,-9.6972,-0.002978,-0.004011,-0.002197,36.5744,0.0310,89,0,0,0.001598,0.001689,-0.030993,0.000230,0.000111,-0.001316,-1.0298,-0.9188,0.3915
12768,11.0,0.001118,0.001102,-0.030919,0.002100,-0.003762,-0.001144,-1.1324,-0.9808,0.0047,-0.00047846,-0.00025468,-0.00184368,-0.00017287,0.00035262,0.05169012,-0.1682,0.1858,-9.7229,-0.001605,-0.001014,-0.002033,36.5744,0.0310,90,0,1,0.001605,0.001695,-0.030996,0.000310,0.000130,-0.000802,-1.0297,-0.9190,0.3907
12779,11.0,0.001127,0.001109,-0.030962,0.002107,-0.003933,-0.001042,-1.1283,-0.9815,0.0046,-0.00051140,-0.00026122,-0.00184380,-0.00018963,0.00046817,0.05183491,-0.1600,0.1502,-9.7118,-0.000380,-0.002634,-0.003421,36.5744,0.0310,87,0,0,0.001571,0.001708,-0.031016,0.000201,0.000100,-0.000310,-1.0277,-0.9189,0.3903
12790,11.0,0.001135,0.001113,-0.030980,0.002115,-0.003722,-0.000870,-1.1303,-0.9841,0.0043,-0.00051440,-0.00026220,-0.00184373,-0.00017888,0.00043675,0.05186848,-0.1632,0.2003,-9.7307,-0.004207,-0.004464,-0.002170,36.5744,0.0300,88,0,0,0.001579,0.001716,-0.031018,0.000178,-0.000105,-0.000023,-1.0277,-0.9185,0.4505
12801,11.0,0.001143,0.001145,-0.030987,0.002121,-0.003571,-0.000403,-1.1302,-0.9843,0.0036,-0.00052453,-0.00026850,-0.00184361,-0.00019563,0.00041772,0.05186827,-0.1609,0.1856,-9.7126,-0.002314,-0.001751,-0.002351,36.5744,0.0300,94,-1,0,0.001586,0.001721,-0.030412,0.000155,0.000018,0.006835,-1.0296,-0.9203,0.4502
12812,11.0,0.001151,0.001151,-0.030450,0.002181,-0.003586,0.006369,-1.1300,-0.9859,0.0025,-0.00052704,-0.00026929,-0.00184355,-0.00022468,0.00043273,0.04956783,-0.1585,0.1801,-9.7091,-0.000745,-0.003089,-0.003393,36.5744,0.0300,90,0,0,0.001600,0.001757,-0.030277,0.000043,0.000251,0.007476,-1.0295,-0.9211,0.4506
12823,11.0,0.001184,0.001158,-0.030378,0.002248,-0.003594,0.006787,-1.1291,-0.9854,0.0033,-0.00054369,-0.00027292,-0.00184350,-0.00025243,0.00047169,0.04956886,-0.1626,0.1738,-9.7195,-0.002280,-0.000132,-0.000650,36.5744,0.0300,94,0,-1,0.001607,0.001763,-0.030200,0.000007,0.000345,0.007946,-1.0284,-0.9220,0.4493
12834,11.0,0.001217,0.001163,-0.030315,0.002579,-0.003526,0.006328,-1.1304,-0.9877,0.0039,-0.00054664,-0.00027254,-0.00184338,-0.00025517,0.00044193,0.04961321,-0.1409,0.1890,-9.7882,-0.003165,-0.003795,-0.000440,36.5744,0.0300,94,0,-1,0.001637,0.001769,-0.030043,0.000079,0.000374,0.009161,-1.0288,-0.9218,0.4494
12845,11.0,0.001225,0.001168,-0.030112,0.002593,-0.003443,0.005700,-1.1341,-0.9912,0.0029,-0.00054886,-0.00027707,-0.00184330,-0.00026917,0.00042381,0.04899475,-0.1650,0.1949,-9.9692,-0.006893,-0.006752,-0.003043,36.5744,0.0300,90,0,0,0.001674,0.001780,-0.029842,0.000204,0.000707,0.009245,-1.0291,-0.9241,0.4492
12856,11.0,0.001233,0.001177,-0.030052,0.002620,-0.003804,0.006608,-1.1353,-0.9918,0.0024,-0.00055210,-0.00027843,-0.00184324,-0.00025527,0.00039192,0.04902854,-0.1607,0.1475,-9.6674,-0.003087,-0.001456,-0.002321,36.5744,0.0310,90,0,0,0.001682,0.001786,-0.029767,0.000143,0.000785,0.008246,-1.0305,-0.9251,0.4489
12867,11.0,0.001242,0.001183,-0.029978,0.002625,-0.003833,0.006817,-1.1338,-0.9933,0.0037,-0.00057100,-0.00028620,-0.00184326,-0.00027473,0.00044025,0.04902958,-0.1609,0.1717,-9.7392,-0.001762,-0.004189,-0.000283,36.5744,0.0310,91,0,0,0.001696,0.001775,-0.030452,0.000258,0.000611,0.001407,-1.0305,-0.9259,0.4479
12878,11.0,0.001250,0.001163,-0.030474,0.002611,-0.003867,0.000901,-1.1342,-0.9937,0.0037,-0.00057293,-0.00028792,-0.00184325,-0.00022038,0.00037870,0.05142631,-0.1650,0.1840,-9.6877,-0.001513,-0.001137,-0.001776,36.4581,0.0310,91,1,0,0.001703,0.001782,-0.030404,0.000309,0.000625,0.001962,-1.0304,-0.9262,0.4481
12889,11.0,0.001232,0.001142,-0.030463,0.002531,-0.003925,0.001043,-1.1343,-0.9940,0.0056,-0.00058610,-0.00029610,-0.00184337,-0.00021688,0.00042272,0.05142694,-0.1630,0.1776,-9.7427,-0.003110,-0.002377,0.000368,36.4581,0.0310,90,1,1,0.001710,0.001764,-0.030382,0.000345,0.000703,0.002329,-1.0294,-0.9270,0.3763
12900,11.0,0.001241,0.001150,-0.030415,0.002460,-0.004184,0.002084,-1.1366,-0.9956,0.0067,-0.00058960,-0.00029736,-0.00184330,-0.00020718,0.00039261,0.05128676,-0.1711,0.1566,-9.6969,-0.004823,-0.003110,0.000259,36.4581,0.0300,91,0,0,0.001677,0.001729,-0.030092,0.000357,0.000553,0.004987,-1.0302,-0.9267,0.3777
12911,11.0,0.001224,0.001156,-0.030173,0.002387,-0.004172,0.004692,-1.1358,-0.9956,0.0044,-0.00060550,-0.00030503,-0.00184335,-0.00021937,0.00044026,0.05038413,-0.1637,0.1766,-9.7504,-0.002451,-0.001679,-0.006041,36.4581,0.0300,93,0,1,0.001684,0.001735,-0.030040,0.000306,0.000524,0.005372,-1.0303,-0.9280,0.3791
12922,11.0,0.001206,0.001188,-0.030095,0.002369,-0.004122,0.005159,-1.1350,-0.9958,0.0038,-0.00061082,-0.00030804,-0.00184328,-0.00019327,0.00039341,0.05027644,-0.1608,0.1792,-9.7415,-0.000355,-0.001231,-0.002498,36.4581,0.0300,90,-1,1,0.001668,0.001742,-0.029951,0.000224,0.000534,0.005889,-1.0301,-0.9277,0.3779
12933,11.0,0.001242,0.001221,-0.030038,0.002404,-0.004150,0.005169,-1.1337,-0.9992,0.0019,-0.00063990,-0.00030848,-0.00184327,-0.00020571,0.00046266,0.05027770,-0.1695,0.1605,-9.7562,-0.003911,-0.005657,-0.005724,36.5162,0.0320,90,-1,-1,0.001684,0.001804,-0.031136,0.000107,0.000672,-0.007615,-1.0287,-0.9269,0.3767
12944,11.0,0.001278,0.001227,-0.031068,0.002517,-0.004043,-0.007313,-1.1359,-1.0004,0.0019,-0.00064452,-0.00030838,-0.00184310,-0.00013314,0.00034524,0.05470296,-0.1627,0.1903,-9.7422,-0.005007,-0.002124,-0.001098,36.5162,0.0320,91,0,-1,0.001716,0.001836,-0.031212,0.000085,0.000712,-0.007646,-1.0288,-0.9297,0.3751
12955,11.0,0.001261,0.001233,-0.031147,0.002510,-0.003952,-0.007058,-1.1344,-0.9999,0.0026,-0.00065257,-0.00032333,-0.00184302,-0.00016431,0.00033795,0.05470318,-0.1544,0.1877,-9.7290,0.000322,-0.002335,-0.000099,36.5162,0.0290,96,0,1,0.001748,0.001842,-0.031289,0.000246,0.000704,-0.007693,-1.0296,-0.9306,0.3758
12966,11.0,0.001242,0.001214,-0.031211,0.002739,-0.003981,-0.006611,-1.1361,-1.0001,0.0029,-0.00065429,-0.00032662,-0.00184309,-0.00013600,0.00032335,0.05465443,-0.1379,0.1850,-9.7246,-0.003653,-0.001280,-0.001635,36.5162,0.0290,85,1,1,0.001740,0.001853,-0.029999,-0.000002,0.001119,0.007186,-1.0304,-0.9308,0.3765
12977,11.0,0.001226,0.001196,-0.030033,0.002672,-0.003948,0.008402,-1.1374,-0.9983,0.0021,-0.00065857,-0.00033543,-0.00184314,-0.00022694,0.00042435,0.04963288,-0.1622,0.1894,-9.7061,-0.003695,0.000840,-0.003184,36.5162,0.0290,85,1,1,0.001724,0.001837,-0.029915,0.000031,0.001143,0.007605,-1.0328,-0.9296,0.3759
12988,11.0,0.001234,0.001202,-0.029930,0.002752,-0.004052,0.008848,-1.1377,-0.9998,0.0030,-0.00066214,-0.00033696,-0.00184308,-0.00021394,0.00039389,0.04959682,-0.1578,0.1721,-9.7263,-0.001689,-0.003003,-0.000171,36.5162,0.0310,88,0,0,0.001709,0.001820,-0.029836,-0.000081,0.001097,0.008142,-1.0330,-0.9289,0.3739
13000,12.0,0.001245,0.001205,-0.029823,0.002848,-0.004070,0.009103,-1.1371,-0.9980,0.0021,-0.00067973,-0.00035205,-0.00184300,-0.00026742,0.00043237,0.04959820,-0.1518,0.1749,-9.7365,-0.002810,-0.000288,-0.002870,36.4581,0.0310,91,0,0,0.001724,0.001834,-0.030467,-0.000246,0.001066,0.000541,-1.0338,-0.9298,0.3587
13011,11.0,0.001305,0.001212,-0.030399,0.003220,-0.004090,0.001744,-1.1392,-0.9999,0.0019,-0.00068397,-0.00035055,-0.00184280,-0.00023623,0.00034890,0.05228603,-0.1431,0.1789,-9.7124,-0.004807,-0.002953,-0.001462,36.4581,0.0310,84,0,-2,0.001786,0.001848,-0.030375,-0.000079,0.001036,0.001777,-1.0343,-0.9299,0.3600
13022,11.0,0.001338,0.001217,-0.030378,0.003263,-0.003973,0.002043,-1.1397,-1.0008,0.0011,-0.00068997,-0.00035607,-0.00184265,-0.00026087,0.00033144,0.05228602,-0.1638,0.1916,-9.7273,-0.002557,-0.002786,-0.002351,36.4581,0.0290,87,0,-1,0.001838,0.001855,-0.029545,0.000173,0.001028,0.011098,-1.0351,-0.9294,0.3600
13033,11.0,0.001321,0.001199,-0.030322,0.003199,-0.004019,0.002626,-1.1405,-0.9996,0.0011,-0.00069179,-0.00035979,-0.00184273,-0.00023164,0.00031826,0.05215190,-0.1638,0.1843,-9.7373,-0.002216,0.000821,-0.002123,36.4581,0.0290,90,1,1,0.001867,0.001860,-0.029433,0.000232,0.001145,0.011366,-1.0351,-0.9300,0.3597
13044,11.0,0.001305,0.001180,-0.029580,0.003081,-0.003984,0.011057,-1.1420,-0.9999,0.0024,-0.00069627,-0.00036511,-0.00184282,-0.00026071,0.00037456,0.04936484,-0.1681,0.1908,-9.7369,-0.003840,-0.001803,-0.000106,36.4581,0.0290,94,1,1,0.001836,0.001828,-0.029166,0.000029,0.000960,0.012187,-1.0360,-0.9319,0.3586
13055,11.0,0.001313,0.001188,-0.029433,0.003152,-0.004210,0.011460,-1.1428,-1.0009,0.0036,-0.00070005,-0.00036697,-0.00184276,-0.00024659,0.00034500,0.04926333,-0.1582,0.1618,-9.7486,-0.002649,-0.002439,0.000185,36.4581,0.0310,90,0,0,0.001843,0.001834,-0.029043,0.000018,0.000964,0.012328,-1.0360,-0.9326,0.3595
13066,11.0,0.001295,0.001194,-0.029305,0.003101,-0.004161,0.011866,-1.1433,-0.9992,0.0017,-0.00071397,-0.00038018,-0.00184277,-0.00026257,0.00036424,0.04926376,-0.1577,0.1814,-9.7209,-0.004076,0.000050,-0.004808,36.4581,0.0310,91,0,1,0.001850,0.001841,-0.030237,0.000061,0.000865,-0.001421,-1.0357,-0.9328,0.3602
13077,11.0,0.001303,0.001202,-0.030156,0.003109,-0.004318,0.000916,-1.1447,-0.9978,0.0009,-0.00071868,-0.00038281,-0.00184271,-0.00018062,0.00025591,0.05308105,-0.1629,0.1666,-9.7160,-0.003843,0.001373,-0.002823,36.5162,0.0310,91,0,0,0.001815,0.001879,-0.030249,0.000113,0.000870,-0.000770,-1.0361,-0.9320,0.3590
13089,12.0,0.001339,0.001205,-0.030143,0.003247,-0.004400,0.001237,-1.1436,-0.9958,0.0015,-0.00074301,-0.00039535,-0.00184264,-0.00024115,0.00032527,0.05308309,-0.1529,0.1669,-9.7276,-0.003168,0.000335,-0.000852,36.5162,0.0290,93,0,-1,0.001822,0.001886,-0.030255,0.000178,0.000878,-0.000509,-1.0341,-0.9331,0.2166
13100,11.0,0.001371,0.001236,-0.030117,0.003434,-0.004377,0.001576,-1.1440,-0.9969,0.0003,-0.00074879,-0.00039568,-0.00184245,-0.00023879,0.00027955,0.05303703,-0.1523,0.1776,-9.7356,-0.002526,-0.002158,-0.003145,36.5162,0.0290,92,-1,-1,0.001880,0.001899,-0.029401,0.000333,0.000603,0.008136,-1.0338,-0.9337,0.2169
13111,11.0,0.001429,0.001242,-0.029489,0.003610,-0.004381,0.008788,-1.1422,-0.9970,-0.0008,-0.00076667,-0.00040566,-0.00184228,-0.00034938,0.00036654,0.05070526,-0.1539,0.1750,-9.7399,-0.001133,-0.002295,-0.003056,36.5162,0.0290,89,0,-2,0.001909,0.001928,-0.029319,0.000440,0.000770,0.008370,-1.0334,-0.9344,0.2167
