timestamp_ms,dt_ms,pos_x,pos_y,pos_z,vel_x,vel_y,vel_z,roll_deg,pitch_deg,yaw_deg,gyro_bias_x,gyro_bias_y,gyro_bias_z,accel_bias_x,accel_bias_y,accel_bias_z,raw_accel_x,raw_accel_y,raw_accel_z,raw_gyro_x,raw_gyro_y,raw_gyro_z,raw_baro_alt,raw_tof,raw_flow_squal,raw_flow_dx,raw_flow_dy,dev_pos_x,dev_pos_y,dev_pos_z,dev_vel_x,dev_vel_y,dev_vel_z,dev_roll_deg,dev_pitch_deg,dev_yaw_deg
11023,10.0,0.000004,-0.000009,-0.032968,0.000189,-0.000752,0.073698,-0.0004,-0.0002,0.0007,0.00000000,0.00000000,-0.00184470,-0.00001353,-0.00008690,0.00000000,-0.1566,0.1526,-9.7277,-0.002055,-0.001463,-0.002257,36.4687,0.0330,88,1,0,0.000158,0.000221,-0.032411,-0.000184,0.002859,-0.008445,-0.9492,-0.8688,0.2740
11035,12.0,-0.000008,-0.000067,-0.031727,-0.001109,-0.002243,0.133046,-0.0020,-0.0005,0.0009,0.00000000,-0.00000000,-0.00184470,-0.00001301,-0.00008355,0.00000000,-0.1499,0.1733,-9.7293,-0.002773,-0.000891,-0.004440,36.4687,0.0330,95,3,1,0.000166,0.000205,-0.032492,-0.000255,0.002560,-0.007706,-0.9498,-0.8688,0.2739
11046,11.0,-0.000001,-0.000071,-0.029067,-0.001616,-0.000498,0.204776,-0.0025,-0.0018,0.0005,0.00000000,0.00000000,-0.00184470,-0.00001511,-0.00008461,-0.00002774,-0.1636,0.1642,-9.7313,-0.000983,-0.001629,-0.002837,36.4687,0.0310,93,0,0,0.000106,0.000120,-0.032585,-0.000696,0.002076,-0.005735,-0.9524,-0.8682,0.2740
11057,11.0,-0.000007,-0.000058,-0.030941,-0.001256,-0.000142,0.085703,-0.4730,-0.4554,0.0015,0.00000360,0.00000348,-0.00184470,-0.00001635,-0.00008653,0.00007476,-0.1633,0.1679,-9.7409,-0.002868,-0.000320,-0.003564,36.4687,0.0310,93,0,0,0.000113,0.000127,-0.031521,-0.000669,0.002049,0.006889,-0.9544,-0.8739,0.2740
11068,11.0,0.000001,-0.000033,-0.029937,-0.001665,0.001240,0.087941,-0.4735,-0.4569,0.0006,0.00000360,0.00000348,-0.00184470,-0.00001953,-0.00008908,0.00005419,-0.1579,0.1768,-9.7532,-0.001261,-0.002716,-0.001708,36.4687,0.0310,81,-1,0,0.000126,0.000167,-0.031368,-0.000691,0.002075,0.008419,-0.9612,-0.8782,0.2735
11079,11.0,0.000025,0.000006,-0.028966,-0.000943,0.001533,0.088671,-0.6511,-0.6183,0.0020,0.00000629,0.00000591,-0.00184470,-0.00002443,-0.00009358,0.00005420,-0.1606,0.1843,-9.7302,-0.004032,-0.002243,-0.000136,36.4687,0.0320,89,-1,-1,0.000133,0.000197,-0.031239,-0.000738,0.002293,0.009565,-0.9601,-0.8776,0.2733
11090,11.0,0.000058,0.000011,-0.031276,-0.000914,0.002059,0.029775,-0.6579,-0.6250,0.0023,0.00000628,0.00000590,-0.00184470,-0.00002680,-0.00009646,0.00201723,-0.1637,0.1887,-9.7114,-0.003170,-0.001770,-0.000552,36.4687,0.0320,91,0,-1,0.000164,0.000230,-0.031667,-0.000542,0.002396,0.004564,-0.9669,-0.8839,0.1861
11101,11.0,0.000085,0.000050,-0.030944,-0.000426,0.002190,0.030580,-0.7597,-0.7096,0.0034,0.00000894,0.00000810,-0.00184470,-0.00003184,-0.00010140,0.00201703,-0.1752,0.1796,-9.7288,-0.004902,-0.001027,-0.003950,36.4687,0.0320,94,-1,-1,0.000227,0.000245,-0.031531,-0.000436,0.002450,0.006528,-0.9706,-0.8898,0.1873
11112,11.0,0.000094,0.000057,-0.030589,-0.000738,0.002567,0.031668,-0.7628,-0.7108,0.0035,0.00000894,0.00000810,-0.00184470,-0.00003524,-0.00009711,0.00199348,-0.1580,0.1795,-9.7321,-0.004225,-0.000266,-0.001807,36.5268,0.0310,87,0,0,0.000260,0.000277,-0.031461,-0.000480,0.002568,0.007309,-0.9711,-0.8903,0.1863
11123,11.0,0.000098,0.000069,-0.030771,-0.000589,0.002381,0.025147,-0.8237,-0.7628,0.0038,0.00001130,0.00001015,-0.00184470,-0.00002821,-0.00010403,0.00302614,-0.1626,0.1737,-9.7267,-0.003448,-0.003318,-0.004178,36.5268,0.0310,80,0,0,0.000274,0.000292,-0.031028,-0.000489,0.002292,0.011679,-0.9733,-0.8938,0.1866
11134,11.0,0.000107,0.000076,-0.030482,-0.000771,0.002619,0.026072,-0.8267,-0.7646,0.0030,0.00001131,0.00001016,-0.00184470,-0.00003235,-0.00009870,0.00300354,-0.1416,0.1817,-9.7300,-0.002497,-0.004544,-0.002733,36.5268,0.0310,90,0,0,0.000280,0.000299,-0.030900,-0.000475,0.002254,0.012557,-0.9773,-0.8999,0.1864
11145,11.0,0.000060,0.000087,-0.030191,-0.001070,0.002470,0.026907,-0.8623,-0.7894,0.0031,0.00001332,0.00001161,-0.00184470,-0.00002052,-0.00009718,0.00300316,-0.1630,0.1708,-9.7230,-0.003050,-0.001391,-0.000811,36.5268,0.0320,84,0,2,0.000287,0.000306,-0.030770,-0.000373,0.002322,0.013334,-0.9774,-0.9012,0.1864
11156,11.0,0.000068,0.000095,-0.031204,-0.001127,0.002541,0.011835,-0.8685,-0.7950,0.0026,0.00001329,0.00001158,-0.00184470,0.00002443,-0.00014536,0.00825856,-0.1626,0.1596,-9.7401,-0.003113,-0.001969,-0.003773,36.5268,0.0320,91,0,0,0.000251,0.000320,-0.031401,-0.000467,0.002319,0.005507,-0.9799,-0.9038,0.1877
11167,11.0,0.000074,0.000105,-0.031069,-0.001001,0.002421,0.012592,-0.8881,-0.8139,0.0025,0.00001474,0.00001303,-0.00184470,0.00002174,-0.00014277,0.00825817,-0.1627,0.1685,-9.7269,-0.002984,0.000796,-0.002456,36.5268,0.0320,89,0,0,0.000258,0.000327,-0.031342,-0.000448,0.002260,0.006158,-0.9794,-0.9072,0.1873
11178,11.0,0.000082,0.000114,-0.030918,-0.001133,0.002497,0.013490,-0.8906,-0.8151,0.0024,0.00001476,0.00001305,-0.00184470,0.00001465,-0.00013600,0.00820567,-0.1635,0.1795,-9.7177,-0.003476,-0.001675,-0.000948,36.5268,0.0320,89,0,0,0.000266,0.000335,-0.031267,-0.000519,0.002204,0.006991,-0.9806,-0.9066,0.1870
11189,11.0,0.000088,0.000097,-0.031480,-0.000998,0.002203,0.005921,-0.9070,-0.8309,0.0025,0.00001601,0.00001446,-0.00184470,0.00006327,-0.00017969,0.01276490,-0.1433,0.1685,-9.7321,-0.002290,-0.001165,-0.002104,36.5268,0.0320,85,1,0,0.000281,0.000351,-0.031652,-0.000570,0.002106,0.003066,-0.9868,-0.9070,0.3870
11201,12.0,0.000068,0.000108,-0.031398,-0.001180,0.002314,0.006792,-0.9096,-0.8312,0.0021,0.00001603,0.00001446,-0.00184470,0.00006506,-0.00017287,0.01271526,-0.1426,0.1719,-9.7372,-0.003704,-0.000712,-0.004264,36.5268,0.0320,93,0,1,0.000288,0.000334,-0.031610,-0.000515,0.001985,0.003799,-0.9889,-0.9049,0.3863
11212,11.0,0.000075,0.000117,-0.031319,-0.001076,0.002235,0.007546,-0.9253,-0.8378,0.0019,0.00001799,0.00001523,-0.00184470,0.00005948,-0.00017187,0.01271484,-0.1538,0.1905,-9.7163,-0.001137,-0.001745,-0.002131,36.5268,0.0330,89,0,0,0.000270,0.000341,-0.031569,-0.000471,0.002054,0.004401,-0.9901,-0.9035,0.3850
11223,11.0,0.000083,0.000125,-0.032226,-0.001022,0.002372,-0.003331,-0.9294,-0.8414,0.0015,0.00001796,0.00001520,-0.00184470,0.00015629,-0.00027780,0.02106777,-0.1640,0.1996,-9.7186,-0.001308,-0.003288,-0.001210,36.5268,0.0330,95,0,0,0.000286,0.000357,-0.032452,-0.000481,0.001998,-0.004315,-0.9952,-0.9026,0.3845
11234,11.0,0.000145,0.000163,-0.032259,-0.000644,0.002445,-0.002678,-0.9434,-0.8489,0.0014,0.00002017,0.00001607,-0.00184469,0.00012879,-0.00028831,0.02106724,-0.1483,0.1638,-9.7346,-0.004831,-0.002037,0.000968,36.5268,0.0330,83,-1,-2,0.000293,0.000365,-0.032492,-0.000477,0.001999,-0.003589,-0.9986,-0.9056,0.3852
11245,11.0,0.000207,0.000170,-0.032277,-0.000414,0.002584,-0.001887,-0.9457,-0.8517,0.0020,0.00002020,0.00001616,-0.00184469,0.00009862,-0.00027838,0.02098606,-0.1573,0.1763,-9.7238,-0.003944,-0.000632,0.000001,36.5268,0.0320,90,0,-2,0.000407,0.000406,-0.032208,-0.000076,0.001993,0.001461,-0.9968,-0.9105,0.3841
11256,11.0,0.000214,0.000179,-0.032126,-0.000373,0.002511,0.000768,-0.9551,-0.8583,0.0030,0.00002175,0.00001729,-0.00184469,0.00007497,-0.00025077,0.01936309,-0.1543,0.1639,-9.7267,-0.004655,-0.003028,-0.001871,36.4343,0.0320,93,0,0,0.000415,0.000413,-0.032155,-0.000056,0.002010,0.002587,-0.9978,-0.9102,0.3849
11267,11.0,0.000196,0.000160,-0.032080,-0.000553,0.002353,0.001835,-0.9583,-0.8591,0.0038,0.00002182,0.00001727,-0.00184469,0.00007646,-0.00022457,0.01901980,-0.1649,0.1690,-9.7276,-0.000073,-0.002130,-0.003092,36.4343,0.0320,85,1,1,0.000405,0.000426,-0.032089,-0.000212,0.002228,0.003961,-0.9978,-0.9100,0.3840
11278,11.0,0.000175,0.000169,-0.032056,-0.000638,0.002291,0.002545,-0.9621,-0.8653,0.0040,0.00002228,0.00001863,-0.00184470,0.00008780,-0.00021800,0.01901939,-0.1579,0.1625,-9.7168,-0.002148,-0.001939,-0.003100,36.4343,0.0340,94,0,1,0.000387,0.000408,-0.033193,-0.000287,0.002113,-0.008228,-0.9994,-0.9097,0.3839
11290,12.0,0.000154,0.000180,-0.033100,-0.000790,0.002236,-0.009495,-0.9654,-0.8679,0.0041,0.00002233,0.00001860,-0.00184470,0.00024761,-0.00037857,0.02995583,-0.1508,0.1764,-9.7171,-0.001774,-0.003268,0.000224,36.4343,0.0340,94,0,1,0.000368,0.000415,-0.033272,-0.000359,0.002034,-0.007592,-0.9990,-0.9098,0.3479
11301,11.0,0.000191,0.000218,-0.033201,-0.000604,0.002312,-0.008896,-0.9688,-0.8734,0.0035,0.00002317,0.00001972,-0.00184470,0.00022854,-0.00038805,0.02995552,-0.1525,0.1795,-9.7297,-0.002285,-0.000412,-0.003847,36.4343,0.0340,88,-1,-1,0.000331,0.000430,-0.033361,-0.000475,0.002138,-0.005806,-0.9989,-0.9072,0.3499
11312,11.0,0.000199,0.000226,-0.033251,-0.000626,0.002353,-0.007733,-0.9705,-0.8749,0.0034,0.00002321,0.00001975,-0.00184470,0.00021380,-0.00037127,0.02949026,-0.1651,0.1830,-9.7200,-0.002014,-0.001937,-0.001915,36.4343,0.0330,88,0,0,0.000364,0.000464,-0.033160,-0.000346,0.002210,-0.002407,-0.9998,-0.9064,0.3484
11323,11.0,0.000207,0.000235,-0.033143,-0.000581,0.002310,-0.004846,-0.9788,-0.8780,0.0033,0.00002566,0.00002054,-0.00184469,0.00018065,-0.00034040,0.02756265,-0.1526,0.1937,-9.7165,-0.002817,0.001172,-0.001932,36.4343,0.0330,93,0,0,0.000379,0.000479,-0.033156,-0.000366,0.002314,-0.000704,-1.0037,-0.9074,0.3481
11334,11.0,0.000215,0.000243,-0.033176,-0.000564,0.002455,-0.004017,-0.9808,-0.8785,0.0029,0.00002571,0.00002058,-0.00184469,0.00016998,-0.00032730,0.02738948,-0.1435,0.1902,-9.7245,-0.002876,-0.000095,-0.002425,36.4924,0.0330,90,0,0,0.000387,0.000486,-0.033133,-0.000344,0.002471,0.000219,-1.0040,-0.9065,0.3483
11345,11.0,0.000223,0.000195,-0.033217,-0.000523,0.002175,-0.003364,-0.9905,-0.8820,0.0032,0.00002874,0.00002170,-0.00184470,0.00016621,-0.00029664,0.02738916,-0.1687,0.1788,-9.7198,-0.001163,-0.003135,-0.001076,36.4924,0.0340,93,2,0,0.000395,0.000494,-0.033128,-0.000284,0.002464,0.000802,-1.0071,-0.9045,0.3478
11356,11.0,0.000232,0.000203,-0.033648,-0.000499,0.002256,-0.007511,-0.9925,-0.8834,0.0030,0.00002883,0.00002177,-0.00184471,0.00021730,-0.00035288,0.03133035,-0.1492,0.1669,-9.7417,-0.001880,-0.003896,-0.003771,36.4924,0.0340,89,0,0,0.000411,0.000456,-0.033714,-0.000340,0.002293,-0.003965,-1.0102,-0.9065,0.3482
11367,11.0,0.000240,0.000240,-0.033728,-0.000460,0.002325,-0.007055,-0.9967,-0.8865,0.0026,0.00003030,0.00002255,-0.00184470,0.00021248,-0.00036604,0.03132984,-0.1624,0.1810,-9.7516,-0.002519,-0.000661,-0.001680,36.4924,0.0330,86,-1,0,0.000392,0.000464,-0.033752,-0.000373,0.002104,-0.003647,-1.0092,-0.9074,0.3478
11379,12.0,0.000248,0.000250,-0.033788,-0.000520,0.002349,-0.006293,-0.9980,-0.8887,0.0028,0.00003036,0.00002260,-0.00184470,0.00020049,-0.00035125,0.03110776,-0.1622,0.1835,-9.7270,0.000164,-0.003527,-0.000176,36.4924,0.0330,82,0,0,0.000406,0.000530,-0.033308,-0.000272,0.002315,0.002181,-1.0091,-0.9074,0.3477
11391,12.0,0.000256,0.000260,-0.033369,-0.000489,0.002319,-0.000024,-1.0027,-0.8921,0.0029,0.00003212,0.00002336,-0.00184470,0.00012379,-0.00026835,0.02646897,-0.1531,0.1925,-9.7246,-0.003293,-0.002177,-0.001236,36.5849,0.0330,86,0,0,0.000414,0.000538,-0.033283,-0.000308,0.002234,0.002710,-1.0099,-0.9081,0.4148
11402,11.0,0.000264,0.000296,-0.033377,-0.000518,0.002496,0.000335,-1.0044,-0.8937,0.0033,0.00003208,0.00002342,-0.00184469,0.00011631,-0.00027597,0.02656941,-0.1608,0.1765,-9.7418,-0.006164,-0.001976,-0.001210,36.5849,0.0330,91,-1,0,0.000421,0.000545,-0.033269,-0.000258,0.002362,0.003085,-1.0107,-0.9082,0.4150
11413,11.0,0.000272,0.000333,-0.033371,-0.000485,0.002564,0.000879,-1.0105,-0.8972,0.0035,0.00003480,0.00002481,-0.00184468,0.00011356,-0.00029441,0.02656862,-0.1650,0.1947,-9.7302,-0.003144,0.000678,-0.002243,36.5849,0.0330,94,-1,0,0.000437,0.000610,-0.033074,-0.000400,0.002744,0.005526,-1.0147,-0.9107,0.4134
11424,11.0,0.000281,0.000313,-0.033162,-0.000527,0.002537,0.003748,-1.0140,-0.8980,0.0036,0.00003498,0.00002485,-0.00184469,0.00007610,-0.00023112,0.02478459,-0.1674,0.1810,-9.7234,-0.003462,0.000610,-0.003711,36.5849,0.0330,90,1,0,0.000444,0.000644,-0.033016,-0.000421,0.002844,0.006127,-1.0175,-0.9119,0.4129
11435,11.0,0.000289,0.000293,-0.033117,-0.000495,0.002383,0.004310,-1.0187,-0.9007,0.0034,0.00003582,0.00002640,-0.00184470,0.00007389,-0.00020282,0.02478473,-0.1521,0.1566,-9.7294,-0.005090,-0.001248,-0.002866,36.5849,0.0330,88,1,0,0.000452,0.000626,-0.032951,-0.000567,0.002781,0.006767,-1.0183,-0.9119,0.4129
11446,11.0,0.000298,0.000301,-0.033080,-0.000517,0.002408,0.004746,-1.0214,-0.9014,0.0031,0.00003591,0.00002648,-0.00184470,0.00006616,-0.00019263,0.02490868,-0.1562,0.1947,-9.7272,-0.002521,-0.002732,-0.000922,36.5849,0.0330,87,0,0,0.000443,0.000565,-0.032880,-0.000748,0.002549,0.007348,-1.0182,-0.9102,0.4105
11457,11.0,0.000306,0.000310,-0.033006,-0.000487,0.002364,0.005612,-1.0248,-0.9041,0.0026,0.00003654,0.00002776,-0.00184470,0.00005999,-0.00017999,0.02474457,-0.1654,0.1790,-9.7140,-0.004315,-0.002123,-0.003656,36.5849,0.0330,87,0,0,0.000450,0.000572,-0.032816,-0.000718,0.002582,0.007809,-1.0214,-0.9110,0.4107
11468,11.0,0.000371,0.000374,-0.032951,-0.000257,0.002617,0.006140,-1.0263,-0.9070,0.0013,0.00003633,0.00002814,-0.00184466,0.00001322,-0.00020726,0.02483761,-0.1509,0.2091,-9.7205,-0.002269,-0.003320,-0.003604,36.5849,0.0330,89,-2,-2,0.000465,0.000587,-0.032648,-0.000698,0.002533,0.009061,-1.0213,-0.9134,0.4112
11479,11.0,0.000436,0.000410,-0.032879,-0.000028,0.002689,0.006818,-1.0319,-0.9098,0.0010,0.00003969,0.00002853,-0.00184463,-0.00003385,-0.00022981,0.02483749,-0.1502,0.1827,-9.7202,-0.002818,-0.000953,0.002530,36.6087,0.0330,87,-1,-2,0.000523,0.000644,-0.032849,-0.000441,0.002961,0.006493,-1.0208,-0.9153,0.4103
11490,11.0,0.000444,0.000418,-0.032919,-0.000031,0.002790,0.006071,-1.0342,-0.9114,0.0016,0.00003986,0.00002861,-0.00184463,-0.00002419,-0.00023165,0.02583898,-0.1660,0.1977,-9.7385,-0.001760,-0.002493,0.001033,36.6087,0.0330,88,0,0,0.000583,0.000679,-0.032781,-0.000322,0.002956,0.007163,-1.0247,-0.9130,0.5643
11501,11.0,0.000453,0.000427,-0.032849,-0.000010,0.002755,0.006632,-1.0394,-0.9128,0.0022,0.00004349,0.00002850,-0.00184463,-0.00003132,-0.00023391,0.02583867,-0.1553,0.1800,-9.7410,-0.000887,-0.002110,-0.003433,36.6087,0.0330,99,0,0,0.000597,0.000694,-0.032653,-0.000260,0.003056,0.007987,-1.0263,-0.9131,0.5670
11511,10.0,0.000433,0.000432,-0.032802,-0.000079,0.002736,0.006780,-1.0410,-0.9135,0.0033,0.00004364,0.00002837,-0.00184465,-0.00001405,-0.00022123,0.02602785,-0.1509,0.1716,-9.7587,-0.002179,-0.002052,-0.001721,36.6087,0.0330,91,0,1,0.000605,0.000702,-0.032827,-0.000331,0.002975,0.005701,-1.0262,-0.9132,0.5670
11522,11.0,0.000441,0.000441,-0.032870,-0.000051,0.002681,0.005533,-1.0433,-0.9145,0.0036,0.00004476,0.00002778,-0.00184465,-0.00000505,-0.00023242,0.02722847,-0.1432,0.1797,-9.7150,-0.001577,-0.002421,-0.001421,36.6087,0.0330,90,0,0,0.000595,0.000717,-0.032727,-0.000380,0.002816,0.006236,-1.0265,-0.9135,0.5680
11533,11.0,0.000449,0.000421,-0.032806,0.000048,0.002476,0.006029,-1.0452,-0.9162,0.0037,0.00004511,0.00002783,-0.00184467,-0.00001096,-0.00019646,0.02723281,-0.1484,0.1663,-9.7236,-0.000895,-0.003148,-0.002282,36.5506,0.0330,94,1,0,0.000602,0.000699,-0.032663,-0.000333,0.002661,0.006784,-1.0257,-0.9136,0.5679
11544,11.0,0.000430,0.000429,-0.032738,0.000008,0.002415,0.006490,-1.0458,-0.9142,0.0038,0.00004461,0.00002319,-0.00184468,-0.00002044,-0.00017855,0.02723357,-0.1151,0.1885,-9.7558,-0.000276,-0.005901,-0.001609,36.5506,0.0330,89,0,1,0.000610,0.000681,-0.032832,-0.000290,0.002489,0.004694,-1.0251,-0.9145,0.5678
11555,11.0,0.000410,0.000438,-0.032843,0.000068,0.002312,0.005018,-1.0467,-0.9157,0.0034,0.00004479,0.00002305,-0.00184470,0.00001930,-0.00019216,0.02868822,-0.1665,0.1616,-9.6847,-0.000982,-0.000414,-0.006806,36.5506,0.0330,92,0,1,0.000574,0.000696,-0.032732,-0.000413,0.002431,0.005440,-1.0282,-0.9122,0.5666
11566,11.0,0.000362,0.000445,-0.032784,-0.000075,0.002251,0.005649,-1.0464,-0.9139,0.0030,0.00004336,0.00001864,-0.00184472,0.00003387,-0.00017003,0.02868874,-0.1373,0.1769,-9.7214,-0.001261,-0.004415,-0.000900,36.5506,0.0330,89,0,2,0.000582,0.000704,-0.032673,-0.000474,0.002356,0.006190,-1.0277,-0.9139,0.5648
11577,11.0,0.000312,0.000454,-0.032719,-0.000087,0.002228,0.006349,-1.0475,-0.9145,0.0028,0.00004350,0.00001821,-0.00184476,0.00007251,-0.00015741,0.02869342,-0.1444,0.1966,-9.6953,-0.002756,0.001088,-0.002874,36.5506,0.0340,89,0,2,0.000537,0.000710,-0.032610,-0.000497,0.002354,0.006726,-1.0273,-0.9147,0.5654
11588,11.0,0.000321,0.000462,-0.033384,-0.000055,0.002198,-0.001535,-1.0491,-0.9139,0.0013,0.00004413,0.00001620,-0.00184476,0.00014765,-0.00025618,0.03451243,-0.1479,0.1881,-9.6983,-0.001365,-0.000839,-0.005939,36.5506,0.0340,89,0,0,0.000553,0.000725,-0.033509,-0.000645,0.002537,-0.002228,-1.0295,-0.9162,0.4459
11599,11.0,0.000357,0.000471,-0.033397,0.000308,0.002234,-0.000853,-1.0506,-0.9152,0.0007,0.00004428,0.00001653,-0.00184475,0.00012003,-0.00024348,0.03451521,-0.1034,0.1844,-9.7273,-0.002090,0.000116,-0.000334,36.5506,0.0340,94,0,-1,0.000561,0.000734,-0.033528,-0.000620,0.002552,-0.001653,-1.0302,-0.9163,0.4436
11610,11.0,0.000366,0.000480,-0.033403,0.000378,0.002202,-0.000222,-1.0525,-0.9112,-0.0002,0.00004490,0.00001015,-0.00184473,0.00007918,-0.00023358,0.03451621,-0.1404,0.1578,-9.7411,-0.002487,-0.000980,-0.001286,36.4924,0.0330,92,0,0,0.000593,0.000742,-0.033543,-0.000151,0.002622,-0.001202,-1.0301,-0.9157,0.4438
11621,11.0,0.000373,0.000488,-0.033164,0.000662,0.002118,0.003073,-1.0543,-0.9118,-0.0005,0.00004501,0.00001018,-0.00184474,0.00004841,-0.00018687,0.03267839,-0.1286,0.1747,-9.7543,-0.003078,-0.001989,-0.002440,36.4924,0.0330,94,0,0,0.000608,0.000757,-0.033162,-0.000177,0.002457,0.003465,-1.0288,-0.9158,0.4427
11632,11.0,0.000383,0.000497,-0.033127,0.000737,0.002063,0.003546,-1.0547,-0.9079,-0.0003,0.00004336,0.00000236,-0.00184472,0.00000197,-0.00016451,0.03267985,-0.1460,0.1815,-9.7048,-0.000317,-0.001868,0.000094,36.4924,0.0330,92,0,0,0.000616,0.000765,-0.033125,-0.000065,0.002404,0.003770,-1.0293,-0.9144,0.4423
11643,11.0,0.000419,0.000477,-0.033064,0.000962,0.001847,0.004290,-1.0568,-0.9090,0.0001,0.00004380,0.00000265,-0.00184473,-0.00002245,-0.00012819,0.03251447,-0.1553,0.1761,-9.7226,-0.002866,0.000731,-0.001701,36.4924,0.0330,86,1,-1,0.000623,0.000772,-0.033058,-0.000069,0.002494,0.004567,-1.0284,-0.9146,0.4440
11654,11.0,0.000428,0.000486,-0.033001,0.000981,0.001807,0.004966,-1.0579,-0.9080,0.0005,0.00004270,-0.00000071,-0.00184473,-0.00004215,-0.00010935,0.03241676,-0.1492,0.1764,-9.7279,-0.003322,-0.002669,-0.000381,36.4924,0.0330,87,0,0,0.000665,0.000763,-0.032927,0.000012,0.002106,0.005781,-1.0301,-0.9148,0.4437
11665,11.0,0.000437,0.000494,-0.032927,0.000983,0.001748,0.005778,-1.0593,-0.9090,0.0010,0.00004283,-0.00000073,-0.00184473,-0.00004235,-0.00009776,0.03229126,-0.1643,0.1782,-9.7204,-0.001303,-0.003203,-0.002779,36.4924,0.0330,90,0,0,0.000672,0.000770,-0.032866,0.000017,0.002059,0.006283,-1.0305,-0.9151,0.4434
11676,11.0,0.000472,0.000529,-0.032860,0.001054,0.001810,0.006311,-1.0607,-0.9108,0.0007,0.00004218,-0.00000028,-0.00184471,-0.00006172,-0.00010780,0.03229140,-0.1567,0.1900,-9.7346,-0.004131,-0.003155,-0.002657,36.4924,0.0320,89,-1,-1,0.000680,0.000777,-0.032801,0.000035,0.002089,0.006829,-1.0310,-0.9160,0.4427
11687,11.0,0.000453,0.000537,-0.032338,0.000968,0.001776,0.012133,-1.0623,-0.9122,0.0018,0.00004229,-0.00000053,-0.00184473,-0.00008949,-0.00003513,0.02897728,-0.1478,0.1815,-9.7290,-0.000041,-0.002236,0.003117,36.4924,0.0320,84,0,1,0.000694,0.000840,-0.032146,0.000132,0.002294,0.012818,-1.0300,-0.9179,0.3326
11698,11.0,0.000462,0.000517,-0.032201,0.000947,0.001676,0.012679,-1.0652,-0.9138,0.0026,0.00004418,-0.00000029,-0.00184476,-0.00008622,-0.00001133,0.02897752,-0.1602,0.1961,-9.7295,-0.003965,-0.000961,-0.001280,36.4924,0.0320,84,1,0,0.000659,0.000854,-0.031857,0.000043,0.002404,0.014084,-1.0303,-0.9172,0.3345
11709,11.0,0.000471,0.000525,-0.032038,0.000930,0.001626,0.013466,-1.0672,-0.9152,0.0032,0.00004431,-0.00000031,-0.00184476,-0.00008741,0.00000004,0.02882133,-0.1628,0.1523,-9.7253,-0.003411,-0.002754,-0.003419,36.4924,0.0330,90,0,0,0.000666,0.000836,-0.032480,0.000049,0.002323,0.006010,-1.0321,-0.9170,0.3349
11720,11.0,0.000479,0.000505,-0.032493,0.000904,0.001494,0.006831,-1.0684,-0.9165,0.0040,0.00004264,-0.00000007,-0.00184480,-0.00001466,-0.00003808,0.03318801,-0.1613,0.1758,-9.7489,-0.003380,-0.002042,-0.004033,36.4924,0.0330,90,1,0,0.000674,0.000844,-0.032401,0.000000,0.002074,0.006641,-1.0323,-0.9177,0.3343
11731,11.0,0.000488,0.000514,-0.032399,0.000844,0.001417,0.007486,-1.0709,-0.9176,0.0035,0.00004275,-0.00000007,-0.00184481,-0.00001609,-0.00002935,0.03306878,-0.1620,0.1854,-9.7250,-0.003943,-0.001125,-0.002712,36.4924,0.0330,86,0,0,0.000690,0.000833,-0.032261,-0.000080,0.001982,0.007479,-1.0323,-0.9189,0.3331
11742,11.0,0.000497,0.000548,-0.032314,0.000830,0.001446,0.008008,-1.0708,-0.9186,0.0033,0.00003810,0.00000011,-0.00184481,-0.00001433,-0.00001929,0.03306910,-0.1452,0.1707,-9.7077,-0.002197,-0.000051,0.000869,36.4924,0.0320,89,-1,0,0.000698,0.000841,-0.032054,-0.000086,0.001958,0.009432,-1.0336,-0.9187,0.3327
11753,11.0,0.000505,0.000556,-0.032075,0.000839,0.001364,0.010222,-1.0726,-0.9197,0.0029,0.00003820,0.00000011,-0.00184482,-0.00003030,0.00000671,0.03202721,-0.1541,0.1773,-9.7409,-0.000714,-0.003940,-0.004366,36.4581,0.0320,89,0,0,0.000704,0.000873,-0.031957,0.000003,0.001964,0.010054,-1.0334,-0.9175,0.3336
11764,11.0,0.000514,0.000592,-0.031960,0.000825,0.001402,0.010765,-1.0722,-0.9209,0.0030,0.00003399,0.00000020,-0.00184481,-0.00002929,0.00001248,0.03202745,-0.1705,0.1584,-9.7296,-0.002599,-0.001900,-0.001083,36.4581,0.0330,89,-1,0,0.000719,0.000913,-0.031710,0.000047,0.001857,0.011219,-1.0326,-0.9178,0.3337
11775,11.0,0.000551,0.000629,-0.031805,0.000827,0.001323,0.011768,-1.0732,-0.9224,0.0026,0.00003364,0.00000065,-0.00184477,-0.00005706,-0.00000163,0.03178588,-0.1907,0.1689,-9.7060,-0.002461,-0.001110,-0.002761,36.4581,0.0330,88,-1,-1,0.000752,0.000946,-0.032411,0.000087,0.001860,0.002652,-1.0315,-0.9189,0.3340
11786,11.0,0.000559,0.000637,-0.032395,0.000770,0.001257,0.003828,-1.0723,-0.9251,0.0026,0.00002812,0.00000420,-0.00184481,0.00004534,-0.00005745,0.03679447,-0.1559,0.1697,-9.7193,-0.001735,-0.002059,-0.003513,36.4581,0.0330,85,0,0,0.000786,0.000980,-0.032381,-0.000101,0.001875,0.003267,-1.0311,-0.9189,0.3335
11797,11.0,0.000569,0.000646,-0.032324,0.000641,0.001102,0.004670,-1.0741,-0.9261,0.0024,0.00002819,0.00000423,-0.00184481,0.00004100,-0.00005038,0.03661009,-0.1621,0.1818,-9.7348,-0.004369,-0.001201,-0.001488,36.4581,0.0330,93,0,0,0.000802,0.001021,-0.032263,-0.000165,0.001916,0.004667,-1.0330,-0.9179,0.5045
11808,11.0,0.000577,0.000653,-0.032270,0.000606,0.001075,0.005179,-1.0750,-0.9280,0.0025,0.00002597,0.00000675,-0.00184483,0.00005491,-0.00003276,0.03661021,-0.1528,0.1917,-9.7363,-0.001533,-0.002252,-0.000807,36.4343,0.0320,91,0,0,0.000810,0.001028,-0.032080,-0.000162,0.001911,0.006606,-1.0349,-0.9181,0.5045
11819,11.0,0.000585,0.000634,-0.032065,0.000660,0.000895,0.007354,-1.0775,-0.9291,0.0027,0.00002652,0.00000675,-0.00184486,0.00003766,0.00001175,0.03561965,-0.1437,0.1602,-9.7251,-0.005601,-0.001343,-0.002002,36.4343,0.0320,93,1,0,0.000824,0.001043,-0.031902,-0.000023,0.001958,0.007827,-1.0360,-0.9165,0.5053
11831,12.0,0.000594,0.000615,-0.031974,0.000659,0.000798,0.007747,-1.0802,-0.9301,0.0029,0.00002595,0.00000647,-0.00184489,0.00003475,0.00004335,0.03562025,-0.1754,0.1946,-9.7585,-0.003497,-0.001149,-0.003382,36.4343,0.0320,85,1,0,0.000831,0.001025,-0.031822,0.000105,0.001794,0.008182,-1.0370,-0.9165,0.5054
11842,11.0,0.000603,0.000595,-0.031843,0.000702,0.000685,0.008659,-1.0825,-0.9313,0.0032,0.00002649,0.00000648,-0.00184491,0.00002895,0.00007344,0.03532112,-0.1482,0.1835,-9.7252,-0.001475,-0.002770,-0.001130,36.4343,0.0330,91,1,0,0.000839,0.001007,-0.031671,0.000055,0.001779,0.009125,-1.0391,-0.9178,0.5046
11853,11.0,0.000612,0.000603,-0.032435,0.000744,0.000691,0.000926,-1.0845,-0.9308,0.0026,0.00002529,0.00000256,-0.00184489,0.00007898,-0.00000691,0.03988988,-0.1299,0.1934,-9.7588,-0.004853,0.000520,-0.002380,36.4343,0.0330,89,0,0,0.000854,0.000996,-0.032459,0.000173,0.001714,0.000552,-1.0397,-0.9185,0.5036
11864,11.0,0.000564,0.000582,-0.032390,0.000619,0.000663,0.001585,-1.0866,-0.9312,0.0028,0.00002585,0.00000145,-0.00184497,0.00012283,0.00002144,0.03966450,-0.1621,0.1927,-9.7313,-0.001072,-0.003871,-0.004060,36.4343,0.0330,93,1,2,0.000861,0.001003,-0.032453,0.000370,0.001821,0.000686,-1.0411,-0.9177,0.5033
11875,11.0,0.000600,0.000590,-0.032371,0.000745,0.000682,0.001959,-1.0882,-0.9319,0.0020,0.00002652,-0.00000161,-0.00184492,0.00007551,0.00001723,0.03966517,-0.1628,0.1820,-9.7184,-0.001432,-0.002979,-0.001369,36.4343,0.0330,92,0,-1,0.000851,0.000992,-0.032740,0.000374,0.001816,-0.001746,-1.0430,-0.9186,0.5029
11886,11.0,0.000608,0.000597,-0.032675,0.000846,0.000697,-0.001444,-1.0901,-0.9334,0.0018,0.00002650,-0.00000157,-0.00184492,0.00011157,-0.00002369,0.04180265,-0.1430,0.1786,-9.7014,-0.004662,-0.003304,-0.001158,36.4343,0.0330,89,0,0,0.000858,0.001024,-0.032755,0.000386,0.001903,-0.001318,-1.0422,-0.9201,0.4707
11897,11.0,0.000617,0.000605,-0.032689,0.000844,0.000694,-0.001012,-1.0913,-0.9353,0.0017,0.00002531,-0.00000260,-0.00184492,0.00010585,-0.00001614,0.04180291,-0.1631,0.1828,-9.7525,-0.002627,-0.003836,-0.001807,36.5162,0.0330,89,0,0,0.000865,0.001031,-0.032750,0.000485,0.001899,-0.000519,-1.0427,-0.9210,0.4714
11908,11.0,0.000626,0.000612,-0.032685,0.000855,0.000668,-0.000389,-1.0931,-0.9371,0.0018,0.00002531,-0.00000262,-0.00184492,0.00010515,-0.00001473,0.04172181,-0.1636,0.1909,-9.7157,-0.002874,-0.001504,-0.002499,36.5162,0.0330,89,0,0,0.000932,0.001071,-0.032908,0.000619,0.001916,-0.001476,-1.0411,-0.9235,0.4709
11919,11.0,0.000635,0.000620,-0.032853,0.000868,0.000633,-0.001870,-1.0940,-0.9385,0.0017,0.00002106,-0.00000509,-0.00184492,0.00010835,-0.00000958,0.04278595,-0.1504,0.1579,-9.7227,-0.002593,-0.004424,-0.003012,36.5162,0.0330,94,0,0,0.000939,0.001079,-0.032908,0.000598,0.001944,-0.000857,-1.0424,-0.9236,0.4711
11931,12.0,0.000616,0.000572,-0.032863,0.000855,0.000345,-0.001401,-1.0964,-0.9400,0.0025,0.00002229,-0.00000577,-0.00184501,0.00013241,0.00003758,0.04272299,-0.1359,0.1767,-9.7496,-0.001712,-0.001445,0.000477,36.5162,0.0330,90,2,1,0.000947,0.001087,-0.032914,0.000678,0.001790,-0.000421,-1.0425,-0.9247,0.4708
11942,11.0,0.000568,0.000551,-0.032877,0.000716,0.000216,-0.001018,-1.0967,-0.9397,0.0034,0.00001751,-0.00001150,-0.00184510,0.00015387,0.00009027,0.04272370,-0.1544,0.1775,-9.7309,-0.001714,-0.002488,-0.001002,36.5162,0.0330,83,1,2,0.000911,0.000998,-0.032957,0.000697,0.001347,-0.000113,-1.0420,-0.9248,0.4713
11953,11.0,0.000576,0.000560,-0.032931,0.000834,0.000046,-0.001220,-1.0980,-0.9414,0.0036,0.00001734,-0.00001152,-0.00184509,0.00015901,0.00007882,0.04300303,-0.1569,0.1667,-9.7397,-0.002851,-0.002236,-0.002893,36.4924,0.0330,90,0,0,0.000868,0.000980,-0.032956,0.000571,0.001222,0.000271,-1.0412,-0.9243,0.4720
11964,11.0,0.000557,0.000567,-0.032943,0.000789,-0.000016,-0.000916,-1.0972,-0.9413,0.0041,0.00000931,-0.00001681,-0.00184513,0.00015488,0.00012024,0.04300398,-0.1570,0.1614,-9.7266,-0.001304,-0.002895,-0.002584,36.4924,0.0320,87,0,1,0.000857,0.000995,-0.032913,0.000615,0.000966,0.001363,-1.0412,-0.9237,0.4740
11975,11.0,0.000565,0.000575,-0.032929,0.000841,-0.000158,-0.000251,-1.0984,-0.9430,0.0039,0.00000908,-0.00001683,-0.00184512,0.00015343,0.00011519,0.04286780,-0.1535,0.1813,-9.7112,-0.002449,-0.003054,-0.001849,36.4924,0.0320,88,0,0,0.000864,0.001002,-0.032293,0.000646,0.000888,0.008204,-1.0408,-0.9237,0.4734
11985,10.0,0.000654,0.000636,-0.032419,0.001119,-0.000038,0.006119,-1.0968,-0.9448,0.0027,-0.00000089,-0.00001842,-0.00184498,0.00001129,0.00017465,0.03970616,-0.1476,0.1691,-9.7329,-0.001224,-0.003655,-0.002508,36.4924,0.0320,85,-2,-3,0.000872,0.001009,-0.032209,0.000680,0.000909,0.008703,-1.0408,-0.9236,0.4734
11996,11.0,0.000717,0.000672,-0.032333,0.001340,-0.000083,0.006762,-1.0977,-0.9473,0.0021,-0.00000182,-0.00001714,-0.00184488,-0.00003202,0.00014630,0.03960484,-0.1621,0.1792,-9.7357,-0.003388,-0.002437,0.000064,36.4924,0.0320,90,-1,-2,0.001010,0.001098,-0.031997,0.001156,0.001069,0.009930,-1.0396,-0.9255,0.4478
12007,11.0,0.000726,0.000679,-0.032256,0.001364,-0.000103,0.007248,-1.0981,-0.9478,0.0019,-0.00000690,-0.00002180,-0.00184488,-0.00005406,0.00016849,0.03960565,-0.1478,0.1813,-9.7140,-0.003216,-0.001127,-0.004053,36.4924,0.0330,91,0,0,0.001018,0.001106,-0.032564,0.001212,0.000973,0.003197,-1.0399,-0.9256,0.4475
12018,11.0,0.000706,0.000687,-0.032607,0.001324,-0.000179,0.002542,-1.1000,-0.9488,0.0026,-0.00000726,-0.00002280,-0.00184491,0.00001874,0.00010927,0.04224014,-0.1638,0.1801,-9.7494,-0.005745,-0.001937,0.001828,36.4924,0.0330,94,0,1,0.001033,0.001120,-0.032473,0.001293,0.000970,0.004074,-1.0402,-0.9253,0.4465
12029,11.0,0.000687,0.000694,-0.032577,0.001221,-0.000171,0.002940,-1.1017,-0.9494,0.0036,-0.00001015,-0.00002465,-0.00184495,0.00004117,0.00011710,0.04223996,-0.1689,0.1920,-9.7149,-0.002327,-0.002743,-0.000887,36.4924,0.0330,93,0,1,0.001016,0.001127,-0.032431,0.001189,0.001005,0.004301,-1.0419,-0.9260,0.4486
12040,11.0,0.000696,0.000702,-0.032522,0.001211,-0.000212,0.003559,-1.1042,-0.9506,0.0042,-0.00001041,-0.00002478,-0.00184494,0.00004307,0.00011142,0.04211010,-0.1656,0.1729,-9.7475,-0.005249,-0.001851,-0.000132,36.4924,0.0320,93,0,0,0.000999,0.001133,-0.032135,0.001013,0.001186,0.007492,-1.0418,-0.9259,0.4495
12051,11.0,0.000677,0.000709,-0.032212,0.001099,-0.000204,0.007051,-1.1060,-0.9514,0.0058,-0.00001308,-0.00002493,-0.00184499,0.00004693,0.00014917,0.04050470,-0.1591,0.1921,-9.7231,-0.001635,-0.000339,-0.000924,36.4924,0.0320,93,0,1,0.000990,0.001146,-0.031959,0.000823,0.001271,0.008367,-1.0426,-0.9260,0.4508
12062,11.0,0.000685,0.000689,-0.032116,0.001108,-0.000310,0.007720,-1.1082,-0.9526,0.0065,-0.00001258,-0.00002504,-0.00184501,0.00004836,0.00016531,0.04040688,-0.1475,0.1786,-9.7073,-0.003844,-0.002883,-0.002103,36.4924,0.0320,85,1,0,0.000972,0.001153,-0.031873,0.000716,0.001307,0.008733,-1.0431,-0.9261,0.4513
12074,12.0,0.000695,0.000696,-0.032020,0.001136,-0.000337,0.008216,-1.1096,-0.9525,0.0069,-0.00001833,-0.00002883,-0.00184501,0.00002968,0.00018832,0.04040764,-0.1508,0.1730,-9.7238,-0.004497,0.000819,-0.001924,36.4924,0.0320,90,0,0,0.000980,0.001135,-0.031907,0.000784,0.001250,0.007916,-1.0438,-0.9267,0.4515
12085,11.0,0.000649,0.000677,-0.031949,0.001017,-0.000514,0.008499,-1.1119,-0.9523,0.0073,-0.00001789,-0.00003061,-0.00184511,0.00008049,0.00019771,0.04053731,-0.1686,0.1652,-9.7154,-0.003846,-0.000568,-0.003855,36.4924,0.0320,93,1,2,0.000946,0.001125,-0.031721,0.000585,0.000977,0.009044,-1.0459,-0.9245,0.5646
12095,10.0,0.000683,0.000685,-0.031862,0.001127,-0.000545,0.008974,-1.1121,-0.9520,0.0067,-0.00002678,-0.00003445,-0.00184508,0.00003320,0.00023715,0.04053882,-0.1490,0.1782,-9.7303,-0.002211,-0.000028,-0.002572,36.5506,0.0320,92,0,-1,0.000979,0.001132,-0.031630,0.000654,0.000928,0.009445,-1.0458,-0.9240,0.5638
12106,11.0,0.000692,0.000693,-0.031761,0.001176,-0.000656,0.009462,-1.1136,-0.9523,0.0064,-0.00002725,-0.00003459,-0.00184506,0.00003708,0.00022464,0.04054421,-0.1577,0.1853,-9.7155,0.000065,-0.002685,-0.000655,36.5506,0.0320,90,0,0,0.001011,0.001140,-0.031534,0.000820,0.000934,0.009785,-1.0460,-0.9233,0.5633
12117,11.0,0.000700,0.000728,-0.031836,0.001207,-0.000599,0.007879,-1.1132,-0.9522,0.0062,-0.00003570,-0.00003968,-0.00184502,0.00002961,0.00021152,0.04159618,-0.1388,0.1791,-9.7055,-0.002886,-0.002446,0.000175,36.5506,0.0320,95,-1,0,0.001050,0.001154,-0.031730,0.000921,0.000861,0.006799,-1.0458,-0.9239,0.5642
12128,11.0,0.000708,0.000736,-0.031748,0.001356,-0.000687,0.008386,-1.1143,-0.9530,0.0066,-0.00003619,-0.00003989,-0.00184501,0.00003511,0.00019898,0.04160026,-0.1419,0.1679,-9.7237,-0.003072,-0.000610,-0.001448,36.5506,0.0320,91,0,0,0.001058,0.001186,-0.031659,0.000994,0.000909,0.007273,-1.0455,-0.9235,0.5647
12139,11.0,0.000716,0.000743,-0.031652,0.001399,-0.000706,0.008955,-1.1137,-0.9531,0.0071,-0.00004299,-0.00004655,-0.00184500,0.00000282,0.00022398,0.04160126,-0.1653,0.1824,-9.7109,0.000704,-0.003005,-0.001989,36.5506,0.0320,91,0,0,0.001065,0.001194,-0.031586,0.001063,0.000774,0.007597,-1.0452,-0.9230,0.5657
12150,11.0,0.000724,0.000750,-0.031791,0.001508,-0.000778,0.006646,-1.1146,-0.9545,0.0077,-0.00004361,-0.00004686,-0.00184499,0.00003256,0.00018433,0.04296442,-0.1542,0.1858,-9.7395,-0.001458,-0.003579,0.000227,36.5506,0.0320,92,0,0,0.001081,0.001208,-0.031749,0.000883,0.000884,0.005812,-1.0442,-0.9219,0.5656
12161,11.0,0.000733,0.000784,-0.031716,0.001530,-0.000702,0.007012,-1.1138,-0.9547,0.0081,-0.00005025,-0.00005191,-0.00184495,0.00001157,0.00017971,0.04296470,-0.1567,0.1881,-9.7496,-0.000058,-0.000580,-0.000028,36.5506,0.0320,93,-1,0,0.001088,0.001215,-0.031690,0.000848,0.000923,0.006231,-1.0447,-0.9223,0.5666
12172,11.0,0.000767,0.000792,-0.031638,0.001597,-0.000701,0.007336,-1.1143,-0.9560,0.0084,-0.00005077,-0.00005130,-0.00184490,-0.00000251,0.00016750,0.04297054,-0.1707,0.1889,-9.7332,-0.003833,-0.000124,-0.002179,36.5506,0.0310,90,0,-1,0.001096,0.001246,-0.031626,0.000811,0.000993,0.006490,-1.0433,-0.9226,0.5675
12183,11.0,0.000776,0.000799,-0.031246,0.001600,-0.000714,0.011271,-1.1146,-0.9561,0.0088,-0.00005655,-0.00005469,-0.00184490,-0.00004228,0.00022046,0.04124387,-0.1501,0.1609,-9.7192,-0.003011,-0.000865,-0.003475,36.5506,0.0310,88,0,0,0.001158,0.001260,-0.031112,0.001068,0.001062,0.011149,-1.0427,-0.9233,0.5672
12194,11.0,0.000758,0.000807,-0.031122,0.001527,-0.000814,0.011560,-1.1163,-0.9560,0.0089,-0.00005714,-0.00005597,-0.00184494,-0.00001345,0.00020694,0.04124846,-0.1632,0.1696,-9.7523,-0.005546,-0.000390,-0.002330,36.5506,0.0310,89,0,1,0.001165,0.001268,-0.030997,0.001121,0.000949,0.011673,-1.0422,-0.9213,0.6031
12205,11.0,0.000739,0.000814,-0.030993,0.001444,-0.000872,0.011888,-1.1166,-0.9556,0.0091,-0.00006774,-0.00005979,-0.00184501,-0.00000006,0.00025098,0.04124907,-0.1521,0.1727,-9.7398,-0.001414,-0.001181,-0.001363,36.5506,0.0320,93,0,1,0.001131,0.001281,-0.031496,0.001036,0.000891,0.004139,-1.0445,-0.9196,0.6021
12216,11.0,0.000774,0.000822,-0.031478,0.001597,-0.001022,0.004977,-1.1184,-0.9565,0.0089,-0.00006866,-0.00005923,-0.00184495,0.00004213,0.00016921,0.04464664,-0.1511,0.1827,-9.7365,-0.003148,-0.002518,0.000238,36.5506,0.0320,91,0,-1,0.001163,0.001289,-0.031454,0.001188,0.000842,0.004382,-1.0444,-0.9201,0.6026
12227,11.0,0.000783,0.000802,-0.031422,0.001612,-0.001145,0.005218,-1.1190,-0.9569,0.0096,-0.00007751,-0.00006390,-0.00184500,0.00002452,0.00022796,0.04464800,-0.1580,0.1757,-9.7341,-0.003353,-0.003622,-0.001375,36.5506,0.0310,91,1,0,0.001228,0.001304,-0.031362,0.001343,0.000761,0.004797,-1.0466,-0.9199,0.6038
12238,11.0,0.000764,0.000784,-0.031352,0.001623,-0.001360,0.005630,-1.1206,-0.9575,0.0104,-0.00007732,-0.00006529,-0.00184506,0.00005257,0.00023298,0.04458236,-0.1480,0.1614,-9.7415,-0.002299,0.000901,-0.002045,36.5162,0.0310,91,1,1,0.001236,0.001286,-0.031113,0.001321,0.000663,0.007273,-1.0473,-0.9204,0.6045
12249,11.0,0.000773,0.000791,-0.031125,0.001657,-0.001431,0.007805,-1.1201,-0.9572,0.0112,-0.00009054,-0.00007163,-0.00184508,0.00001101,0.00030355,0.04370162,-0.1561,0.1594,-9.7411,-0.002321,-0.000265,-0.000735,36.5162,0.0310,95,0,0,0.001220,0.001270,-0.031039,0.001305,0.000433,0.007504,-1.0476,-0.9188,0.6046
12260,11.0,0.000781,0.000799,-0.031029,0.001712,-0.001660,0.008202,-1.1213,-0.9579,0.0110,-0.00009154,-0.00007204,-0.00184506,0.00001869,0.00028429,0.04365189,-0.1604,0.1588,-9.7329,-0.001456,-0.001902,-0.003969,36.5162,0.0310,91,0,0,0.001234,0.001285,-0.030868,0.001339,0.000152,0.008387,-1.0464,-0.9178,0.6052
12271,11.0,0.000789,0.000806,-0.030937,0.001734,-0.001760,0.008466,-1.1201,-0.9572,0.0112,-0.00010850,-0.00007761,-0.00184509,-0.00000246,0.00035420,0.04365351,-0.1552,0.1764,-9.7436,-0.004262,-0.000774,-0.001604,36.5162,0.0310,88,0,0,0.001242,0.001291,-0.030907,0.001322,0.000088,0.007322,-1.0455,-0.9177,0.6049
12282,11.0,0.000797,0.000814,-0.030916,0.001771,-0.001881,0.007904,-1.1211,-0.9577,0.0109,-0.00010967,-0.00007809,-0.00184507,0.00001313,0.00032455,0.04404602,-0.1561,0.1972,-9.7275,-0.000897,-0.001329,-0.002318,36.5162,0.0310,93,0,0,0.001249,0.001298,-0.030823,0.001317,0.000029,0.007716,-1.0464,-0.9171,0.6051
12293,11.0,0.000806,0.000820,-0.030827,0.001772,-0.001913,0.008372,-1.1208,-0.9582,0.0111,-0.00012156,-0.00008243,-0.00184508,-0.00000026,0.00036371,0.04404693,-0.1578,0.1611,-9.6786,-0.003931,-0.003775,0.000287,36.5162,0.0310,93,0,0,0.001263,0.001312,-0.030649,0.001474,0.000072,0.008251,-1.0456,-0.9176,0.5122
12304,11.0,0.000866,0.000880,-0.030721,0.001972,-0.001794,0.008963,-1.1217,-0.9596,0.0107,-0.00012491,-0.00008074,-0.00184489,-0.00003256,0.00030200,0.04398434,-0.1560,0.1867,-9.7372,-0.002123,-0.000730,-0.000733,36.5162,0.0310,93,-2,-2,0.001271,0.001318,-0.030819,0.001457,0.000034,0.005965,-1.0451,-0.9186,0.5127
12315,11.0,0.000875,0.000887,-0.030822,0.001965,-0.001757,0.007137,-1.1221,-0.9603,0.0114,-0.00013068,-0.00008534,-0.00184487,-0.00002674,0.00028661,0.04504676,-0.1607,0.1927,-9.7127,-0.001598,-0.003779,0.000352,36.5162,0.0310,93,0,0,0.001325,0.001373,-0.030760,0.001720,0.000209,0.005901,-1.0452,-0.9186,0.5123
12326,11.0,0.000857,0.000867,-0.030731,0.001888,-0.001904,0.007756,-1.1238,-0.9614,0.0122,-0.00013070,-0.00008702,-0.00184494,0.00000301,0.00028672,0.04499900,-0.1656,0.1709,-9.7330,-0.004147,-0.001372,-0.004435,36.5162,0.0310,92,1,1,0.001341,0.001362,-0.030621,0.001600,0.000144,0.006948,-1.0454,-0.9200,0.5117
12337,11.0,0.000839,0.000847,-0.030644,0.001804,-0.001962,0.008146,-1.1248,-0.9615,0.0127,-0.00013687,-0.00009200,-0.00184502,0.00001399,0.00031967,0.04499941,-0.1542,0.1788,-9.7236,-0.004517,-0.000829,-0.002020,36.5162,0.0310,92,1,1,0.001325,0.001344,-0.030813,0.001479,0.000037,0.004299,-1.0453,-0.9202,0.5104
12348,11.0,0.000847,0.000855,-0.030784,0.001791,-0.002052,0.005875,-1.1262,-0.9623,0.0127,-0.00013834,-0.00009256,-0.00184499,0.00004319,0.00027358,0.04619948,-0.1671,0.1603,-9.7182,-0.001296,-0.000121,-0.000285,36.5162,0.0310,89,0,0,0.001292,0.001333,-0.030708,0.001253,-0.000062,0.005214,-1.0463,-0.9191,0.5103
12359,11.0,0.000856,0.000862,-0.030718,0.001792,-0.002097,0.006262,-1.1263,-0.9620,0.0129,-0.00015213,-0.00009672,-0.00184501,0.00003130,0.00031996,0.04620048,-0.1477,0.1785,-9.7286,-0.004101,-0.000430,-0.001164,36.5162,0.0310,90,0,0,0.001300,0.001340,-0.030639,0.001194,-0.000167,0.005818,-1.0457,-0.9185,0.5103
12371,12.0,0.000866,0.000867,-0.030641,0.001825,-0.002264,0.006663,-1.1280,-0.9625,0.0132,-0.00015359,-0.00009725,-0.00184498,0.00004059,0.00029521,0.04620727,-0.1648,0.1647,-9.7345,-0.002285,-0.002409,-0.001187,36.5506,0.0310,89,0,0,0.001307,0.001347,-0.030580,0.001222,-0.000198,0.006145,-1.0456,-0.9172,0.5110
12382,11.0,0.000874,0.000874,-0.030800,0.001830,-0.002333,0.004350,-1.1267,-0.9626,0.0140,-0.00017058,-0.00010229,-0.00184501,0.00004482,0.00033239,0.04739370,-0.1504,0.1675,-9.7156,-0.000776,-0.003032,-0.002273,36.5506,0.0310,89,0,0,0.001322,0.001360,-0.030793,0.001141,-0.000281,0.003379,-1.0429,-0.9198,0.5099
12393,11.0,0.000909,0.000908,-0.030751,0.001957,-0.002367,0.004715,-1.1275,-0.9638,0.0132,-0.00017335,-0.00010166,-0.00184488,0.00003482,0.00028681,0.04739840,-0.1625,0.1828,-9.7233,-0.002116,-0.001370,-0.004283,36.5506,0.0310,86,-1,-1,0.001329,0.001367,-0.030756,0.001226,-0.000332,0.003962,-1.0416,-0.9206,0.4516
12404,11.0,0.000917,0.000915,-0.030697,0.001989,-0.002371,0.005060,-1.1272,-0.9637,0.0130,-0.00018437,-0.00010933,-0.00184486,0.00000622,0.00031416,0.04739932,-0.1365,0.1954,-9.7403,-0.004247,0.000376,-0.001037,36.5506,0.0310,84,0,0,0.001367,0.001404,-0.030866,0.001290,-0.000335,0.002597,-1.0406,-0.9208,0.4518
12415,11.0,0.000899,0.000922,-0.030832,0.001980,-0.002404,0.003128,-1.1286,-0.9640,0.0127,-0.00018611,-0.00011129,-0.00184488,0.00005318,0.00027010,0.04836063,-0.1682,0.1765,-9.7479,-0.004381,-0.000822,-0.002111,36.5506,0.0310,88,0,1,0.001351,0.001411,-0.030840,0.001279,-0.000258,0.002763,-1.0411,-0.9188,0.4523
12426,11.0,0.000907,0.000902,-0.030796,0.001993,-0.002423,0.003395,-1.1301,-0.9632,0.0122,-0.00019046,-0.00011708,-0.00184488,0.00003508,0.00028700,0.04836120,-0.1593,0.1931,-9.7259,-0.003287,0.001028,-0.002412,36.5506,0.0310,95,1,0,0.001334,0.001417,-0.030812,0.001120,-0.000219,0.002903,-1.0417,-0.9182,0.4519
12437,11.0,0.000942,0.000936,-0.030759,0.002103,-0.002317,0.003584,-1.1321,-0.9638,0.0116,-0.00019335,-0.00011649,-0.00184475,0.00002635,0.00024240,0.04836731,-0.1675,0.1831,-9.7458,-0.005038,-0.003945,-0.002893,36.5506,0.0310,92,-1,-1,0.001350,0.001406,-0.030875,0.001061,-0.000181,0.002375,-1.0434,-0.9169,0.4521
12448,11.0,0.000950,0.000942,-0.030866,0.002047,-0.002316,0.002137,-1.1325,-0.9647,0.0115,-0.00020405,-0.00011661,-0.00184479,0.00005252,0.00025301,0.04909960,-0.1696,0.1653,-9.7129,-0.000381,-0.002546,-0.002779,36.5506,0.0310,86,0,0,0.001381,0.001436,-0.030850,0.001083,-0.000131,0.002613,-1.0439,-0.9186,0.4519
12459,11.0,0.000959,0.000950,-0.030842,0.002052,-0.002439,0.002480,-1.1341,-0.9655,0.0108,-0.00020573,-0.00011732,-0.00184475,0.00006331,0.00022781,0.04910403,-0.1452,0.1518,-9.7184,-0.004168,-0.000961,-0.003142,36.5506,0.0310,86,0,0,0.001396,0.001451,-0.030791,0.001027,-0.000300,0.003391,-1.0431,-0.9169,0.4510
12469,10.0,0.000912,0.000932,-0.030816,0.001887,-0.002576,0.002771,-1.1331,-0.9657,0.0112,-0.00022344,-0.00012445,-0.00184495,0.00009087,0.00031570,0.04910512,-0.1552,0.1660,-9.7394,-0.001583,-0.001869,-0.002797,36.5506,0.0310,92,1,2,0.001404,0.001458,-0.030905,0.000989,-0.000355,0.002116,-1.0432,-0.9163,0.4515
12480,11.0,0.000920,0.000914,-0.030895,0.001939,-0.002840,0.001833,-1.1344,-0.9667,0.0107,-0.00022408,-0.00012513,-0.00184496,0.00010989,0.00029669,0.04965421,-0.1559,0.1833,-9.7257,-0.003303,-0.002053,-0.002659,36.5506,0.0310,94,1,0,0.001363,0.001440,-0.030884,0.000832,-0.000446,0.002277,-1.0423,-0.9167,0.4513
12491,11.0,0.000929,0.000920,-0.030874,0.001967,-0.002930,0.002121,-1.1336,-0.9667,0.0105,-0.00024475,-0.00013249,-0.00184499,0.00008307,0.00036928,0.04965587,-0.1638,0.1579,-9.7426,-0.004728,-0.002106,-0.001860,36.5506,0.0310,91,0,0,0.001371,0.001422,-0.030860,0.000883,-0.000501,0.002430,-1.0428,-0.9170,0.4306
12503,12.0,0.000965,0.000951,-0.030848,0.002095,-0.002974,0.002360,-1.1346,-0.9681,0.0096,-0.00024818,-0.00013186,-0.00184484,0.00007463,0.00032074,0.04966164,-0.1545,0.1894,-9.7377,-0.000893,-0.002245,-0.002366,36.5506,0.0310,87,-1,-1,0.001386,0.001435,-0.030920,0.000730,-0.000571,0.001639,-1.0424,-0.9167,0.4310
12514,11.0,0.001027,0.001010,-0.030913,0.002265,-0.002867,0.001538,-1.1334,-0.9687,0.0090,-0.00026799,-0.00013615,-0.00184465,0.00002186,0.00032548,0.05010868,-0.1505,0.1531,-9.7301,-0.001728,-0.001073,-0.001265,36.5506,0.0310,92,-2,-2,0.001417,0.001466,-0.030902,0.000808,-0.000459,0.001847,-1.0418,-0.9159,0.4307
12525,11.0,0.001035,0.001018,-0.030896,0.002312,-0.002990,0.001770,-1.1350,-0.9699,0.0090,-0.00027008,-0.00013705,-0.00184461,0.00003445,0.00029664,0.05011280,-0.1581,0.1886,-9.7297,-0.006016,-0.003203,-0.000927,36.5506,0.0310,90,0,0,0.001480,0.001529,-0.030862,0.001005,-0.000554,0.002251,-1.0402,-0.9160,0.4310
12536,11.0,0.001043,0.001024,-0.030875,0.002320,-0.002987,0.002055,-1.1345,-0.9698,0.0093,-0.00028276,-0.00014378,-0.00184460,0.00001563,0.00032455,0.05011354,-0.1653,0.1808,-9.7270,-0.000740,0.000541,-0.001615,36.5506,0.0310,96,0,0,0.001487,0.001535,-0.030930,0.000983,-0.000471,0.001522,-1.0412,-0.9159,0.4310
12547,11.0,0.001051,0.001031,-0.030927,0.002380,-0.003074,0.001468,-1.1356,-0.9709,0.0091,-0.00028502,-0.00014476,-0.00184456,0.00003481,0.00028832,0.05047526,-0.1476,0.1789,-9.7312,-0.001566,-0.004654,-0.003718,36.5506,0.0310,91,0,0,0.001502,0.001548,-0.030895,0.000878,-0.000447,0.002189,-1.0420,-0.9172,0.4297
12558,11.0,0.001034,0.001037,-0.030910,0.002301,-0.003029,0.001749,-1.1361,-0.9714,0.0097,-0.00029401,-0.00015218,-0.00184459,0.00003936,0.00029603,0.05047524,-0.1636,0.1880,-9.7360,-0.003799,-0.003099,0.002132,36.5506,0.0310,94,0,1,0.001510,0.001554,-0.030873,0.000888,-0.000425,0.002482,-1.0416,-0.9177,0.4286
12569,11.0,0.000990,0.001044,-0.030890,0.002195,-0.003093,0.001998,-1.1367,-0.9723,0.0104,-0.00029622,-0.00015592,-0.00184465,0.00008817,0.00026680,0.05048008,-0.1538,0.1635,-9.7360,-0.001061,-0.002841,-0.001549,36.5506,0.0300,89,0,2,0.001494,0.001559,-0.030337,0.000784,-0.000316,0.008272,-1.0417,-0.9184,0.4304
12580,11.0,0.000998,0.001050,-0.030388,0.002197,-0.003148,0.007737,-1.1354,-0.9737,0.0110,-0.00031339,-0.00016162,-0.00184469,0.00003481,0.00036287,0.04824243,-0.1717,0.1536,-9.7657,-0.000540,-0.003860,-0.003007,36.5506,0.0300,90,0,0,0.001414,0.001571,-0.030169,0.000528,-0.000309,0.008509,-1.0384,-0.9177,0.4301
12591,11.0,0.001032,0.001031,-0.030277,0.002220,-0.003367,0.008294,-1.1361,-0.9751,0.0116,-0.00031434,-0.00016107,-0.00184463,0.00002604,0.00035295,0.04812130,-0.1778,0.1738,-9.7056,-0.001157,0.000516,0.000020,36.4581,0.0300,91,1,-1,0.001421,0.001577,-0.030082,0.000478,-0.000428,0.008835,-1.0350,-0.9196,0.3809
12602,11.0,0.001041,0.001038,-0.030184,0.002177,-0.003440,0.008593,-1.1341,-0.9761,0.0122,-0.00033540,-0.00016284,-0.00184470,0.00003198,0.00041936,0.04812230,-0.1599,0.1737,-9.7202,-0.003248,-0.001830,-0.003380,36.4581,0.0310,92,0,0,0.001452,0.001561,-0.029940,0.000390,-0.000569,0.009811,-1.0347,-0.9187,0.3819
12613,11.0,0.001049,0.001019,-0.030560,0.002106,-0.003654,0.003532,-1.1347,-0.9771,0.0122,-0.00033702,-0.00016384,-0.00184468,0.00007994,0.00036293,0.05030428,-0.1656,0.1734,-9.6810,-0.001267,-0.002676,-0.000442,36.4581,0.0310,88,1,0,0.001467,0.001551,-0.030531,0.000226,-0.000658,0.003113,-1.0333,-0.9189,0.3817
12624,11.0,0.001058,0.001025,-0.030518,0.002066,-0.003636,0.004044,-1.1340,-0.9778,0.0126,-0.00035108,-0.00016585,-0.00184469,0.00008363,0.00039000,0.05030461,-0.1593,0.1875,-9.7340,-0.003077,-0.002882,-0.003227,36.4581,0.0310,96,0,0,0.001475,0.001533,-0.030497,0.000134,-0.000695,0.003710,-1.0329,-0.9200,0.3828
12635,11.0,0.001040,0.001057,-0.030439,0.001990,-0.003585,0.004864,-1.1346,-0.9790,0.0123,-0.00035519,-0.00016815,-0.00184464,0.00010902,0.00034295,0.05014874,-0.1677,0.1842,-9.7364,-0.001384,-0.002912,-0.001132,36.4581,0.0300,89,-1,1,0.001483,0.001538,-0.030458,0.000065,-0.000528,0.003999,-1.0328,-0.9204,0.3838
12647,12.0,0.001025,0.001060,-0.030164,0.001901,-0.003624,0.007758,-1.1336,-0.9796,0.0128,-0.00037183,-0.00017302,-0.00184472,0.00010516,0.00040340,0.04917998,-0.1626,0.1470,-9.7386,-0.002063,0.000226,-0.002750,36.5162,0.0300,89,0,1,0.001473,0.001574,-0.030064,-0.000032,-0.000386,0.007199,-1.0339,-0.9205,0.3835
12658,11.0,0.001007,0.001067,-0.030069,0.001846,-0.003753,0.008080,-1.1344,-0.9802,0.0126,-0.00037463,-0.00017528,-0.00184471,0.00013113,0.00037102,0.04913862,-0.1593,0.1607,-9.7436,-0.002620,-0.000708,-0.001057,36.5162,0.0300,89,0,1,0.001441,0.001588,-0.029903,-0.000214,-0.000611,0.007844,-1.0342,-0.9186,0.3838
12669,11.0,0.001042,0.001074,-0.029979,0.001929,-0.003798,0.008322,-1.1329,-0.9807,0.0126,-0.00039473,-0.00017913,-0.00184466,0.00009692,0.00042734,0.04914007,-0.1542,0.1820,-9.7258,-0.001574,-0.003365,-0.003697,36.5162,0.0310,89,0,-1,0.001472,0.001619,-0.030522,-0.000101,-0.000632,0.000337,-1.0323,-0.9181,0.3845
12680,11.0,0.001076,0.001108,-0.030483,0.002070,-0.003877,0.001665,-1.1333,-0.9815,0.0114,-0.00039995,-0.00017847,-0.00184446,0.00013575,0.00032354,0.05181444,-0.1544,0.1754,-9.7241,-0.002772,-0.001519,-0.003214,36.5162,0.0310,95,-1,-1,0.001503,0.001625,-0.030508,0.000027,-0.000575,0.000681,-1.0318,-0.9192,0.3836
12691,11.0,0.001084,0.001114,-0.030463,0.002104,-0.003894,0.001956,-1.1323,-0.9816,0.0112,-0.00041803,-0.00018715,-0.00184444,0.00010530,0.00036822,0.05181561,-0.1585,0.1683,-9.7225,-0.002444,-0.002470,-0.000843,36.5162,0.0310,88,0,0,0.001541,0.001662,-0.030490,0.000194,-0.000350,0.001120,-1.0338,-0.9184,0.3917
12702,11.0,0.001093,0.001121,-0.030429,0.002126,-0.003917,0.002387,-1.1329,-0.9829,0.0107,-0.00042103,-0.00018807,-0.00184437,0.00011488,0.00033548,0.05176310,-0.1791,0.1892,-9.7412,-0.001216,-0.002203,-0.002057,36.5162,0.0310,85,0,0,0.001548,0.001668,-0.030776,0.000195,-0.000347,-0.001848,-1.0330,-0.9193,0.3921
12713,11.0,0.001101,0.001100,-0.030722,0.002126,-0.003945,-0.001051,-1.1326,-0.9833,0.0106,-0.00043220,-0.00019392,-0.00184437,0.00012480,0.00034103,0.05318713,-0.1529,0.1877,-9.7248,-0.002391,-0.001968,-0.002163,36.5162,0.0310,95,1,0,0.001556,0.001674,-0.030794,0.000034,-0.000220,-0.001685,-1.0322,-0.9197,0.3922
12724,11.0,0.001109,0.001081,-0.030724,0.002144,-0.004033,-0.000740,-1.1334,-0.9845,0.0107,-0.00043367,-0.00019486,-0.00184435,0.00013450,0.00032557,0.05314677,-0.1588,0.1732,-9.7521,-0.001856,-0.002322,-0.001973,36.5162,0.0310,90,1,0,0.001571,0.001638,-0.030810,0.000046,-0.000147,-0.001145,-1.0312,-0.9199,0.3926
12735,11.0,0.001117,0.001087,-0.030731,0.002163,-0.003971,-0.000557,-1.1328,-0.9846,0.0105,-0.00044452,-0.00020234,-0.00184429,0.00011145,0.00033171,0.05314714,-0.1455,0.1806,-9.7306,-0.001000,-0.000664,-0.001111,36.5744,0.0310,96,0,0,0.001578,0.001645,-0.030929,0.000057,-0.000104,-0.002154,-1.0311,-0.9201,0.3926
12746,11.0,0.001125,0.001094,-0.030880,0.002266,-0.003968,-0.002043,-1.1336,-0.9854,0.0100,-0.00044782,-0.00020341,-0.00184421,0.00013389,0.00028592,0.05377775,-0.1608,0.1829,-9.7386,-0.004477,-0.002223,-0.004003,36.5744,0.0310,90,0,0,0.001584,0.001651,-0.030949,0.000163,-0.000029,-0.001864,-1.0303,-0.9196,0.3929
12757,11.0,0.001134,0.001100,-0.030901,0.002335,-0.003941,-0.001781,-1.1332,-0.9852,0.0094,-0.00046214,-0.00021634,-0.00184413,0.00008469,0.00031045,0.05377885,-0.1409,0.1743,-9.6972,-0.002978,-0.004011,-0.002197,36.5744,0.0310,89,0,0,0.001598,0.001689,-0.030993,0.000230,0.000111,-0.001316,-1.0298,-0.9188,0.3915
12768,11.0,0.001115,0.001106,-0.030929,0.002365,-0.003940,-0.001560,-1.1341,-0.9860,0.0091,-0.00046531,-0.00021916,-0.00184413,0.00011517,0.00027633,0.05382269,-0.1682,0.1858,-9.7229,-0.001605,-0.001014,-0.002033,36.5744,0.0310,90,0,1,0.001605,0.001695,-0.030996,0.000310,0.000130,-0.000802,-1.0297,-0.9190,0.3907
12779,11.0,0.001123,0.001112,-0.030969,0.002388,-0.003944,-0.001456,-1.1331,-0.9863,0.0084,-0.00048279,-0.00022819,-0.00184410,0.00008838,0.00031455,0.05393114,-0.1600,0.1502,-9.7118,-0.000380,-0.002634,-0.003421,36.5744,0.0310,87,0,0,0.001571,0.001708,-0.031016,0.000201,0.000100,-0.000310,-1.0277,-0.9189,0.3903
12790,11.0,0.001131,0.001119,-0.030990,0.002445,-0.003977,-0.001136,-1.1339,-0.9879,0.0079,-0.00048599,-0.00022940,-0.00184404,0.00010156,0.00028108,0.05396461,-0.1632,0.2003,-9.7307,-0.004207,-0.004464,-0.002170,36.5744,0.0300,88,0,0,0.001579,0.001716,-0.031018,0.000178,-0.000105,-0.000023,-1.0277,-0.9185,0.4505
12801,11.0,0.001139,0.001150,-0.031001,0.002428,-0.003860,-0.000767,-1.1332,-0.9887,0.0074,-0.00050020,-0.00023490,-0.00184396,0.00009191,0.00028013,0.05396460,-0.1609,0.1856,-9.7126,-0.002314,-0.001751,-0.002351,36.5744,0.0300,94,-1,0,0.001586,0.001721,-0.030412,0.000155,0.000018,0.006835,-1.0296,-0.9203,0.4502
12812,11.0,0.001147,0.001157,-0.030458,0.002463,-0.003884,0.006022,-1.1337,-0.9903,0.0066,-0.00050289,-0.00023588,-0.00184390,0.00006376,0.00029399,0.05162095,-0.1585,0.1801,-9.7091,-0.000745,-0.003089,-0.003393,36.5744,0.0300,90,0,0,0.001600,0.001757,-0.030277,0.000043,0.000251,0.007476,-1.0295,-0.9211,0.4506
12823,11.0,0.001181,0.001162,-0.030390,0.002533,-0.003809,0.006433,-1.1337,-0.9910,0.0061,-0.00051241,-0.00024128,-0.00184378,0.00003026,0.00029540,0.05162142,-0.1626,0.1738,-9.7195,-0.002280,-0.000132,-0.000650,36.5744,0.0300,94,0,-1,0.001607,0.001763,-0.030200,0.000007,0.000345,0.007946,-1.0284,-0.9220,0.4493
12834,11.0,0.001214,0.001169,-0.030328,0.002694,-0.003802,0.006564,-1.1344,-0.9923,0.0059,-0.00051557,-0.00024099,-0.00184366,0.00002840,0.00026346,0.05166569,-0.1409,0.1890,-9.7882,-0.003165,-0.003795,-0.000440,36.5744,0.0300,94,0,-1,0.001637,0.001769,-0.030043,0.000079,0.000374,0.009161,-1.0288,-0.9218,0.4494
12845,11.0,0.001222,0.001174,-0.030112,0.002735,-0.003751,0.007815,-1.1349,-0.9930,0.0056,-0.00052545,-0.00025161,-0.00184358,-0.00001508,0.00028027,0.05104841,-0.1650,0.1949,-9.9692,-0.006893,-0.006752,-0.003043,36.5744,0.0300,90,0,0,0.001674,0.001780,-0.029842,0.000204,0.000707,0.009245,-1.0291,-0.9241,0.4492
12856,11.0,0.001230,0.001181,-0.030036,0.002818,-0.003822,0.007390,-1.1366,-0.9946,0.0056,-0.00052866,-0.00025311,-0.00184352,0.00000014,0.00024855,0.05108221,-0.1607,0.1475,-9.6674,-0.003087,-0.001456,-0.002321,36.5744,0.0310,90,0,0,0.001682,0.001786,-0.029767,0.000143,0.000785,0.008246,-1.0305,-0.9251,0.4489
12867,11.0,0.001239,0.001187,-0.029956,0.002856,-0.003832,0.007006,-1.1367,-0.9957,0.0058,-0.00054502,-0.00026413,-0.00184349,-0.00003344,0.00028452,0.05108324,-0.1609,0.1717,-9.7392,-0.001762,-0.004189,-0.000283,36.5744,0.0310,91,0,0,0.001696,0.001775,-0.030452,0.000258,0.000611,0.001407,-1.0305,-0.9259,0.4479
12878,11.0,0.001247,0.001167,-0.030465,0.002874,-0.003990,0.000093,-1.1382,-0.9974,0.0058,-0.00054700,-0.00026603,-0.00184350,0.00002367,0.00022145,0.05352192,-0.1650,0.1840,-9.6877,-0.001513,-0.001137,-0.001776,36.4581,0.0310,91,1,0,0.001703,0.001782,-0.030404,0.000309,0.000625,0.001962,-1.0304,-0.9262,0.4481
12889,11.0,0.001230,0.001147,-0.030461,0.002787,-0.004093,0.000582,-1.1371,-0.9976,0.0070,-0.00056579,-0.00027524,-0.00184365,0.00002439,0.00029223,0.05352305,-0.1630,0.1776,-9.7427,-0.003110,-0.002377,0.000368,36.4581,0.0310,90,1,1,0.001710,0.001764,-0.030382,0.000345,0.000703,0.002329,-1.0294,-0.9270,0.3763
12900,11.0,0.001238,0.001153,-0.030420,0.002780,-0.004185,0.001381,-1.1382,-0.9989,0.0078,-0.00056930,-0.00027674,-0.00184359,0.00003633,0.00026204,0.05338282,-0.1711,0.1566,-9.6969,-0.004823,-0.003110,0.000259,36.4581,0.0300,91,0,0,0.001677,0.001729,-0.030092,0.000357,0.000553,0.004987,-1.0302,-0.9267,0.3777
12911,11.0,0.001221,0.001159,-0.030178,0.002679,-0.004188,0.004376,-1.1375,-0.9992,0.0083,-0.00058746,-0.00028363,-0.00184368,0.00003033,0.00032174,0.05245576,-0.1637,0.1766,-9.7504,-0.002451,-0.001679,-0.006041,36.4581,0.0300,93,0,1,0.001684,0.001735,-0.030040,0.000306,0.000524,0.005372,-1.0303,-0.9280,0.3791
12922,11.0,0.001203,0.001192,-0.030103,0.002615,-0.004211,0.004917,-1.1382,-1.0000,0.0081,-0.00059281,-0.00028681,-0.00184362,0.00005797,0.00027453,0.05234801,-0.1608,0.1792,-9.7415,-0.000355,-0.001231,-0.002498,36.4581,0.0300,90,-1,1,0.001668,0.001742,-0.029951,0.000224,0.000534,0.005889,-1.0301,-0.9277,0.3779
12933,11.0,0.001239,0.001225,-0.030048,0.002666,-0.004178,0.005121,-1.1368,-1.0013,0.0072,-0.00061690,-0.00028995,-0.00184354,0.00003500,0.00031806,0.05234899,-0.1695,0.1605,-9.7562,-0.003911,-0.005657,-0.005724,36.5162,0.0320,90,-1,-1,0.001684,0.001804,-0.031136,0.000107,0.000672,-0.007615,-1.0287,-0.9269,0.3767
12944,11.0,0.001275,0.001232,-0.031073,0.002757,-0.004222,-0.007373,-1.1377,-1.0028,0.0055,-0.00062157,-0.00029011,-0.00184338,0.00010897,0.00019914,0.05675066,-0.1627,0.1903,-9.7422,-0.005007,-0.002124,-0.001098,36.5162,0.0320,91,0,-1,0.001716,0.001836,-0.031212,0.000085,0.000712,-0.007646,-1.0288,-0.9297,0.3751
12955,11.0,0.001258,0.001238,-0.031153,0.002693,-0.004188,-0.007285,-1.1371,-1.0033,0.0053,-0.00063591,-0.00030036,-0.00184340,0.00010269,0.00022097,0.05675098,-0.1544,0.1877,-9.7290,0.000322,-0.002335,-0.000099,36.5162,0.0290,96,0,1,0.001748,0.001842,-0.031289,0.000246,0.000704,-0.007693,-1.0296,-0.9306,0.3758
12966,11.0,0.001241,0.001219,-0.031221,0.002729,-0.004262,-0.007011,-1.1384,-1.0045,0.0053,-0.00063782,-0.00030364,-0.00184346,0.00013096,0.00020472,0.05670218,-0.1379,0.1850,-9.7246,-0.003653,-0.001280,-0.001635,36.5162,0.0290,85,1,1,0.001740,0.001853,-0.029999,-0.000002,0.001119,0.007186,-1.0304,-0.9308,0.3765
12977,11.0,0.001224,0.001200,-0.030040,0.002725,-0.004239,0.007867,-1.1392,-1.0033,0.0053,-0.00064333,-0.00031863,-0.00184346,0.00000846,0.00031080,0.05164710,-0.1622,0.1894,-9.7061,-0.003695,0.000840,-0.003184,36.5162,0.0290,85,1,1,0.001724,0.001837,-0.029915,0.000031,0.001143,0.007605,-1.0328,-0.9296,0.3759
12988,11.0,0.001232,0.001206,-0.029943,0.002859,-0.004212,0.008342,-1.1397,-1.0038,0.0055,-0.00064705,-0.00032025,-0.00184340,0.00002214,0.00027906,0.05161098,-0.1578,0.1721,-9.7263,-0.001689,-0.003003,-0.000171,36.5162,0.0310,88,0,0,0.001709,0.001820,-0.029836,-0.000081,0.001097,0.008142,-1.0330,-0.9289,0.3739
13000,12.0,0.001243,0.001208,-0.029841,0.002946,-0.004181,0.008728,-1.1397,-1.0024,0.0050,-0.00066119,-0.00033548,-0.00184329,-0.00003098,0.00029942,0.05161204,-0.1518,0.1749,-9.7365,-0.002810,-0.000288,-0.002870,36.4581,0.0310,91,0,0,0.001724,0.001834,-0.030467,-0.000246,0.001066,0.000541,-1.0338,-0.9298,0.3587
13011,11.0,0.001304,0.001215,-0.030409,0.003210,-0.004203,0.001404,-1.1408,-1.0033,0.0045,-0.00066558,-0.00033395,-0.00184307,-0.00000021,0.00021587,0.05425015,-0.1431,0.1789,-9.7124,-0.004807,-0.002953,-0.001462,36.4581,0.0310,84,0,-2,0.001786,0.001848,-0.030375,-0.000079,0.001036,0.001777,-1.0343,-0.9299,0.3600
13022,11.0,0.001337,0.001221,-0.030392,0.003324,-0.004169,0.001704,-1.1405,-1.0030,0.0042,-0.00068045,-0.00034660,-0.00184293,-0.00006019,0.00024092,0.05425142,-0.1638,0.1916,-9.7273,-0.002557,-0.002786,-0.002351,36.4581,0.0290,87,0,-1,0.001838,0.001855,-0.029545,0.000173,0.001028,0.011098,-1.0351,-0.9294,0.3600
13033,11.0,0.001320,0.001202,-0.030339,0.003346,-0.004230,0.002365,-1.1418,-1.0032,0.0041,-0.00068239,-0.00035043,-0.00184301,-0.00003006,0.00022669,0.05411723,-0.1638,0.1843,-9.7373,-0.002216,0.000821,-0.002123,36.4581,0.0290,90,1,1,0.001867,0.001860,-0.029433,0.000232,0.001145,0.011366,-1.0351,-0.9300,0.3597
13044,11.0,0.001303,0.001183,-0.029589,0.003284,-0.004219,0.010995,-1.1426,-1.0026,0.0044,-0.00069019,-0.00036218,-0.00184306,-0.00009023,0.00029837,0.05128863,-0.1681,0.1908,-9.7369,-0.003840,-0.001803,-0.000106,36.4581,0.0290,94,1,1,0.001836,0.001828,-0.029166,0.000029,0.000960,0.012187,-1.0360,-0.9319,0.3586
13055,11.0,0.001311,0.001190,-0.029442,0.003294,-0.004218,0.011493,-1.1435,-1.0032,0.0047,-0.00069398,-0.00036415,-0.00184301,-0.00007522,0.00026862,0.05118709,-0.1582,0.1618,-9.7486,-0.002649,-0.002439,0.000185,36.4581,0.0310,90,0,0,0.001843,0.001834,-0.029043,0.000018,0.000964,0.012328,-1.0360,-0.9326,0.3595
13066,11.0,0.001293,0.001197,-0.029315,0.003213,-0.004186,0.011712,-1.1434,-1.0022,0.0050,-0.00070919,-0.00037485,-0.00184306,-0.00007757,0.00029406,0.05118741,-0.1577,0.1814,-9.7209,-0.004076,0.000050,-0.004808,36.4581,0.0310,91,0,1,0.001850,0.001841,-0.030237,0.000061,0.000865,-0.001421,-1.0357,-0.9328,0.3602
13077,11.0,0.001302,0.001204,-0.030161,0.003236,-0.004256,0.000657,-1.1447,-1.0022,0.0048,-0.00071384,-0.00037759,-0.00184300,0.00000509,0.00018682,0.05497825,-0.1629,0.1666,-9.7160,-0.003843,0.001373,-0.002823,36.5162,0.0310,91,0,0,0.001815,0.001879,-0.030249,0.000113,0.000870,-0.000770,-1.0361,-0.9320,0.3590
13089,12.0,0.001338,0.001206,-0.030152,0.003335,-0.004322,0.000946,-1.1439,-1.0009,0.0047,-0.00073656,-0.00038729,-0.00184296,-0.00004036,0.00024893,0.05497992,-0.1529,0.1669,-9.7276,-0.003168,0.000335,-0.000852,36.5162,0.0290,93,0,-1,0.001822,0.001886,-0.030255,0.000178,0.000878,-0.000509,-1.0341,-0.9331,0.2166
13100,11.0,0.001370,0.001238,-0.030128,0.003480,-0.004346,0.001381,-1.1449,-1.0007,0.0036,-0.00074236,-0.00038765,-0.00184277,-0.00003774,0.00020314,0.05493383,-0.1523,0.1776,-9.7356,-0.002526,-0.002158,-0.003145,36.5162,0.0290,92,-1,-1,0.001880,0.001899,-0.029401,0.000333,0.000603,0.008136,-1.0338,-0.9337,0.2169
13111,11.0,0.001428,0.001245,-0.029495,0.003645,-0.004371,0.008768,-1.1437,-0.9998,0.0030,-0.00076292,-0.00039683,-0.00184263,-0.00014496,0.00030389,0.05257423,-0.1539,0.1750,-9.7399,-0.001133,-0.002295,-0.003056,36.5162,0.0290,89,0,-2,0.001909,0.001928,-0.029319,0.000440,0.000770,0.008370,-1.0334,-0.9344,0.2167
